StateDesc,lat,lng,TotalPopulation,Data_Value,Data_Value_Unit,Data_Value_Type,Low_Confidence_Limit,High_Confidence_Limit,Measure_Short,LocationCount,LocationName
Alabama,32.88381008955224,-86.71006012552239,4887871.0,18.07914492833383,%,Crude Prevalence,15.514925373134329,27.88059701492537,All - Teeth - Lost,67,Alabama
Alaska,60.24761056551725,-148.0113722827586,737438.0,15.055611047979628,%,Crude Prevalence,14.786206896551722,25.310344827586206,All - Teeth - Lost,29,Alaska
Arizona,33.676078278666665,-111.46298898000002,7171646.0,13.746985991779292,%,Crude Prevalence,12.326666666666666,22.826666666666664,All - Teeth - Lost,15,Arizona
Arkansas,34.912003487599996,-92.43363427240001,3013825.0,20.111528771577646,%,Crude Prevalence,16.665333333333333,30.11733333333333,All - Teeth - Lost,75,Arkansas
California,37.845334360344836,-120.72794428793102,39557045.0,11.471478243635238,%,Crude Prevalence,8.96896551724138,17.894827586206894,All - Teeth - Lost,58,California
Colorado,38.9353955178125,-105.4858297046875,5695564.0,11.022548618538918,%,Crude Prevalence,8.3734375,18.207812500000003,All - Teeth - Lost,64,Colorado
Connecticut,41.6144591925,-72.6576344475,3572665.0,9.464282965237436,%,Crude Prevalence,5.9125,14.175,All - Teeth - Lost,8,Connecticut
Delaware,39.10980886000001,-75.53543849,967171.0,15.231682091377843,%,Crude Prevalence,11.033333333333331,22.233333333333334,All - Teeth - Lost,3,Delaware
District of Columbia,38.90472697,-77.01629978,702455.0,10.3,%,Crude Prevalence,6.3,15.1,All - Teeth - Lost,1,District of Columbia
Florida,28.943931602985074,-82.69877135716418,21299325.0,15.000740553984693,%,Crude Prevalence,12.940298507462687,24.498507462686568,All - Teeth - Lost,67,Florida
Georgia,32.80856568188679,-83.57769511591195,10519475.0,16.259862550174795,%,Crude Prevalence,15.238993710691824,26.994968553459124,All - Teeth - Lost,159,Georgia
Idaho,44.26361581977273,-114.45962451363638,1754208.0,14.12107332767836,%,Crude Prevalence,10.781818181818183,22.39090909090909,All - Teeth - Lost,44,Idaho
Illinois,39.84370260843137,-89.17803001490196,12741080.0,11.998549965936954,%,Crude Prevalence,9.543137254901959,20.20098039215686,All - Teeth - Lost,102,Illinois
Indiana,39.837467859891305,-86.21870050619566,6691878.0,17.362042658279186,%,Crude Prevalence,12.264130434782611,24.974999999999998,All - Teeth - Lost,92,Indiana
Iowa,42.02990573030303,-93.46577245747476,3156145.0,12.06186902059316,%,Crude Prevalence,8.480808080808082,18.591919191919192,All - Teeth - Lost,99,Iowa
Kansas,38.48538873371429,-98.08457630561902,2911505.0,13.9751283957953,%,Crude Prevalence,10.34095238095238,21.881904761904764,All - Teeth - Lost,105,Kansas
Kentucky,37.621618947,-85.20036792349998,4468402.0,21.01843124230989,%,Crude Prevalence,17.325833333333335,32.93666666666666,All - Teeth - Lost,120,Kentucky
Louisiana,31.09498676390625,-91.826434935,4659978.0,19.043087113286802,%,Crude Prevalence,16.5109375,28.270312500000003,All - Teeth - Lost,64,Louisiana
Maine,44.697257113125,-69.529018589375,1338404.0,16.54766303746851,%,Crude Prevalence,12.025,25.79375,All - Teeth - Lost,16,Maine
Maryland,39.0157300425,-76.67476053791667,6042718.0,10.662081037043265,%,Crude Prevalence,8.095833333333333,17.05,All - Teeth - Lost,24,Maryland
Massachusetts,42.11356445142858,-71.4690775742857,6902149.0,12.403130822009203,%,Crude Prevalence,7.471428571428571,17.942857142857143,All - Teeth - Lost,14,Massachusetts
Michigan,44.04264490108434,-85.1820795233735,9995915.0,12.660269450070354,%,Crude Prevalence,9.23855421686747,19.44698795180723,All - Teeth - Lost,83,Michigan
Minnesota,45.55170990344828,-94.43129790632186,5611179.0,9.75930097756639,%,Crude Prevalence,7.714942528735633,17.04137931034483,All - Teeth - Lost,87,Minnesota
Mississippi,32.79280325134146,-89.64635060219511,2986530.0,20.16227876498813,%,Crude Prevalence,17.356097560975613,29.920731707317067,All - Teeth - Lost,82,Mississippi
Missouri,38.45115789156521,-92.4817818097391,6126452.0,16.560609403289213,%,Crude Prevalence,13.862608695652172,27.442608695652176,All - Teeth - Lost,115,Missouri
Montana,46.974319369999996,-109.70005154285715,1062305.0,14.59551164684342,%,Crude Prevalence,10.830357142857142,22.24285714285714,All - Teeth - Lost,56,Montana
Nebraska,41.32182658849462,-99.03908183677422,1929268.0,12.243504842251049,%,Crude Prevalence,9.19784946236559,20.002150537634407,All - Teeth - Lost,93,Nebraska
Nevada,39.25609544647058,-117.56436555882354,3034392.0,15.387999704718442,%,Crude Prevalence,11.952941176470588,22.69411764705882,All - Teeth - Lost,17,Nevada
New Hampshire,43.480085493999994,-71.577655606,1356458.0,12.108960469104094,%,Crude Prevalence,8.059999999999999,19.220000000000002,All - Teeth - Lost,10,New Hampshire
New Jersey,40.28683281523809,-74.62251926285714,8908520.0,11.522525234270116,%,Crude Prevalence,7.852380952380953,16.752380952380953,All - Teeth - Lost,21,New Jersey
New Mexico,34.54934118818181,-105.88657794545455,2095428.0,16.452425423350263,%,Crude Prevalence,13.157575757575756,23.215151515151515,All - Teeth - Lost,33,New Mexico
New York,42.54418242419355,-75.47418766903228,19542209.0,15.201394294780082,%,Crude Prevalence,10.988709677419354,23.09354838709677,All - Teeth - Lost,62,New York
North Carolina,35.6262429096,-79.50747652049999,10383620.0,16.561217186299192,%,Crude Prevalence,13.758000000000003,25.729000000000006,All - Teeth - Lost,100,North Carolina
North Dakota,47.39351678207548,-100.24971405962262,760077.0,11.677528197801012,%,Crude Prevalence,8.8,19.039622641509435,All - Teeth - Lost,53,North Dakota
Ohio,40.310540941363634,-82.83566370352273,11689442.0,16.135215581718956,%,Crude Prevalence,11.946590909090911,23.93068181818182,All - Teeth - Lost,88,Ohio
Oklahoma,35.50212211558441,-97.25164380155844,3943079.0,18.872994809386274,%,Crude Prevalence,15.067532467532468,27.685714285714287,All - Teeth - Lost,77,Oklahoma
Oregon,44.492170799722224,-121.47705134722221,4190713.0,13.904675839171045,%,Crude Prevalence,10.522222222222222,22.230555555555554,All - Teeth - Lost,36,Oregon
Pennsylvania,40.81777532492538,-77.61600680149253,12807060.0,14.980631065990165,%,Crude Prevalence,10.686567164179106,22.440298507462686,All - Teeth - Lost,67,Pennsylvania
Rhode Island,41.657331672000005,-71.46318302200001,1057315.0,13.480090796025781,%,Crude Prevalence,6.840000000000001,17.240000000000002,All - Teeth - Lost,5,Rhode Island
South Carolina,33.957593663043475,-80.98349363717392,5084127.0,15.387704083709947,%,Crude Prevalence,13.658695652173913,24.347826086956516,All - Teeth - Lost,46,South Carolina
South Dakota,44.272762113787884,-99.31040156090909,882235.0,14.54875208986268,%,Crude Prevalence,11.440909090909091,22.903030303030302,All - Teeth - Lost,66,South Dakota
Tennessee,35.88510256863158,-86.1083303285263,6770010.0,18.151023646937006,%,Crude Prevalence,14.755789473684212,28.451578947368418,All - Teeth - Lost,95,Tennessee
Texas,31.661034618070868,-98.65396454681104,28701845.0,14.582710850121309,%,Crude Prevalence,12.02204724409449,22.72716535433071,All - Teeth - Lost,254,Texas
Utah,39.635075868965515,-111.59628196896553,3161105.0,12.300669259641802,%,Crude Prevalence,9.727586206896552,20.517241379310345,All - Teeth - Lost,29,Utah
Vermont,44.15991418071429,-72.6838344957143,626299.0,13.46043742685203,%,Crude Prevalence,8.907142857142857,20.678571428571423,All - Teeth - Lost,14,Vermont
Virginia,37.566601079473685,-78.51430630285715,8517685.0,11.690459039046408,%,Crude Prevalence,10.251127819548874,20.378195488721804,All - Teeth - Lost,133,Virginia
Washington,47.23287919846154,-120.71734196153845,7535591.0,10.582710261212428,%,Crude Prevalence,8.723076923076926,18.902564102564103,All - Teeth - Lost,39,Washington
West Virginia,38.81399128872727,-80.6175985330909,1805832.0,22.01501944809927,%,Crude Prevalence,16.585454545454546,31.318181818181824,All - Teeth - Lost,55,West Virginia
Wisconsin,44.39512396194445,-89.79838549444445,5813568.0,11.67977312727743,%,Crude Prevalence,8.368055555555555,18.116666666666664,All - Teeth - Lost,72,Wisconsin
Wyoming,43.08673209695652,-107.15309161304347,577737.0,15.233949703757938,%,Crude Prevalence,10.4,21.86086956521739,All - Teeth - Lost,23,Wyoming
