StateDesc,lat,lng,TotalPopulation,Data_Value,Data_Value_Unit,Data_Value_Type,Low_Confidence_Limit,High_Confidence_Limit,Measure_Short,LocationCount,LocationName
Alabama,32.88381008955224,-86.71006012552239,4887871.0,29.86860377452678,%,Crude Prevalence,30.429850746268656,36.076119402985064,Leisure-Time - Physical - Activity,67,Alabama
Alaska,60.24761056551725,-145.72324814482758,737438.0,20.211323663819876,%,Crude Prevalence,21.07586206896552,25.434482758620685,Leisure-Time - Physical - Activity,29,Alaska
Arizona,33.676078278666665,-111.46298898000002,7171646.0,22.814325316670683,%,Crude Prevalence,23.46,28.220000000000002,Leisure-Time - Physical - Activity,15,Arizona
Arkansas,34.912003487599996,-92.43363427240001,3013825.0,32.078799266712565,%,Crude Prevalence,32.63066666666667,38.69466666666666,Leisure-Time - Physical - Activity,75,Arkansas
California,37.845334360344836,-120.72794428793102,39557045.0,21.80433669400735,%,Crude Prevalence,20.35,24.784482758620694,Leisure-Time - Physical - Activity,58,California
Colorado,38.9353955178125,-105.4858297046875,5695564.0,16.740129388415266,%,Crude Prevalence,16.532812500000002,20.962500000000002,Leisure-Time - Physical - Activity,64,Colorado
Connecticut,41.6144591925,-72.6576344475,3572665.0,21.792391897924936,%,Crude Prevalence,18.875,23.699999999999996,Leisure-Time - Physical - Activity,8,Connecticut
Delaware,39.10980886000001,-75.53543849,967171.0,28.000427121987737,%,Crude Prevalence,26.46666666666667,31.899999999999995,Leisure-Time - Physical - Activity,3,Delaware
District of Columbia,38.90472697,-77.01629978,702455.0,18.2,%,Crude Prevalence,16.3,20.3,Leisure-Time - Physical - Activity,1,District of Columbia
Florida,28.943931602985074,-82.69877135716418,21299325.0,27.91565587641862,%,Crude Prevalence,27.42985074626866,32.84776119402985,Leisure-Time - Physical - Activity,67,Florida
Georgia,32.80856568188679,-83.57769511591195,10519475.0,26.338110086292332,%,Crude Prevalence,28.105660377358493,33.35283018867924,Leisure-Time - Physical - Activity,159,Georgia
Idaho,44.26361581977273,-114.45962451363638,1754208.0,20.89042513772597,%,Crude Prevalence,20.688636363636366,25.877272727272725,Leisure-Time - Physical - Activity,44,Idaho
Illinois,39.84370260843137,-89.17803001490196,12741080.0,25.13775690129879,%,Crude Prevalence,24.92058823529412,30.840196078431372,Leisure-Time - Physical - Activity,102,Illinois
Indiana,39.837467859891305,-86.21870050619566,6691878.0,28.38426066643773,%,Crude Prevalence,26.628260869565224,32.85217391304349,Leisure-Time - Physical - Activity,92,Indiana
Iowa,42.02990573030303,-93.46577245747476,3156145.0,23.24890332985335,%,Crude Prevalence,22.317171717171714,28.05858585858586,Leisure-Time - Physical - Activity,99,Iowa
Kansas,38.48538873371429,-98.08457630561902,2911505.0,23.413987336446272,%,Crude Prevalence,23.428571428571427,29.24857142857143,Leisure-Time - Physical - Activity,105,Kansas
Kentucky,37.621618947,-85.20036792349998,4468402.0,33.206754025264516,%,Crude Prevalence,33.34916666666666,40.358333333333334,Leisure-Time - Physical - Activity,120,Kentucky
Louisiana,31.09498676390625,-91.826434935,4659978.0,30.42530597783938,%,Crude Prevalence,30.782812500000002,36.1296875,Leisure-Time - Physical - Activity,64,Louisiana
Maine,44.697257113125,-69.529018589375,1338404.0,22.52165243080564,%,Crude Prevalence,21.15,27.200000000000003,Leisure-Time - Physical - Activity,16,Maine
Maryland,39.0157300425,-76.67476053791667,6042718.0,23.260325850056216,%,Crude Prevalence,22.454166666666666,27.595833333333335,Leisure-Time - Physical - Activity,24,Maryland
Massachusetts,42.11356445142858,-71.4690775742857,6902149.0,22.780744518844784,%,Crude Prevalence,20.16428571428571,25.635714285714283,Leisure-Time - Physical - Activity,14,Massachusetts
Michigan,44.04264490108434,-85.1820795233735,9995915.0,24.712832502077102,%,Crude Prevalence,23.38072289156627,29.153012048192767,Leisure-Time - Physical - Activity,83,Michigan
Minnesota,45.55170990344828,-94.43129790632186,5611179.0,20.69348379369113,%,Crude Prevalence,21.18505747126437,26.690804597701153,Leisure-Time - Physical - Activity,87,Minnesota
Mississippi,32.79280325134146,-89.64635060219511,2986530.0,32.23667108651178,%,Crude Prevalence,32.041463414634144,37.734146341463415,Leisure-Time - Physical - Activity,82,Mississippi
Missouri,38.45115789156521,-92.4817818097391,6126452.0,27.171092191695944,%,Crude Prevalence,27.767826086956525,34.14608695652174,Leisure-Time - Physical - Activity,115,Missouri
Montana,46.974319369999996,-109.70005154285715,1062305.0,23.543695925369832,%,Crude Prevalence,22.93035714285714,28.866071428571427,Leisure-Time - Physical - Activity,56,Montana
Nebraska,41.32182658849462,-99.03908183677422,1929268.0,23.984787131699694,%,Crude Prevalence,24.05698924731183,30.12150537634408,Leisure-Time - Physical - Activity,93,Nebraska
Nevada,39.25609544647058,-117.56436555882354,3034392.0,25.908260930031453,%,Crude Prevalence,22.700000000000006,27.470588235294116,Leisure-Time - Physical - Activity,17,Nevada
New Hampshire,43.480085493999994,-71.577655606,1356458.0,21.70727224875374,%,Crude Prevalence,19.880000000000003,25.829999999999995,Leisure-Time - Physical - Activity,10,New Hampshire
New Jersey,40.28683281523809,-74.62251926285714,8908520.0,27.77633275785428,%,Crude Prevalence,25.276190476190475,30.547619047619044,Leisure-Time - Physical - Activity,21,New Jersey
New Mexico,34.54934118818181,-105.88657794545455,2095428.0,22.661361927014436,%,Crude Prevalence,23.209090909090907,27.848484848484844,Leisure-Time - Physical - Activity,33,New Mexico
New York,42.54418242419355,-75.47418766903228,19542209.0,25.675545911928378,%,Crude Prevalence,23.470967741935482,29.14193548387097,Leisure-Time - Physical - Activity,62,New York
North Carolina,35.6262429096,-79.50747652049999,10383620.0,24.522461588540413,%,Crude Prevalence,25.044,30.328000000000003,Leisure-Time - Physical - Activity,100,North Carolina
North Dakota,47.39351678207548,-100.24971405962262,760077.0,22.42964212836331,%,Crude Prevalence,22.773584905660382,28.83773584905661,Leisure-Time - Physical - Activity,53,North Dakota
Ohio,40.310540941363634,-82.83566370352273,11689442.0,26.7056600049857,%,Crude Prevalence,25.547727272727272,31.54090909090909,Leisure-Time - Physical - Activity,88,Ohio
Oklahoma,35.50212211558441,-97.25164380155844,3943079.0,27.89035756067783,%,Crude Prevalence,27.912987012987017,33.289610389610395,Leisure-Time - Physical - Activity,77,Oklahoma
Oregon,44.492170799722224,-121.47705134722221,4190713.0,19.30725382530371,%,Crude Prevalence,19.852777777777774,24.908333333333335,Leisure-Time - Physical - Activity,36,Oregon
Pennsylvania,40.81777532492538,-77.61600680149253,12807060.0,23.90825732837982,%,Crude Prevalence,22.543283582089554,28.258208955223875,Leisure-Time - Physical - Activity,67,Pennsylvania
Rhode Island,41.657331672000005,-71.46318302200001,1057315.0,25.750145982985206,%,Crude Prevalence,20.259999999999998,25.9,Leisure-Time - Physical - Activity,5,Rhode Island
South Carolina,33.957593663043475,-80.98349363717392,5084127.0,26.59155687888993,%,Crude Prevalence,27.604347826086954,32.702173913043474,Leisure-Time - Physical - Activity,46,South Carolina
South Dakota,44.272762113787884,-99.31040156090909,882235.0,24.29219505007169,%,Crude Prevalence,22.86515151515151,28.766666666666666,Leisure-Time - Physical - Activity,66,South Dakota
Tennessee,35.88510256863158,-86.1083303285263,6770010.0,30.83397526739251,%,Crude Prevalence,30.9578947368421,37.44105263157895,Leisure-Time - Physical - Activity,95,Tennessee
Texas,31.661034618070868,-98.65396454681104,28701845.0,27.287040941096297,%,Crude Prevalence,27.673622047244095,33.10196850393701,Leisure-Time - Physical - Activity,254,Texas
Utah,39.635075868965515,-111.59628196896553,3161105.0,17.90457267316334,%,Crude Prevalence,17.306896551724137,21.817241379310342,Leisure-Time - Physical - Activity,29,Utah
Vermont,44.15991418071429,-72.6838344957143,626299.0,19.544382315794856,%,Crude Prevalence,18.257142857142856,24.00714285714286,Leisure-Time - Physical - Activity,14,Vermont
Virginia,37.566601079473685,-78.51430630285715,8517685.0,23.242125835834504,%,Crude Prevalence,24.45563909774436,29.901503759398498,Leisure-Time - Physical - Activity,133,Virginia
Washington,47.23287919846154,-120.71734196153845,7535591.0,17.83629800237301,%,Crude Prevalence,18.0,22.633333333333333,Leisure-Time - Physical - Activity,39,Washington
West Virginia,38.81399128872727,-80.6175985330909,1805832.0,29.022602102521166,%,Crude Prevalence,27.330909090909092,33.70545454545455,Leisure-Time - Physical - Activity,55,West Virginia
Wisconsin,44.39512396194445,-89.79838549444445,5813568.0,21.707918063399276,%,Crude Prevalence,20.229166666666668,25.643055555555556,Leisure-Time - Physical - Activity,72,Wisconsin
Wyoming,43.08673209695652,-107.15309161304347,577737.0,22.713099732231097,%,Crude Prevalence,20.821739130434786,26.126086956521732,Leisure-Time - Physical - Activity,23,Wyoming
