LocationName,lat,lng,StateDesc,TotalPopulation,CountyFIPS,Data_Value,Low_Confidence_Limit,High_Confidence_Limit,Data_Value_Unit,Data_Value_Type,Measure_Short
Autauga,32.5350198,-86.64301145,Alabama,55601.0,01001,77.5,73.6,80.9,%,Crude Prevalence,Mammography - Use - Among
Baldwin,30.72811673,-87.72275422,Alabama,218022.0,01003,74.0,69.7,78.0,%,Crude Prevalence,Mammography - Use - Among
Barbour,31.86925212,-85.39330307,Alabama,24881.0,01005,75.9,72.8,78.8,%,Crude Prevalence,Mammography - Use - Among
Bibb,32.99854412,-87.12653219,Alabama,22400.0,01007,73.3,68.9,77.2,%,Crude Prevalence,Mammography - Use - Among
Blount,33.98070621,-86.56784586,Alabama,57840.0,01009,71.5,66.4,76.0,%,Crude Prevalence,Mammography - Use - Among
Bullock,32.10044482,-85.71563262,Alabama,10138.0,01011,76.7,73.1,79.9,%,Crude Prevalence,Mammography - Use - Among
Butler,31.75259734,-86.68030416,Alabama,19680.0,01013,73.4,69.9,76.9,%,Crude Prevalence,Mammography - Use - Among
Calhoun,33.77170768,-85.82579874,Alabama,114277.0,01015,72.3,68.1,75.9,%,Crude Prevalence,Mammography - Use - Among
Chambers,32.91401536,-85.39238495,Alabama,33615.0,01017,74.8,71.5,78.1,%,Crude Prevalence,Mammography - Use - Among
Cherokee,34.17572884,-85.60387093,Alabama,26032.0,01019,71.0,65.8,75.4,%,Crude Prevalence,Mammography - Use - Among
Chilton,32.84755922,-86.71886671,Alabama,44153.0,01021,72.0,67.6,76.4,%,Crude Prevalence,Mammography - Use - Among
Choctaw,32.020526,-88.26304964,Alabama,12841.0,01023,75.0,71.6,77.9,%,Crude Prevalence,Mammography - Use - Among
Clarke,31.67753092,-87.83050953,Alabama,23920.0,01025,74.9,71.5,77.9,%,Crude Prevalence,Mammography - Use - Among
Clay,33.26916978,-85.86076142,Alabama,13275.0,01027,73.9,69.7,77.7,%,Crude Prevalence,Mammography - Use - Among
Cleburne,33.67451857,-85.51894991,Alabama,14987.0,01029,72.1,67.2,76.4,%,Crude Prevalence,Mammography - Use - Among
Coffee,31.40188396,-85.98828821,Alabama,51909.0,01031,75.8,71.8,79.4,%,Crude Prevalence,Mammography - Use - Among
Colbert,34.70084917,-87.80480288,Alabama,54762.0,01033,73.6,69.2,77.6,%,Crude Prevalence,Mammography - Use - Among
Conecuh,31.42928542,-86.99409002,Alabama,12277.0,01035,72.2,68.5,75.5,%,Crude Prevalence,Mammography - Use - Among
Coosa,32.93634238,-86.24787111,Alabama,10715.0,01037,73.6,70.0,77.1,%,Crude Prevalence,Mammography - Use - Among
Covington,31.24869317,-86.45156346,Alabama,36986.0,01039,74.0,69.8,77.9,%,Crude Prevalence,Mammography - Use - Among
Crenshaw,31.73171737,-86.31327649,Alabama,13824.0,01041,73.0,69.1,77.0,%,Crude Prevalence,Mammography - Use - Among
Cullman,34.13199197,-86.8671365,Alabama,83442.0,01043,74.3,69.5,78.6,%,Crude Prevalence,Mammography - Use - Among
Dale,31.43150889,-85.61159073,Alabama,48956.0,01045,75.0,71.4,78.4,%,Crude Prevalence,Mammography - Use - Among
Dallas,32.32602481,-87.1066303,Alabama,38310.0,01047,76.8,73.5,79.6,%,Crude Prevalence,Mammography - Use - Among
DeKalb,34.4602025,-85.8035973,Alabama,71385.0,01049,69.9,65.1,74.5,%,Crude Prevalence,Mammography - Use - Among
Elmore,32.59685888,-86.14875636,Alabama,81887.0,01051,77.0,73.0,80.7,%,Crude Prevalence,Mammography - Use - Among
Escambia,31.12612281,-87.16137773,Alabama,36748.0,01053,71.9,68.2,75.3,%,Crude Prevalence,Mammography - Use - Among
Etowah,34.04522195,-86.03539165,Alabama,102501.0,01055,75.4,71.4,79.1,%,Crude Prevalence,Mammography - Use - Among
Fayette,33.72121137,-87.73921374,Alabama,16433.0,01057,74.3,69.5,78.3,%,Crude Prevalence,Mammography - Use - Among
Franklin,34.44238135,-87.843283,Alabama,31363.0,01059,72.7,67.9,77.2,%,Crude Prevalence,Mammography - Use - Among
Geneva,31.09487431,-85.83932635,Alabama,26314.0,01061,70.5,66.1,74.9,%,Crude Prevalence,Mammography - Use - Among
Greene,32.8537694,-87.95608364,Alabama,8233.0,01063,76.2,72.5,79.6,%,Crude Prevalence,Mammography - Use - Among
Hale,32.76294506,-87.63018079,Alabama,14726.0,01065,77.3,74.1,80.1,%,Crude Prevalence,Mammography - Use - Among
Henry,31.5149075,-85.24183736,Alabama,17209.0,01067,75.9,72.4,79.4,%,Crude Prevalence,Mammography - Use - Among
Houston,31.15350797,-85.30249702,Alabama,104722.0,01069,75.3,71.8,78.5,%,Crude Prevalence,Mammography - Use - Among
Jackson,34.77967706,-85.99947453,Alabama,51736.0,01071,71.1,66.1,75.4,%,Crude Prevalence,Mammography - Use - Among
Jefferson,33.55458811,-86.89673378,Alabama,659300.0,01073,81.8,79.4,84.1,%,Crude Prevalence,Mammography - Use - Among
Lamar,33.77909349,-88.09715315,Alabama,13844.0,01075,73.5,68.5,77.7,%,Crude Prevalence,Mammography - Use - Among
Lauderdale,34.90142261,-87.65453895,Alabama,92387.0,01077,73.3,68.6,77.6,%,Crude Prevalence,Mammography - Use - Among
Lawrence,34.52187809,-87.31069915,Alabama,32957.0,01079,72.4,68.2,76.1,%,Crude Prevalence,Mammography - Use - Among
Lee,32.60099295,-85.35534328,Alabama,163941.0,01081,74.6,70.9,77.9,%,Crude Prevalence,Mammography - Use - Among
Limestone,34.81026419,-86.98204165,Alabama,96174.0,01083,74.4,70.3,78.5,%,Crude Prevalence,Mammography - Use - Among
Lowndes,32.15495765,-86.65008014,Alabama,9974.0,01085,75.5,72.0,78.7,%,Crude Prevalence,Mammography - Use - Among
Macon,32.38575719,-85.69271411,Alabama,18439.0,01087,77.0,73.5,80.5,%,Crude Prevalence,Mammography - Use - Among
Madison,34.7629041,-86.5506924,Alabama,366519.0,01089,78.6,75.2,81.3,%,Crude Prevalence,Mammography - Use - Among
Marengo,32.24802803,-87.78897342,Alabama,19066.0,01091,75.0,71.5,78.0,%,Crude Prevalence,Mammography - Use - Among
Marion,34.13691691,-87.88740512,Alabama,29763.0,01093,70.8,65.9,75.5,%,Crude Prevalence,Mammography - Use - Among
Marshall,34.36718343,-86.30608505,Alabama,96109.0,01095,71.7,66.8,76.4,%,Crude Prevalence,Mammography - Use - Among
Mobile,30.78657016,-88.20658862,Alabama,413757.0,01097,77.5,74.4,80.3,%,Crude Prevalence,Mammography - Use - Among
Monroe,31.57086205,-87.36533405,Alabama,21067.0,01099,75.7,72.3,78.8,%,Crude Prevalence,Mammography - Use - Among
Montgomery,32.22034164,-86.20804808,Alabama,225763.0,01101,81.2,78.5,83.7,%,Crude Prevalence,Mammography - Use - Among
Morgan,34.4534685,-86.85332071,Alabama,119089.0,01103,76.7,72.9,80.3,%,Crude Prevalence,Mammography - Use - Among
Perry,32.63868928,-87.29439436,Alabama,9140.0,01105,73.2,69.3,76.5,%,Crude Prevalence,Mammography - Use - Among
Pickens,33.28043578,-88.08874093,Alabama,19938.0,01107,74.9,71.4,78.0,%,Crude Prevalence,Mammography - Use - Among
Pike,31.80252217,-85.94116812,Alabama,33338.0,01109,77.0,73.6,80.2,%,Crude Prevalence,Mammography - Use - Among
Randolph,33.29367147,-85.45907232,Alabama,22725.0,01111,73.9,69.6,77.7,%,Crude Prevalence,Mammography - Use - Among
Russell,32.28842421,-85.18445744,Alabama,57781.0,01113,75.2,71.7,78.2,%,Crude Prevalence,Mammography - Use - Among
St. Clair,33.71565784,-86.3149495,Alabama,88690.0,01115,72.8,68.3,77.0,%,Crude Prevalence,Mammography - Use - Among
Shelby,33.26422221,-86.66104603,Alabama,215707.0,01117,75.4,71.4,79.1,%,Crude Prevalence,Mammography - Use - Among
Sumter,32.58923369,-88.1995063,Alabama,12691.0,01119,77.1,73.3,80.3,%,Crude Prevalence,Mammography - Use - Among
Talladega,33.38016157,-86.16578887,Alabama,79828.0,01121,74.0,70.1,77.4,%,Crude Prevalence,Mammography - Use - Among
Tallapoosa,32.86282332,-85.79743161,Alabama,40497.0,01123,74.1,70.2,77.7,%,Crude Prevalence,Mammography - Use - Among
Tuscaloosa,33.28961016,-87.52507429,Alabama,208911.0,01125,77.5,74.4,80.3,%,Crude Prevalence,Mammography - Use - Among
Walker,33.80308206,-87.29738289,Alabama,63711.0,01127,75.2,70.9,79.0,%,Crude Prevalence,Mammography - Use - Among
Washington,31.40764298,-88.20779087,Alabama,16378.0,01129,74.2,70.7,77.2,%,Crude Prevalence,Mammography - Use - Among
Wilcox,31.98925616,-87.30801913,Alabama,10627.0,01131,76.1,72.7,79.3,%,Crude Prevalence,Mammography - Use - Among
Winston,34.14919919,-87.37360952,Alabama,23660.0,01133,72.7,67.8,77.3,%,Crude Prevalence,Mammography - Use - Among
Aleutians East,55.35903757,-161.979848,Alaska,3515.0,02013,63.5,59.5,67.1,%,Crude Prevalence,Mammography - Use - Among
Aleutians West,52.8107872,-174.181061,Alaska,5723.0,02016,66.2,62.9,69.5,%,Crude Prevalence,Mammography - Use - Among
Anchorage,61.1504589,-149.1141071,Alaska,291538.0,02020,67.4,63.7,70.5,%,Crude Prevalence,Mammography - Use - Among
Bethel,60.91560276,-159.8247503,Alaska,18216.0,02050,59.4,53.9,64.2,%,Crude Prevalence,Mammography - Use - Among
Bristol Bay,58.74223433,-156.701884,Alaska,877.0,02060,63.6,60.2,66.8,%,Crude Prevalence,Mammography - Use - Among
Denali,63.67350143,-150.0088291,Alaska,2059.0,02068,66.3,62.0,70.2,%,Crude Prevalence,Mammography - Use - Among
Dillingham,59.79999618,-158.2125392,Alaska,5000.0,02070,62.3,57.6,66.9,%,Crude Prevalence,Mammography - Use - Among
Fairbanks North Star,64.80852672,-146.5624138,Alaska,98971.0,02090,67.9,63.9,71.8,%,Crude Prevalence,Mammography - Use - Among
Haines,59.11448538,-135.5007934,Alaska,2474.0,02100,64.9,60.8,69.1,%,Crude Prevalence,Mammography - Use - Among
Hoonah-Angoon,58.18652895,-135.3290871,Alaska,2151.0,02105,63.5,59.8,67.0,%,Crude Prevalence,Mammography - Use - Among
Juneau,58.45102839,-134.1828501,Alaska,32113.0,02110,64.1,60.0,67.9,%,Crude Prevalence,Mammography - Use - Among
Kenai Peninsula,60.25818708,-151.5665895,Alaska,58533.0,02122,63.5,58.8,67.9,%,Crude Prevalence,Mammography - Use - Among
Ketchikan Gateway,55.58863162,-130.9352394,Alaska,13918.0,02130,63.8,59.9,67.7,%,Crude Prevalence,Mammography - Use - Among
Kodiak Island,57.66814491,-153.7816117,Alaska,13345.0,02150,65.3,61.9,68.4,%,Crude Prevalence,Mammography - Use - Among
Kusilvak,62.1574671,-163.3831265,Alaska,8303.0,02158,56.0,50.3,61.1,%,Crude Prevalence,Mammography - Use - Among
Lake and Peninsula,58.63644251,-156.1898946,Alaska,1587.0,02164,64.0,59.9,67.9,%,Crude Prevalence,Mammography - Use - Among
Matanuska-Susitna,62.3154278,-149.5702635,Alaska,107610.0,02170,60.6,56.2,65.1,%,Crude Prevalence,Mammography - Use - Among
Nome,64.91045824,-164.0327478,Alaska,10008.0,02180,62.7,58.0,67.1,%,Crude Prevalence,Mammography - Use - Among
North Slope,69.3117884,-153.4445902,Alaska,9872.0,02185,63.9,60.1,67.8,%,Crude Prevalence,Mammography - Use - Among
Northwest Arctic,67.05603596,-159.7201294,Alaska,7671.0,02188,60.1,55.1,65.0,%,Crude Prevalence,Mammography - Use - Among
Petersburg,56.81190828,-133.2863383,Alaska,3221.0,02195,64.4,59.8,68.8,%,Crude Prevalence,Mammography - Use - Among
Prince of Wales-Hyder,55.50495667,-132.7096152,Alaska,6422.0,02198,64.0,60.0,67.9,%,Crude Prevalence,Mammography - Use - Among
Sitka,57.23208595,-135.3033492,Alaska,8647.0,02220,67.8,63.8,71.5,%,Crude Prevalence,Mammography - Use - Among
Skagway,59.55833765,-135.3374592,Alaska,1148.0,02230,67.8,62.9,72.3,%,Crude Prevalence,Mammography - Use - Among
Southeast Fairbanks,63.87758207,-143.2062598,Alaska,6918.0,02240,62.6,57.8,67.4,%,Crude Prevalence,Mammography - Use - Among
Valdez-Cordova,61.5583398,-144.4916418,Alaska,9164.0,02261,64.7,60.5,68.6,%,Crude Prevalence,Mammography - Use - Among
Wrangell,56.32355894,-132.0250936,Alaska,2503.0,02275,63.8,59.3,68.2,%,Crude Prevalence,Mammography - Use - Among
Yakutat,59.8899763,-140.3569385,Alaska,604.0,02282,65.6,62.6,68.7,%,Crude Prevalence,Mammography - Use - Among
Yukon-Koyukuk,65.50918931,-151.3907449,Alaska,5327.0,02290,64.9,60.7,69.1,%,Crude Prevalence,Mammography - Use - Among
Apache,35.3954111,-109.48883,Arizona,71818.0,04001,56.5,52.2,60.5,%,Crude Prevalence,Mammography - Use - Among
Cochise,31.87949959,-109.751401,Arizona,126770.0,04003,60.3,56.6,64.0,%,Crude Prevalence,Mammography - Use - Among
Coconino,35.83863914,-111.7705891,Arizona,142854.0,04005,65.5,61.6,69.0,%,Crude Prevalence,Mammography - Use - Among
Gila,33.80040568,-110.8132413,Arizona,53889.0,04007,62.2,58.3,66.4,%,Crude Prevalence,Mammography - Use - Among
Graham,32.93306592,-109.8871087,Arizona,38072.0,04009,66.4,62.9,69.7,%,Crude Prevalence,Mammography - Use - Among
Greenlee,33.21528272,-109.2401339,Arizona,9483.0,04011,65.5,61.7,69.1,%,Crude Prevalence,Mammography - Use - Among
La Paz,33.72903482,-113.9813104,Arizona,21098.0,04012,61.9,57.6,66.0,%,Crude Prevalence,Mammography - Use - Among
Maricopa,33.34873471,-112.4911577,Arizona,4410824.0,04013,68.5,64.6,71.8,%,Crude Prevalence,Mammography - Use - Among
Mohave,35.70432399,-113.7582468,Arizona,209550.0,04015,61.9,57.2,66.4,%,Crude Prevalence,Mammography - Use - Among
Navajo,35.39967567,-110.3214398,Arizona,110445.0,04017,58.1,54.2,61.5,%,Crude Prevalence,Mammography - Use - Among
Pima,32.09739367,-111.7899304,Arizona,1039073.0,04019,72.2,68.6,75.4,%,Crude Prevalence,Mammography - Use - Among
Pinal,32.90442817,-111.3447295,Arizona,447138.0,04021,62.8,58.8,66.7,%,Crude Prevalence,Mammography - Use - Among
Santa Cruz,31.52596855,-110.8465934,Arizona,46511.0,04023,67.0,62.4,71.4,%,Crude Prevalence,Mammography - Use - Among
Yavapai,34.59993679,-112.5546325,Arizona,231993.0,04025,67.0,62.9,71.0,%,Crude Prevalence,Mammography - Use - Among
Yuma,32.76937366,-113.9054902,Arizona,212128.0,04027,61.5,57.2,65.8,%,Crude Prevalence,Mammography - Use - Among
Arkansas,34.29096754,-91.3748863,Arkansas,17769.0,05001,70.1,65.9,74.1,%,Crude Prevalence,Mammography - Use - Among
Ashley,33.19113397,-91.76816623,Arkansas,20046.0,05003,68.1,64.1,71.9,%,Crude Prevalence,Mammography - Use - Among
Baxter,36.28685474,-92.33709121,Arkansas,41619.0,05005,71.7,67.3,75.9,%,Crude Prevalence,Mammography - Use - Among
Benton,36.33868245,-94.25600736,Arkansas,272608.0,05007,68.3,63.9,72.5,%,Crude Prevalence,Mammography - Use - Among
Boone,36.30867994,-93.09130789,Arkansas,37480.0,05009,69.8,64.4,74.2,%,Crude Prevalence,Mammography - Use - Among
Bradley,33.46670706,-92.16175892,Arkansas,10897.0,05011,69.5,65.9,72.9,%,Crude Prevalence,Mammography - Use - Among
Calhoun,33.5579242,-92.50254644,Arkansas,5277.0,05013,69.9,65.9,73.4,%,Crude Prevalence,Mammography - Use - Among
Carroll,36.34098375,-93.53833197,Arkansas,28223.0,05015,68.7,63.5,73.3,%,Crude Prevalence,Mammography - Use - Among
Chicot,33.26749203,-91.29368077,Arkansas,10438.0,05017,71.3,67.5,74.6,%,Crude Prevalence,Mammography - Use - Among
Clark,34.05109731,-93.17677056,Arkansas,22061.0,05019,70.2,66.1,73.9,%,Crude Prevalence,Mammography - Use - Among
Clay,36.368387,-90.41752753,Arkansas,14847.0,05021,64.5,59.1,70.0,%,Crude Prevalence,Mammography - Use - Among
Cleburne,35.5386039,-92.02657971,Arkansas,24965.0,05023,66.7,61.9,71.6,%,Crude Prevalence,Mammography - Use - Among
Cleveland,33.89825014,-92.18537424,Arkansas,8018.0,05025,67.2,62.3,71.5,%,Crude Prevalence,Mammography - Use - Among
Columbia,33.21420367,-93.22734359,Arkansas,23537.0,05027,72.3,68.9,75.5,%,Crude Prevalence,Mammography - Use - Among
Conway,35.26219672,-92.70068272,Arkansas,20891.0,05029,68.6,64.0,72.7,%,Crude Prevalence,Mammography - Use - Among
Craighead,35.83160874,-90.63229859,Arkansas,108558.0,05031,72.9,68.3,77.1,%,Crude Prevalence,Mammography - Use - Among
Crawford,35.58844941,-94.24297668,Arkansas,63406.0,05033,68.3,63.1,72.8,%,Crude Prevalence,Mammography - Use - Among
Crittenden,35.20802432,-90.30893924,Arkansas,48342.0,05035,74.4,71.1,77.4,%,Crude Prevalence,Mammography - Use - Among
Cross,35.29535703,-90.77162753,Arkansas,16676.0,05037,68.0,63.7,72.0,%,Crude Prevalence,Mammography - Use - Among
Dallas,33.96963779,-92.65478384,Arkansas,7182.0,05039,70.7,67.2,74.3,%,Crude Prevalence,Mammography - Use - Among
Desha,33.83364691,-91.25357726,Arkansas,11512.0,05041,69.8,66.0,73.2,%,Crude Prevalence,Mammography - Use - Among
Drew,33.58969442,-91.71953511,Arkansas,18328.0,05043,69.8,65.8,73.4,%,Crude Prevalence,Mammography - Use - Among
Faulkner,35.14730833,-92.33175659,Arkansas,124806.0,05045,67.9,63.0,72.4,%,Crude Prevalence,Mammography - Use - Among
Franklin,35.51242559,-93.89070925,Arkansas,17810.0,05047,68.8,63.6,73.3,%,Crude Prevalence,Mammography - Use - Among
Fulton,36.38184868,-91.8181331,Arkansas,12269.0,05049,66.8,61.6,71.9,%,Crude Prevalence,Mammography - Use - Among
Garland,34.57659951,-93.15048723,Arkansas,99154.0,05051,65.7,60.9,70.3,%,Crude Prevalence,Mammography - Use - Among
Grant,34.28984017,-92.42388914,Arkansas,18188.0,05053,68.4,63.0,73.1,%,Crude Prevalence,Mammography - Use - Among
Greene,36.11781055,-90.5589908,Arkansas,45325.0,05055,68.7,63.6,73.7,%,Crude Prevalence,Mammography - Use - Among
Hempstead,33.73525161,-93.66829193,Arkansas,21741.0,05057,68.8,65.0,72.6,%,Crude Prevalence,Mammography - Use - Among
Hot Spring,34.31759618,-92.9458125,Arkansas,33701.0,05059,69.9,64.9,74.3,%,Crude Prevalence,Mammography - Use - Among
Howard,34.08863063,-93.99348622,Arkansas,13341.0,05061,68.6,64.3,72.5,%,Crude Prevalence,Mammography - Use - Among
Independence,35.74162443,-91.56928386,Arkansas,37678.0,05063,71.7,66.9,76.0,%,Crude Prevalence,Mammography - Use - Among
Izard,36.09523171,-91.91321978,Arkansas,13593.0,05065,68.0,62.6,72.6,%,Crude Prevalence,Mammography - Use - Among
Jackson,35.59855662,-91.21410789,Arkansas,16811.0,05067,67.2,62.3,71.8,%,Crude Prevalence,Mammography - Use - Among
Jefferson,34.26873626,-91.93188484,Arkansas,68114.0,05069,72.3,69.1,75.3,%,Crude Prevalence,Mammography - Use - Among
Johnson,35.57042442,-93.45972872,Arkansas,26742.0,05071,64.8,59.8,69.7,%,Crude Prevalence,Mammography - Use - Among
Lafayette,33.24154014,-93.60616765,Arkansas,6682.0,05073,70.7,66.5,74.3,%,Crude Prevalence,Mammography - Use - Among
Lawrence,36.04107822,-91.10729307,Arkansas,16434.0,05075,66.2,60.9,71.3,%,Crude Prevalence,Mammography - Use - Among
Lee,34.78072086,-90.78263385,Arkansas,8985.0,05077,70.8,67.2,74.1,%,Crude Prevalence,Mammography - Use - Among
Lincoln,33.95746845,-91.73312526,Arkansas,13383.0,05079,69.7,65.3,73.5,%,Crude Prevalence,Mammography - Use - Among
Little River,33.69972301,-94.23313382,Arkansas,12326.0,05081,69.6,65.8,73.5,%,Crude Prevalence,Mammography - Use - Among
Logan,35.21566114,-93.71636811,Arkansas,21737.0,05083,67.0,62.1,72.0,%,Crude Prevalence,Mammography - Use - Among
Lonoke,34.75408935,-91.88869734,Arkansas,73657.0,05085,66.5,61.5,71.0,%,Crude Prevalence,Mammography - Use - Among
Madison,36.0109104,-93.72471538,Arkansas,16481.0,05087,67.0,61.7,71.7,%,Crude Prevalence,Mammography - Use - Among
Marion,36.2685868,-92.68427373,Arkansas,16722.0,05089,67.6,62.4,72.3,%,Crude Prevalence,Mammography - Use - Among
Miller,33.31104739,-93.89206062,Arkansas,43592.0,05091,70.6,66.4,74.3,%,Crude Prevalence,Mammography - Use - Among
Mississippi,35.76390932,-90.05430128,Arkansas,41239.0,05093,71.2,67.0,74.6,%,Crude Prevalence,Mammography - Use - Among
Monroe,34.67817821,-91.20388766,Arkansas,6900.0,05095,69.0,65.1,72.8,%,Crude Prevalence,Mammography - Use - Among
Montgomery,34.53854423,-93.65940752,Arkansas,8924.0,05097,67.1,62.3,71.5,%,Crude Prevalence,Mammography - Use - Among
Nevada,33.66372397,-93.30711084,Arkansas,8326.0,05099,70.4,66.7,74.2,%,Crude Prevalence,Mammography - Use - Among
Newton,35.92023827,-93.2177712,Arkansas,7805.0,05101,66.1,60.6,71.2,%,Crude Prevalence,Mammography - Use - Among
Ouachita,33.59337489,-92.88169493,Arkansas,23606.0,05103,67.2,63.6,70.8,%,Crude Prevalence,Mammography - Use - Among
Perry,34.94710024,-92.9314862,Arkansas,10352.0,05105,68.1,62.9,73.0,%,Crude Prevalence,Mammography - Use - Among
Phillips,34.42859172,-90.84788141,Arkansas,18029.0,05107,69.1,65.2,72.5,%,Crude Prevalence,Mammography - Use - Among
Pike,34.16302712,-93.65631372,Arkansas,10673.0,05109,66.6,61.4,72.0,%,Crude Prevalence,Mammography - Use - Among
Poinsett,35.57473823,-90.66320391,Arkansas,23974.0,05111,68.4,63.5,72.7,%,Crude Prevalence,Mammography - Use - Among
Polk,34.48593652,-94.22791298,Arkansas,20049.0,05113,66.8,61.7,71.7,%,Crude Prevalence,Mammography - Use - Among
Pope,35.44769349,-93.03400082,Arkansas,64000.0,05115,70.0,65.3,74.3,%,Crude Prevalence,Mammography - Use - Among
Prairie,34.82960671,-91.55264098,Arkansas,8074.0,05117,69.2,64.2,73.7,%,Crude Prevalence,Mammography - Use - Among
Pulaski,34.76991477,-92.31181185,Arkansas,392680.0,05119,74.9,71.8,77.8,%,Crude Prevalence,Mammography - Use - Among
Randolph,36.3414338,-91.02767458,Arkansas,17948.0,05121,66.4,61.1,71.4,%,Crude Prevalence,Mammography - Use - Among
St. Francis,35.02173053,-90.74737815,Arkansas,25439.0,05123,71.1,67.8,74.6,%,Crude Prevalence,Mammography - Use - Among
Saline,34.64661648,-92.67655282,Arkansas,121421.0,05125,69.3,64.6,73.7,%,Crude Prevalence,Mammography - Use - Among
Scott,34.86065738,-94.06289549,Arkansas,10319.0,05127,65.4,60.6,70.0,%,Crude Prevalence,Mammography - Use - Among
Searcy,35.91104278,-92.69953421,Arkansas,7958.0,05129,66.0,60.8,70.9,%,Crude Prevalence,Mammography - Use - Among
Sebastian,35.19876858,-94.27373467,Arkansas,127753.0,05131,70.3,66.1,74.2,%,Crude Prevalence,Mammography - Use - Among
Sevier,33.99734907,-94.24207566,Arkansas,17139.0,05133,69.7,65.7,73.6,%,Crude Prevalence,Mammography - Use - Among
Sharp,36.16113202,-91.47983875,Arkansas,17366.0,05135,68.0,62.6,73.0,%,Crude Prevalence,Mammography - Use - Among
Stone,35.86015356,-92.15687671,Arkansas,12457.0,05137,65.6,59.7,70.4,%,Crude Prevalence,Mammography - Use - Among
Union,33.17138124,-92.59714252,Arkansas,39126.0,05139,68.6,64.5,72.5,%,Crude Prevalence,Mammography - Use - Among
Van Buren,35.58056473,-92.51564197,Arkansas,16603.0,05141,66.3,61.3,71.6,%,Crude Prevalence,Mammography - Use - Among
Washington,35.97881814,-94.21583896,Arkansas,236961.0,05143,69.9,65.3,73.8,%,Crude Prevalence,Mammography - Use - Among
White,35.25617211,-91.74483397,Arkansas,78727.0,05145,66.5,61.6,71.0,%,Crude Prevalence,Mammography - Use - Among
Woodruff,35.18577746,-91.24211404,Arkansas,6490.0,05147,68.0,63.7,71.9,%,Crude Prevalence,Mammography - Use - Among
Yell,35.00279251,-93.41096826,Arkansas,21535.0,05149,66.6,61.9,71.2,%,Crude Prevalence,Mammography - Use - Among
Alameda,37.64555147,-121.8893196,California,1666753.0,06001,74.5,71.3,77.0,%,Crude Prevalence,Mammography - Use - Among
Alpine,38.59716187,-119.8207379,California,1101.0,06003,71.6,67.6,74.9,%,Crude Prevalence,Mammography - Use - Among
Amador,38.44628731,-120.6497455,California,39383.0,06005,73.1,68.9,77.1,%,Crude Prevalence,Mammography - Use - Among
Butte,39.6668772,-121.5995887,California,231256.0,06007,70.2,66.1,74.2,%,Crude Prevalence,Mammography - Use - Among
Calaveras,38.20431662,-120.55399,California,45602.0,06009,73.9,69.5,77.7,%,Crude Prevalence,Mammography - Use - Among
Colusa,39.17712713,-122.237555,California,21627.0,06011,71.7,67.9,75.4,%,Crude Prevalence,Mammography - Use - Among
Contra Costa,37.91916061,-121.927827,California,1150215.0,06013,77.3,74.4,79.8,%,Crude Prevalence,Mammography - Use - Among
Del Norte,41.74313957,-123.8987443,California,27828.0,06015,69.5,65.0,73.6,%,Crude Prevalence,Mammography - Use - Among
El Dorado,38.77927687,-120.525118,California,190678.0,06017,72.8,68.7,76.8,%,Crude Prevalence,Mammography - Use - Among
Fresno,36.75819212,-119.6510577,California,994400.0,06019,70.5,67.2,73.5,%,Crude Prevalence,Mammography - Use - Among
Glenn,39.59823808,-122.3909024,California,28047.0,06021,71.0,67.5,74.7,%,Crude Prevalence,Mammography - Use - Among
Humboldt,40.69920799,-123.87575,California,136373.0,06023,70.9,66.6,74.9,%,Crude Prevalence,Mammography - Use - Among
Imperial,33.039537,-115.3652644,California,181827.0,06025,72.8,68.1,76.9,%,Crude Prevalence,Mammography - Use - Among
Inyo,36.51151321,-117.4115268,California,17987.0,06027,72.4,68.1,76.1,%,Crude Prevalence,Mammography - Use - Among
Kern,35.34295136,-118.730066,California,896764.0,06029,70.9,67.5,74.1,%,Crude Prevalence,Mammography - Use - Among
Kings,36.07536089,-119.8154673,California,151366.0,06031,72.5,69.2,75.5,%,Crude Prevalence,Mammography - Use - Among
Lake,39.09956568,-122.7541069,California,64382.0,06033,70.3,65.7,74.5,%,Crude Prevalence,Mammography - Use - Among
Lassen,40.67344398,-120.5943294,California,30802.0,06035,71.4,66.6,75.5,%,Crude Prevalence,Mammography - Use - Among
Los Angeles,34.32114132,-118.2246916,California,10105518.0,06037,74.6,71.9,76.9,%,Crude Prevalence,Mammography - Use - Among
Madera,37.2182163,-119.7627487,California,157672.0,06039,70.1,66.1,73.6,%,Crude Prevalence,Mammography - Use - Among
Marin,38.07388193,-122.7238042,California,259666.0,06041,74.6,70.2,78.3,%,Crude Prevalence,Mammography - Use - Among
Mariposa,37.57736279,-119.9110034,California,17471.0,06043,71.5,66.6,75.7,%,Crude Prevalence,Mammography - Use - Among
Mendocino,39.44035366,-123.3914133,California,87606.0,06045,69.9,65.6,74.0,%,Crude Prevalence,Mammography - Use - Among
Merced,37.19191313,-120.7175557,California,274765.0,06047,71.2,67.9,74.4,%,Crude Prevalence,Mammography - Use - Among
Modoc,41.58974607,-120.724791,California,8777.0,06049,69.8,65.1,73.8,%,Crude Prevalence,Mammography - Use - Among
Mono,37.93923386,-118.8875478,California,14250.0,06051,73.9,69.8,77.8,%,Crude Prevalence,Mammography - Use - Among
Monterey,36.21636989,-121.2393212,California,435594.0,06053,71.8,68.0,75.0,%,Crude Prevalence,Mammography - Use - Among
Napa,38.50726702,-122.3314634,California,139417.0,06055,73.5,69.7,76.9,%,Crude Prevalence,Mammography - Use - Among
Nevada,39.30115247,-120.7686055,California,99696.0,06057,75.3,70.9,79.2,%,Crude Prevalence,Mammography - Use - Among
Orange,33.70297627,-117.7607477,California,3185968.0,06059,76.3,73.3,78.9,%,Crude Prevalence,Mammography - Use - Among
Placer,39.06343593,-120.7171226,California,393149.0,06061,75.2,71.6,78.8,%,Crude Prevalence,Mammography - Use - Among
Plumas,40.00402792,-120.8376469,California,18804.0,06063,72.1,67.9,76.1,%,Crude Prevalence,Mammography - Use - Among
Riverside,33.74363564,-115.9938549,California,2450758.0,06065,72.9,69.9,75.7,%,Crude Prevalence,Mammography - Use - Among
Sacramento,38.44874079,-121.3448359,California,1540975.0,06067,74.8,71.9,77.7,%,Crude Prevalence,Mammography - Use - Among
San Benito,36.60399254,-121.0755542,California,61537.0,06069,73.7,70.2,76.9,%,Crude Prevalence,Mammography - Use - Among
San Bernardino,34.84178102,-116.1786779,California,2171603.0,06071,72.2,69.6,75.0,%,Crude Prevalence,Mammography - Use - Among
San Diego,33.03401356,-116.7353793,California,3343364.0,06073,76.3,73.4,78.9,%,Crude Prevalence,Mammography - Use - Among
San Francisco,37.75999356,-122.4393922,California,883305.0,06075,74.8,71.5,77.8,%,Crude Prevalence,Mammography - Use - Among
San Joaquin,37.93484195,-121.2718065,California,752660.0,06077,70.4,67.2,73.2,%,Crude Prevalence,Mammography - Use - Among
San Luis Obispo,35.38726285,-120.4048434,California,284010.0,06079,71.1,67.0,75.1,%,Crude Prevalence,Mammography - Use - Among
San Mateo,37.42322968,-122.3273639,California,769545.0,06081,77.6,74.9,80.4,%,Crude Prevalence,Mammography - Use - Among
Santa Barbara,34.67363399,-120.0166318,California,446527.0,06083,74.0,70.4,77.3,%,Crude Prevalence,Mammography - Use - Among
Santa Clara,37.23263642,-121.6961445,California,1937570.0,06085,78.0,75.2,80.6,%,Crude Prevalence,Mammography - Use - Among
Santa Cruz,37.05611958,-122.0010073,California,274255.0,06087,74.5,70.6,77.8,%,Crude Prevalence,Mammography - Use - Among
Shasta,40.7636356,-122.0392223,California,180040.0,06089,69.4,64.7,73.5,%,Crude Prevalence,Mammography - Use - Among
Sierra,39.58014381,-120.5160862,California,2987.0,06091,72.8,69.2,75.8,%,Crude Prevalence,Mammography - Use - Among
Siskiyou,41.59425182,-122.5390516,California,43724.0,06093,71.7,67.4,75.6,%,Crude Prevalence,Mammography - Use - Among
Solano,38.27061842,-121.9320733,California,446610.0,06095,76.5,74.1,78.9,%,Crude Prevalence,Mammography - Use - Among
Sonoma,38.52854399,-122.8876375,California,499942.0,06097,72.5,68.4,76.5,%,Crude Prevalence,Mammography - Use - Among
Stanislaus,37.55913651,-120.997954,California,549815.0,06099,73.2,69.8,76.5,%,Crude Prevalence,Mammography - Use - Among
Sutter,39.03443385,-121.6945535,California,96807.0,06101,70.2,66.5,73.4,%,Crude Prevalence,Mammography - Use - Among
Tehama,40.12516798,-122.2337288,California,63916.0,06103,70.0,65.5,74.0,%,Crude Prevalence,Mammography - Use - Among
Trinity,40.64977624,-123.1157771,California,12535.0,06105,70.7,66.2,74.9,%,Crude Prevalence,Mammography - Use - Among
Tulare,36.22061355,-118.8012238,California,465861.0,06107,70.0,66.3,73.4,%,Crude Prevalence,Mammography - Use - Among
Tuolumne,38.02628123,-119.9524446,California,54539.0,06109,72.9,68.6,76.9,%,Crude Prevalence,Mammography - Use - Among
Ventura,34.45676389,-119.0835707,California,850967.0,06111,73.2,69.7,76.5,%,Crude Prevalence,Mammography - Use - Among
Yolo,38.68651609,-121.9018521,California,220408.0,06113,73.6,70.2,76.7,%,Crude Prevalence,Mammography - Use - Among
Yuba,39.26964082,-121.3505415,California,78041.0,06115,71.7,67.9,75.2,%,Crude Prevalence,Mammography - Use - Among
Adams,39.87402122,-104.3380626,Colorado,511868.0,08001,66.7,63.2,70.2,%,Crude Prevalence,Mammography - Use - Among
Alamosa,37.57262092,-105.7883819,Colorado,16683.0,08003,61.5,57.5,65.5,%,Crude Prevalence,Mammography - Use - Among
Arapahoe,39.65033573,-104.3370084,Colorado,651215.0,08005,67.8,64.0,71.1,%,Crude Prevalence,Mammography - Use - Among
Archuleta,37.19365584,-107.0481757,Colorado,13765.0,08007,64.4,59.1,69.1,%,Crude Prevalence,Mammography - Use - Among
Baca,37.31928731,-102.5601285,Colorado,3585.0,08009,61.4,55.9,66.9,%,Crude Prevalence,Mammography - Use - Among
Bent,37.9550485,-103.0720329,Colorado,5882.0,08011,61.0,56.9,65.5,%,Crude Prevalence,Mammography - Use - Among
Boulder,40.09251514,-105.3580726,Colorado,326078.0,08013,65.0,60.6,68.9,%,Crude Prevalence,Mammography - Use - Among
Broomfield,39.95460762,-105.0530144,Colorado,69267.0,08014,69.7,65.2,73.8,%,Crude Prevalence,Mammography - Use - Among
Chaffee,38.74850892,-106.1933346,Colorado,20027.0,08015,64.3,59.1,69.3,%,Crude Prevalence,Mammography - Use - Among
Cheyenne,38.82780819,-102.6036384,Colorado,1876.0,08017,64.1,58.6,69.0,%,Crude Prevalence,Mammography - Use - Among
Clear Creek,39.68900806,-105.6448509,Colorado,9605.0,08019,66.2,60.9,71.2,%,Crude Prevalence,Mammography - Use - Among
Conejos,37.20064187,-106.1913793,Colorado,8200.0,08021,60.3,55.6,64.3,%,Crude Prevalence,Mammography - Use - Among
Costilla,37.27777759,-105.4282108,Colorado,3828.0,08023,60.1,55.7,64.5,%,Crude Prevalence,Mammography - Use - Among
Crowley,38.32649889,-103.7843752,Colorado,5858.0,08025,59.3,54.9,63.5,%,Crude Prevalence,Mammography - Use - Among
Custer,38.10865771,-105.3669993,Colorado,4954.0,08027,63.2,57.8,68.4,%,Crude Prevalence,Mammography - Use - Among
Delta,38.86152219,-107.8629832,Colorado,30953.0,08029,61.9,56.7,66.9,%,Crude Prevalence,Mammography - Use - Among
Denver,39.76029518,-104.876586,Colorado,716492.0,08031,70.0,66.5,73.3,%,Crude Prevalence,Mammography - Use - Among
Dolores,37.75186746,-108.5172417,Colorado,2074.0,08033,63.4,58.1,68.3,%,Crude Prevalence,Mammography - Use - Among
Douglas,39.32963177,-104.9287982,Colorado,342776.0,08035,70.8,66.8,74.5,%,Crude Prevalence,Mammography - Use - Among
Eagle,39.62796763,-106.6952462,Colorado,54993.0,08037,68.0,62.7,72.6,%,Crude Prevalence,Mammography - Use - Among
Elbert,39.28676208,-104.1357093,Colorado,26282.0,08039,66.1,61.2,70.8,%,Crude Prevalence,Mammography - Use - Among
El Paso,38.83236112,-104.5254283,Colorado,713856.0,08041,64.2,60.2,68.0,%,Crude Prevalence,Mammography - Use - Among
Fremont,38.47308193,-105.4397863,Colorado,48021.0,08043,60.4,55.3,65.2,%,Crude Prevalence,Mammography - Use - Among
Garfield,39.59926674,-107.903937,Colorado,59770.0,08045,64.5,59.8,69.2,%,Crude Prevalence,Mammography - Use - Among
Gilpin,39.85718515,-105.5224457,Colorado,6121.0,08047,66.2,61.1,70.8,%,Crude Prevalence,Mammography - Use - Among
Grand,40.10265772,-106.1174119,Colorado,15525.0,08049,64.1,58.1,69.3,%,Crude Prevalence,Mammography - Use - Among
Gunnison,38.66682101,-107.0321897,Colorado,17246.0,08051,64.8,59.3,69.5,%,Crude Prevalence,Mammography - Use - Among
Hinsdale,37.82198642,-107.3002736,Colorado,811.0,08053,65.0,60.5,69.0,%,Crude Prevalence,Mammography - Use - Among
Huerfano,37.68494013,-104.9606298,Colorado,6889.0,08055,61.5,57.3,65.6,%,Crude Prevalence,Mammography - Use - Among
Jackson,40.66601351,-106.3429878,Colorado,1399.0,08057,61.8,56.4,66.7,%,Crude Prevalence,Mammography - Use - Among
Jefferson,39.58587063,-105.2503251,Colorado,580233.0,08059,67.0,62.5,71.0,%,Crude Prevalence,Mammography - Use - Among
Kiowa,38.43289762,-102.7405008,Colorado,1383.0,08061,63.1,57.9,67.8,%,Crude Prevalence,Mammography - Use - Among
Kit Carson,39.30507096,-102.60233,Colorado,7163.0,08063,62.3,56.5,67.1,%,Crude Prevalence,Mammography - Use - Among
Lake,39.20191528,-106.3448349,Colorado,7824.0,08065,63.1,58.0,67.8,%,Crude Prevalence,Mammography - Use - Among
La Plata,37.28668213,-107.8432983,Colorado,56310.0,08067,65.3,60.4,69.8,%,Crude Prevalence,Mammography - Use - Among
Larimer,40.66652488,-105.4614279,Colorado,350518.0,08069,67.5,63.1,71.8,%,Crude Prevalence,Mammography - Use - Among
Las Animas,37.31576816,-104.0386566,Colorado,14503.0,08071,64.5,60.2,68.5,%,Crude Prevalence,Mammography - Use - Among
Lincoln,38.98816975,-103.5138977,Colorado,5610.0,08073,62.0,56.7,67.0,%,Crude Prevalence,Mammography - Use - Among
Logan,40.72485403,-103.1100371,Colorado,21528.0,08075,62.9,57.6,67.7,%,Crude Prevalence,Mammography - Use - Among
Mesa,39.0181822,-108.4669015,Colorado,153207.0,08077,64.4,59.4,68.8,%,Crude Prevalence,Mammography - Use - Among
Mineral,37.66845124,-106.924145,Colorado,776.0,08079,65.6,60.8,70.0,%,Crude Prevalence,Mammography - Use - Among
Moffat,40.61836452,-108.207536,Colorado,13188.0,08081,63.2,58.5,68.0,%,Crude Prevalence,Mammography - Use - Among
Montezuma,37.33855367,-108.5966504,Colorado,26158.0,08083,60.0,55.1,64.7,%,Crude Prevalence,Mammography - Use - Among
Montrose,38.40236635,-108.2688964,Colorado,42214.0,08085,63.4,58.1,67.9,%,Crude Prevalence,Mammography - Use - Among
Morgan,40.26277543,-103.8097244,Colorado,28558.0,08087,62.6,58.2,67.4,%,Crude Prevalence,Mammography - Use - Among
Otero,37.9024143,-103.7167076,Colorado,18432.0,08089,62.4,58.2,66.2,%,Crude Prevalence,Mammography - Use - Among
Ouray,38.15530071,-107.7692209,Colorado,4833.0,08091,66.2,60.9,71.2,%,Crude Prevalence,Mammography - Use - Among
Park,39.11978797,-105.7164996,Colorado,18556.0,08093,66.4,61.6,71.3,%,Crude Prevalence,Mammography - Use - Among
Phillips,40.59394842,-102.3573987,Colorado,4286.0,08095,65.0,59.9,69.8,%,Crude Prevalence,Mammography - Use - Among
Pitkin,39.21744595,-106.9159741,Colorado,17950.0,08097,68.3,63.3,73.0,%,Crude Prevalence,Mammography - Use - Among
Prowers,37.95518014,-102.3933004,Colorado,12164.0,08099,61.3,56.9,65.6,%,Crude Prevalence,Mammography - Use - Among
Pueblo,38.17380845,-104.5126955,Colorado,167529.0,08101,65.0,61.0,68.8,%,Crude Prevalence,Mammography - Use - Among
Rio Blanco,39.9797518,-108.2171135,Colorado,6336.0,08103,62.0,56.5,67.1,%,Crude Prevalence,Mammography - Use - Among
Rio Grande,37.58223399,-106.3829212,Colorado,11250.0,08105,63.5,58.9,67.4,%,Crude Prevalence,Mammography - Use - Among
Routt,40.48551867,-106.9912275,Colorado,25733.0,08107,66.1,60.7,71.3,%,Crude Prevalence,Mammography - Use - Among
Saguache,38.08046529,-106.2811212,Colorado,6843.0,08109,60.5,55.5,65.4,%,Crude Prevalence,Mammography - Use - Among
San Juan,37.76425547,-107.6756734,Colorado,762.0,08111,64.6,59.4,69.5,%,Crude Prevalence,Mammography - Use - Among
San Miguel,38.00401543,-108.4059271,Colorado,8191.0,08113,66.6,60.9,71.5,%,Crude Prevalence,Mammography - Use - Among
Sedgwick,40.87598057,-102.3519638,Colorado,2303.0,08115,62.7,57.4,68.1,%,Crude Prevalence,Mammography - Use - Among
Summit,39.6342148,-106.1163196,Colorado,31007.0,08117,68.4,62.8,73.3,%,Crude Prevalence,Mammography - Use - Among
Teller,38.88227988,-105.1617042,Colorado,25083.0,08119,66.3,61.4,71.4,%,Crude Prevalence,Mammography - Use - Among
Washington,39.97112969,-103.2014136,Colorado,4909.0,08121,62.8,57.5,68.0,%,Crude Prevalence,Mammography - Use - Among
Weld,40.55493613,-104.3928271,Colorado,314305.0,08123,63.8,59.5,67.7,%,Crude Prevalence,Mammography - Use - Among
Yuma,40.00284508,-102.4246098,Colorado,10020.0,08125,59.5,54.2,64.7,%,Crude Prevalence,Mammography - Use - Among
Fairfield,41.27166724,-73.38942182,Connecticut,943823.0,09001,78.0,75.0,80.8,%,Crude Prevalence,Mammography - Use - Among
Hartford,41.80653444,-72.73276698,Connecticut,892697.0,09003,81.5,78.6,84.0,%,Crude Prevalence,Mammography - Use - Among
Litchfield,41.79234069,-73.24529195,Connecticut,181111.0,09005,78.9,75.2,82.2,%,Crude Prevalence,Mammography - Use - Among
Middlesex,41.46333347,-72.53513114,Connecticut,162682.0,09007,77.4,73.0,80.8,%,Crude Prevalence,Mammography - Use - Among
New Haven,41.41052748,-72.93263656,Connecticut,857620.0,09009,78.2,75.0,80.9,%,Crude Prevalence,Mammography - Use - Among
New London,41.48674009,-72.10184166,Connecticut,266784.0,09011,73.9,70.1,77.3,%,Crude Prevalence,Mammography - Use - Among
Tolland,41.8545849,-72.33645479,Connecticut,150921.0,09013,75.7,71.9,79.2,%,Crude Prevalence,Mammography - Use - Among
Windham,41.82994523,-71.98753068,Connecticut,117027.0,09015,73.4,69.5,77.2,%,Crude Prevalence,Mammography - Use - Among
Kent,39.08669553,-75.56840742,Delaware,178550.0,10001,76.8,73.7,79.6,%,Crude Prevalence,Mammography - Use - Among
New Castle,39.58183211,-75.64792264,Delaware,559335.0,10003,79.4,76.3,82.0,%,Crude Prevalence,Mammography - Use - Among
Sussex,38.66089894,-75.38998541,Delaware,229286.0,10005,78.0,74.4,81.3,%,Crude Prevalence,Mammography - Use - Among
District of Columbia,38.90472697,-77.01629978,District of Columbia,702455.0,11001,75.7,72.7,78.7,%,Crude Prevalence,Mammography - Use - Among
Alachua,29.67494731,-82.35809321,Florida,269956.0,12001,72.6,68.8,76.0,%,Crude Prevalence,Mammography - Use - Among
Baker,30.3312026,-82.28474734,Florida,28355.0,12003,68.7,64.3,73.0,%,Crude Prevalence,Mammography - Use - Among
Bay,30.26524085,-85.62018844,Florida,185287.0,12005,69.5,65.2,73.3,%,Crude Prevalence,Mammography - Use - Among
Bradford,29.94988611,-82.16842536,Florida,27732.0,12007,69.8,65.5,73.8,%,Crude Prevalence,Mammography - Use - Among
Brevard,28.29322516,-80.73215381,Florida,596849.0,12009,74.3,70.5,77.7,%,Crude Prevalence,Mammography - Use - Among
Broward,26.15211451,-80.48727073,Florida,1951260.0,12011,74.0,71.1,76.7,%,Crude Prevalence,Mammography - Use - Among
Calhoun,30.40605417,-85.19663919,Florida,14587.0,12013,68.3,64.0,72.3,%,Crude Prevalence,Mammography - Use - Among
Charlotte,26.9058863,-81.9117906,Florida,184998.0,12015,74.8,71.3,78.4,%,Crude Prevalence,Mammography - Use - Among
Citrus,28.84866146,-82.47820833,Florida,147929.0,12017,70.1,65.6,74.2,%,Crude Prevalence,Mammography - Use - Among
Clay,29.98303767,-81.85788984,Florida,216072.0,12019,71.7,67.5,75.2,%,Crude Prevalence,Mammography - Use - Among
Collier,26.1170245,-81.34467832,Florida,378488.0,12021,74.3,69.9,77.8,%,Crude Prevalence,Mammography - Use - Among
Columbia,30.22447896,-82.62181545,Florida,70503.0,12023,70.1,66.3,74.0,%,Crude Prevalence,Mammography - Use - Among
DeSoto,27.1865581,-81.80934054,Florida,37489.0,12027,69.2,65.1,73.1,%,Crude Prevalence,Mammography - Use - Among
Dixie,29.60801957,-83.15869392,Florida,16700.0,12029,64.7,59.9,69.4,%,Crude Prevalence,Mammography - Use - Among
Duval,30.33209992,-81.6706332,Florida,950181.0,12031,74.7,71.6,77.5,%,Crude Prevalence,Mammography - Use - Among
Escambia,30.66788784,-87.36427494,Florida,315534.0,12033,70.6,67.0,74.0,%,Crude Prevalence,Mammography - Use - Among
Flagler,29.46168424,-81.31348156,Florida,112067.0,12035,73.8,70.1,77.3,%,Crude Prevalence,Mammography - Use - Among
Franklin,29.8752004,-84.80774397,Florida,11736.0,12037,69.8,64.9,74.1,%,Crude Prevalence,Mammography - Use - Among
Gadsden,30.57964751,-84.61392478,Florida,45894.0,12039,76.6,73.7,79.6,%,Crude Prevalence,Mammography - Use - Among
Gilchrist,29.72556885,-82.80066665,Florida,18256.0,12041,69.2,64.3,73.6,%,Crude Prevalence,Mammography - Use - Among
Glades,26.95659579,-81.18898528,Florida,13724.0,12043,72.0,68.4,75.6,%,Crude Prevalence,Mammography - Use - Among
Gulf,29.9540337,-85.22351197,Florida,16164.0,12045,69.2,64.4,73.5,%,Crude Prevalence,Mammography - Use - Among
Hamilton,30.49625814,-82.94811131,Florida,14310.0,12047,68.3,64.6,71.9,%,Crude Prevalence,Mammography - Use - Among
Hardee,27.49284808,-81.80987667,Florida,27245.0,12049,63.7,60.2,67.2,%,Crude Prevalence,Mammography - Use - Among
Hendry,26.55354881,-81.16530531,Florida,41556.0,12051,67.6,64.4,70.8,%,Crude Prevalence,Mammography - Use - Among
Hernando,28.55409758,-82.42570675,Florida,190865.0,12053,72.4,68.3,76.2,%,Crude Prevalence,Mammography - Use - Among
Highlands,27.34286958,-81.34096496,Florida,105424.0,12055,72.5,68.9,75.8,%,Crude Prevalence,Mammography - Use - Among
Hillsborough,27.92970662,-82.30922863,Florida,1436888.0,12057,78.4,75.4,81.0,%,Crude Prevalence,Mammography - Use - Among
Holmes,30.86788611,-85.81399621,Florida,19477.0,12059,70.0,65.2,74.3,%,Crude Prevalence,Mammography - Use - Among
Indian River,27.69411658,-80.60621042,Florida,157413.0,12061,72.6,68.7,76.6,%,Crude Prevalence,Mammography - Use - Among
Jackson,30.79544821,-85.21553453,Florida,48305.0,12063,69.4,65.4,73.1,%,Crude Prevalence,Mammography - Use - Among
Jefferson,30.43745722,-83.89499655,Florida,14288.0,12065,73.3,69.5,76.8,%,Crude Prevalence,Mammography - Use - Among
Lafayette,29.98573094,-83.18182453,Florida,8732.0,12067,69.2,64.8,73.8,%,Crude Prevalence,Mammography - Use - Among
Lake,28.76124449,-81.71150817,Florida,356495.0,12069,72.5,69.0,76.0,%,Crude Prevalence,Mammography - Use - Among
Lee,26.57745177,-81.83497865,Florida,754610.0,12071,73.5,69.7,77.1,%,Crude Prevalence,Mammography - Use - Among
Leon,30.45809639,-84.27803622,Florida,292502.0,12073,75.4,72.0,78.5,%,Crude Prevalence,Mammography - Use - Among
Levy,29.31923477,-82.74244699,Florida,40770.0,12075,68.8,64.4,72.9,%,Crude Prevalence,Mammography - Use - Among
Liberty,30.24124181,-84.88270861,Florida,8457.0,12077,71.5,67.0,75.3,%,Crude Prevalence,Mammography - Use - Among
Madison,30.4443914,-83.46982282,Florida,18529.0,12079,71.5,68.4,74.9,%,Crude Prevalence,Mammography - Use - Among
Manatee,27.47186118,-82.31549584,Florida,394855.0,12081,72.3,68.3,76.2,%,Crude Prevalence,Mammography - Use - Among
Marion,29.21016091,-82.05673787,Florida,359977.0,12083,74.1,70.7,77.4,%,Crude Prevalence,Mammography - Use - Among
Martin,27.07763224,-80.43125893,Florida,160912.0,12085,73.0,68.3,76.6,%,Crude Prevalence,Mammography - Use - Among
Miami-Dade,25.61427046,-80.56142803,Florida,2761581.0,12086,77.0,73.4,80.4,%,Crude Prevalence,Mammography - Use - Among
Monroe,25.36600458,-81.06771247,Florida,75027.0,12087,73.7,69.4,77.4,%,Crude Prevalence,Mammography - Use - Among
Nassau,30.6106208,-81.80198035,Florida,85832.0,12089,71.6,67.1,75.9,%,Crude Prevalence,Mammography - Use - Among
Okaloosa,30.69085706,-86.59169942,Florida,207269.0,12091,76.0,72.0,79.3,%,Crude Prevalence,Mammography - Use - Among
Okeechobee,27.38669569,-80.88881798,Florida,41537.0,12093,68.0,63.9,72.0,%,Crude Prevalence,Mammography - Use - Among
Orange,28.51418401,-81.32288958,Florida,1380645.0,12095,74.1,71.4,76.6,%,Crude Prevalence,Mammography - Use - Among
Osceola,28.06260996,-81.14956272,Florida,367990.0,12097,73.0,70.0,75.6,%,Crude Prevalence,Mammography - Use - Among
Palm Beach,26.64769528,-80.46525488,Florida,1485941.0,12099,76.2,73.1,79.1,%,Crude Prevalence,Mammography - Use - Among
Pasco,28.30950733,-82.39262762,Florida,539630.0,12101,73.3,69.7,76.7,%,Crude Prevalence,Mammography - Use - Among
Pinellas,27.9201576,-82.72165973,Florida,975280.0,12103,71.4,67.2,75.0,%,Crude Prevalence,Mammography - Use - Among
Polk,27.94877779,-81.69731123,Florida,708009.0,12105,73.0,69.3,76.1,%,Crude Prevalence,Mammography - Use - Among
Putnam,29.60861786,-81.74426877,Florida,74163.0,12107,69.6,65.4,73.3,%,Crude Prevalence,Mammography - Use - Among
St. Johns,29.90163206,-81.44052295,Florida,254261.0,12109,75.3,70.9,79.2,%,Crude Prevalence,Mammography - Use - Among
St. Lucie,27.37755371,-80.47093128,Florida,321128.0,12111,71.6,68.0,74.7,%,Crude Prevalence,Mammography - Use - Among
Santa Rosa,30.70044866,-87.02094806,Florida,179349.0,12113,70.5,66.1,74.6,%,Crude Prevalence,Mammography - Use - Among
Sarasota,27.18438631,-82.33145633,Florida,426718.0,12115,75.6,71.6,79.1,%,Crude Prevalence,Mammography - Use - Among
Seminole,28.71737531,-81.23554604,Florida,467832.0,12117,75.4,72.1,78.4,%,Crude Prevalence,Mammography - Use - Among
Sumter,28.70547136,-82.08154799,Florida,128754.0,12119,77.0,73.1,80.6,%,Crude Prevalence,Mammography - Use - Among
Suwannee,30.19467162,-82.9910983,Florida,44191.0,12121,70.3,65.9,74.1,%,Crude Prevalence,Mammography - Use - Among
Taylor,30.04708495,-83.60298751,Florida,21623.0,12123,68.6,64.4,72.4,%,Crude Prevalence,Mammography - Use - Among
Union,30.04409779,-82.37190745,Florida,14940.0,12125,68.0,63.7,72.0,%,Crude Prevalence,Mammography - Use - Among
Volusia,29.05881989,-81.18199975,Florida,547538.0,12127,75.0,71.2,78.7,%,Crude Prevalence,Mammography - Use - Among
Wakulla,30.16737643,-84.40048848,Florida,32461.0,12129,73.3,68.6,77.3,%,Crude Prevalence,Mammography - Use - Among
Walton,30.64344211,-86.16975224,Florida,71375.0,12131,69.3,64.8,73.5,%,Crude Prevalence,Mammography - Use - Among
Washington,30.61072043,-85.66537437,Florida,24880.0,12133,72.1,68.1,76.0,%,Crude Prevalence,Mammography - Use - Among
Appling,31.74894487,-82.28939513,Georgia,18507.0,13001,72.0,67.8,76.2,%,Crude Prevalence,Mammography - Use - Among
Atkinson,31.29719202,-82.88029248,Georgia,8297.0,13003,72.0,68.0,75.6,%,Crude Prevalence,Mammography - Use - Among
Bacon,31.55344199,-82.45254076,Georgia,11185.0,13005,72.3,67.9,76.4,%,Crude Prevalence,Mammography - Use - Among
Baker,31.3263615,-84.44394261,Georgia,3092.0,13007,76.3,72.6,79.6,%,Crude Prevalence,Mammography - Use - Among
Baldwin,33.06922942,-83.25048524,Georgia,44823.0,13009,74.5,71.2,77.6,%,Crude Prevalence,Mammography - Use - Among
Banks,34.3536866,-83.49742613,Georgia,18988.0,13011,73.4,68.7,77.9,%,Crude Prevalence,Mammography - Use - Among
Barrow,33.99304503,-83.71351145,Georgia,80809.0,13013,75.9,71.9,79.3,%,Crude Prevalence,Mammography - Use - Among
Bartow,34.23777244,-84.84062451,Georgia,106408.0,13015,73.4,69.1,77.1,%,Crude Prevalence,Mammography - Use - Among
Ben Hill,31.75971358,-83.22013115,Georgia,16787.0,13017,71.6,68.0,74.9,%,Crude Prevalence,Mammography - Use - Among
Berrien,31.27582028,-83.22986267,Georgia,19252.0,13019,71.5,66.8,76.0,%,Crude Prevalence,Mammography - Use - Among
Bibb,32.80641586,-83.6976276,Georgia,153095.0,13021,75.4,72.1,78.4,%,Crude Prevalence,Mammography - Use - Among
Bleckley,32.43439209,-83.32807354,Georgia,12838.0,13023,75.1,71.4,78.5,%,Crude Prevalence,Mammography - Use - Among
Brantley,31.19704641,-81.98144479,Georgia,18897.0,13025,70.0,65.2,74.8,%,Crude Prevalence,Mammography - Use - Among
Brooks,30.84217815,-83.58055565,Georgia,15513.0,13027,73.2,69.5,76.6,%,Crude Prevalence,Mammography - Use - Among
Bryan,32.01573371,-81.44586077,Georgia,38109.0,13029,76.6,72.6,80.1,%,Crude Prevalence,Mammography - Use - Among
Bulloch,32.39677746,-81.74311416,Georgia,77296.0,13031,75.0,71.4,78.1,%,Crude Prevalence,Mammography - Use - Among
Burke,33.06115117,-82.00102189,Georgia,22423.0,13033,74.6,71.1,77.9,%,Crude Prevalence,Mammography - Use - Among
Butts,33.28825619,-83.95738636,Georgia,24193.0,13035,74.2,70.2,78.0,%,Crude Prevalence,Mammography - Use - Among
Calhoun,31.52834311,-84.62399916,Georgia,6352.0,13037,74.7,71.4,77.9,%,Crude Prevalence,Mammography - Use - Among
Camden,30.93024409,-81.67056811,Georgia,53677.0,13039,77.7,74.3,80.9,%,Crude Prevalence,Mammography - Use - Among
Candler,32.40343894,-82.07370957,Georgia,10836.0,13043,73.0,69.1,76.6,%,Crude Prevalence,Mammography - Use - Among
Carroll,33.58254077,-85.07983718,Georgia,118121.0,13045,73.0,68.8,76.7,%,Crude Prevalence,Mammography - Use - Among
Catoosa,34.90295804,-85.13861912,Georgia,67420.0,13047,73.3,68.3,77.5,%,Crude Prevalence,Mammography - Use - Among
Charlton,30.78160602,-82.13753604,Georgia,12968.0,13049,72.0,68.0,75.9,%,Crude Prevalence,Mammography - Use - Among
Chatham,32.00369869,-81.13314122,Georgia,289195.0,13051,78.5,75.5,81.2,%,Crude Prevalence,Mammography - Use - Among
Chattahoochee,32.34726889,-84.78680105,Georgia,10684.0,13053,76.7,73.7,79.3,%,Crude Prevalence,Mammography - Use - Among
Chattooga,34.47483844,-85.34525888,Georgia,24790.0,13055,71.3,66.5,75.9,%,Crude Prevalence,Mammography - Use - Among
Cherokee,34.24392336,-84.47658676,Georgia,254149.0,13057,76.0,71.9,79.8,%,Crude Prevalence,Mammography - Use - Among
Clarke,33.95063302,-83.36691008,Georgia,127330.0,13059,76.1,72.7,79.1,%,Crude Prevalence,Mammography - Use - Among
Clay,31.62647612,-84.97943709,Georgia,2887.0,13061,73.4,69.8,76.7,%,Crude Prevalence,Mammography - Use - Among
Clayton,33.54217493,-84.35859676,Georgia,289615.0,13063,79.6,76.8,82.2,%,Crude Prevalence,Mammography - Use - Among
Clinch,30.91528788,-82.70637489,Georgia,6648.0,13065,70.8,66.5,74.8,%,Crude Prevalence,Mammography - Use - Among
Cobb,33.94105875,-84.57641569,Georgia,756865.0,13067,78.2,75.1,80.9,%,Crude Prevalence,Mammography - Use - Among
Coffee,31.54928225,-82.84931649,Georgia,43093.0,13069,73.8,69.9,77.4,%,Crude Prevalence,Mammography - Use - Among
Colquitt,31.18826336,-83.76874953,Georgia,45592.0,13071,70.9,67.1,74.5,%,Crude Prevalence,Mammography - Use - Among
Columbia,33.54461092,-82.26368138,Georgia,154291.0,13073,79.0,75.6,82.0,%,Crude Prevalence,Mammography - Use - Among
Cook,31.15442459,-83.43045437,Georgia,17162.0,13075,74.5,70.5,78.0,%,Crude Prevalence,Mammography - Use - Among
Coweta,33.35337749,-84.76352637,Georgia,145864.0,13077,75.0,71.2,78.3,%,Crude Prevalence,Mammography - Use - Among
Crawford,32.71422865,-83.98613815,Georgia,12318.0,13079,72.1,68.2,75.9,%,Crude Prevalence,Mammography - Use - Among
Crisp,31.92295332,-83.76805172,Georgia,22601.0,13081,74.4,70.9,77.5,%,Crude Prevalence,Mammography - Use - Among
Dade,34.8543477,-85.50487967,Georgia,16226.0,13083,74.1,69.5,78.4,%,Crude Prevalence,Mammography - Use - Among
Dawson,34.44372498,-84.16999662,Georgia,25083.0,13085,75.6,70.6,79.8,%,Crude Prevalence,Mammography - Use - Among
Decatur,30.87818367,-84.57936317,Georgia,26575.0,13087,74.9,71.3,78.2,%,Crude Prevalence,Mammography - Use - Among
DeKalb,33.77156134,-84.22680801,Georgia,756558.0,13089,78.4,75.4,80.9,%,Crude Prevalence,Mammography - Use - Among
Dodge,32.17246403,-83.16822743,Georgia,20705.0,13091,73.8,69.7,77.3,%,Crude Prevalence,Mammography - Use - Among
Dooly,32.15743503,-83.79870262,Georgia,13706.0,13093,74.9,71.5,78.1,%,Crude Prevalence,Mammography - Use - Among
Dougherty,31.53336898,-84.21651198,Georgia,91243.0,13095,77.1,74.0,79.9,%,Crude Prevalence,Mammography - Use - Among
Douglas,33.70193019,-84.76771591,Georgia,145331.0,13097,75.9,72.7,78.8,%,Crude Prevalence,Mammography - Use - Among
Early,31.32283637,-84.90338002,Georgia,10247.0,13099,75.3,71.8,78.3,%,Crude Prevalence,Mammography - Use - Among
Echols,30.70975082,-82.89307938,Georgia,4000.0,13101,71.3,67.0,75.2,%,Crude Prevalence,Mammography - Use - Among
Effingham,32.36744006,-81.34142795,Georgia,62190.0,13103,76.4,72.6,80.3,%,Crude Prevalence,Mammography - Use - Among
Elbert,34.11646868,-82.83982029,Georgia,19120.0,13105,73.4,69.7,76.9,%,Crude Prevalence,Mammography - Use - Among
Emanuel,32.58976895,-82.30188355,Georgia,22612.0,13107,70.5,66.5,74.5,%,Crude Prevalence,Mammography - Use - Among
Evans,32.15671598,-81.88649243,Georgia,10721.0,13109,73.1,69.1,76.8,%,Crude Prevalence,Mammography - Use - Among
Fannin,34.86437216,-84.3194942,Georgia,25964.0,13111,73.6,68.7,78.1,%,Crude Prevalence,Mammography - Use - Among
Fayette,33.41321962,-84.4944377,Georgia,113459.0,13113,80.0,76.8,82.9,%,Crude Prevalence,Mammography - Use - Among
Floyd,34.26263651,-85.21452883,Georgia,97927.0,13115,75.1,70.6,79.1,%,Crude Prevalence,Mammography - Use - Among
Forsyth,34.22518135,-84.12500222,Georgia,236612.0,13117,81.3,77.6,84.3,%,Crude Prevalence,Mammography - Use - Among
Franklin,34.37567635,-83.22903576,Georgia,23023.0,13119,70.3,65.8,74.5,%,Crude Prevalence,Mammography - Use - Among
Fulton,33.78992663,-84.46763569,Georgia,1050114.0,13121,78.8,76.2,81.2,%,Crude Prevalence,Mammography - Use - Among
Gilmer,34.69129166,-84.45521958,Georgia,30816.0,13123,71.3,66.1,75.9,%,Crude Prevalence,Mammography - Use - Among
Glascock,33.22883042,-82.61046235,Georgia,2995.0,13125,72.1,67.2,76.5,%,Crude Prevalence,Mammography - Use - Among
Glynn,31.23039265,-81.53954271,Georgia,85219.0,13127,77.6,74.0,80.8,%,Crude Prevalence,Mammography - Use - Among
Gordon,34.50304049,-84.87632994,Georgia,57685.0,13129,72.9,68.2,77.1,%,Crude Prevalence,Mammography - Use - Among
Grady,30.87476717,-84.23472316,Georgia,24748.0,13131,74.0,70.3,77.3,%,Crude Prevalence,Mammography - Use - Among
Greene,33.57905137,-83.16647249,Georgia,17698.0,13133,73.2,69.3,77.1,%,Crude Prevalence,Mammography - Use - Among
Gwinnett,33.96154951,-84.02434695,Georgia,927781.0,13135,77.5,74.6,80.0,%,Crude Prevalence,Mammography - Use - Among
Habersham,34.6309009,-83.53082722,Georgia,45388.0,13137,72.5,67.5,76.7,%,Crude Prevalence,Mammography - Use - Among
Hall,34.31657346,-83.81954094,Georgia,202148.0,13139,75.7,71.9,79.4,%,Crude Prevalence,Mammography - Use - Among
Hancock,33.26994756,-83.00116758,Georgia,8348.0,13141,75.1,71.7,78.6,%,Crude Prevalence,Mammography - Use - Among
Haralson,33.79408357,-85.21090935,Georgia,29533.0,13143,74.1,69.7,78.4,%,Crude Prevalence,Mammography - Use - Among
Harris,32.73610662,-84.90980768,Georgia,34475.0,13145,76.3,72.7,79.8,%,Crude Prevalence,Mammography - Use - Among
Hart,34.35045345,-82.96390815,Georgia,26099.0,13147,71.9,67.5,76.0,%,Crude Prevalence,Mammography - Use - Among
Heard,33.29706696,-85.12858766,Georgia,11879.0,13149,73.8,69.4,77.7,%,Crude Prevalence,Mammography - Use - Among
Henry,33.45332341,-84.15454247,Georgia,230220.0,13151,79.9,77.3,82.4,%,Crude Prevalence,Mammography - Use - Among
Houston,32.45932111,-83.66627547,Georgia,155469.0,13153,77.5,74.5,80.3,%,Crude Prevalence,Mammography - Use - Among
Irwin,31.6022122,-83.27631869,Georgia,9398.0,13155,73.2,69.2,76.8,%,Crude Prevalence,Mammography - Use - Among
Jackson,34.1337491,-83.56535838,Georgia,70422.0,13157,76.7,72.6,80.7,%,Crude Prevalence,Mammography - Use - Among
Jasper,33.31610752,-83.68819812,Georgia,14040.0,13159,73.4,69.1,77.2,%,Crude Prevalence,Mammography - Use - Among
Jeff Davis,31.80548774,-82.63673877,Georgia,15029.0,13161,71.8,67.7,75.9,%,Crude Prevalence,Mammography - Use - Among
Jefferson,33.05473798,-82.41819314,Georgia,15430.0,13163,75.6,72.3,78.6,%,Crude Prevalence,Mammography - Use - Among
Jenkins,32.79245214,-81.96342975,Georgia,8683.0,13165,73.5,70.0,77.0,%,Crude Prevalence,Mammography - Use - Among
Johnson,32.70149506,-82.66057401,Georgia,9708.0,13167,72.6,68.8,76.4,%,Crude Prevalence,Mammography - Use - Among
Jones,33.02482235,-83.56022627,Georgia,28616.0,13169,75.6,71.9,78.8,%,Crude Prevalence,Mammography - Use - Among
Lamar,33.07619335,-84.13960694,Georgia,19000.0,13171,74.4,70.6,77.7,%,Crude Prevalence,Mammography - Use - Among
Lanier,31.03767665,-83.06308264,Georgia,10340.0,13173,74.6,70.9,78.1,%,Crude Prevalence,Mammography - Use - Among
Laurens,32.46361796,-82.92234073,Georgia,47325.0,13175,76.0,72.6,79.0,%,Crude Prevalence,Mammography - Use - Among
Lee,31.77951544,-84.14055796,Georgia,29764.0,13177,77.2,73.3,80.4,%,Crude Prevalence,Mammography - Use - Among
Liberty,31.82747904,-81.49425872,Georgia,61497.0,13179,77.8,75.3,80.2,%,Crude Prevalence,Mammography - Use - Among
Lincoln,33.79369971,-82.45140613,Georgia,7915.0,13181,76.0,72.7,79.5,%,Crude Prevalence,Mammography - Use - Among
Long,31.75238101,-81.74557338,Georgia,18998.0,13183,75.3,71.7,78.5,%,Crude Prevalence,Mammography - Use - Among
Lowndes,30.83353845,-83.26751001,Georgia,116321.0,13185,74.9,71.8,78.1,%,Crude Prevalence,Mammography - Use - Among
Lumpkin,34.57208756,-84.00295315,Georgia,32955.0,13187,74.0,69.1,78.8,%,Crude Prevalence,Mammography - Use - Among
McDuffie,33.48256646,-82.48108628,Georgia,21531.0,13189,73.9,70.4,77.2,%,Crude Prevalence,Mammography - Use - Among
McIntosh,31.49468299,-81.40719135,Georgia,14340.0,13191,74.6,71.0,77.9,%,Crude Prevalence,Mammography - Use - Among
Macon,32.35830897,-84.04223324,Georgia,13143.0,13193,74.8,71.5,77.9,%,Crude Prevalence,Mammography - Use - Among
Madison,34.12804037,-83.2084333,Georgia,29650.0,13195,74.0,69.4,78.1,%,Crude Prevalence,Mammography - Use - Among
Marion,32.35284374,-84.52453679,Georgia,8351.0,13197,74.7,71.2,78.1,%,Crude Prevalence,Mammography - Use - Among
Meriwether,33.04036604,-84.68860778,Georgia,21068.0,13199,72.8,69.2,76.2,%,Crude Prevalence,Mammography - Use - Among
Miller,31.16385811,-84.7308074,Georgia,5686.0,13201,74.7,71.0,78.0,%,Crude Prevalence,Mammography - Use - Among
Mitchell,31.2246399,-84.19477796,Georgia,22192.0,13205,74.4,70.8,77.7,%,Crude Prevalence,Mammography - Use - Among
Monroe,33.01421626,-83.91859794,Georgia,27520.0,13207,75.9,71.9,79.6,%,Crude Prevalence,Mammography - Use - Among
Montgomery,32.17309958,-82.53455133,Georgia,9193.0,13209,75.4,71.5,78.8,%,Crude Prevalence,Mammography - Use - Among
Morgan,33.59070196,-83.4920825,Georgia,18853.0,13211,76.7,73.1,80.0,%,Crude Prevalence,Mammography - Use - Among
Murray,34.78859287,-84.74801074,Georgia,39921.0,13213,70.6,65.3,75.0,%,Crude Prevalence,Mammography - Use - Among
Muscogee,32.51010604,-84.87648706,Georgia,194160.0,13215,77.8,75.2,80.1,%,Crude Prevalence,Mammography - Use - Among
Newton,33.55479878,-83.84910042,Georgia,109541.0,13217,78.5,75.7,81.4,%,Crude Prevalence,Mammography - Use - Among
Oconee,33.83499974,-83.43714652,Georgia,39272.0,13219,78.3,74.0,82.0,%,Crude Prevalence,Mammography - Use - Among
Oglethorpe,33.8809594,-83.08127904,Georgia,15054.0,13221,73.9,69.5,78.2,%,Crude Prevalence,Mammography - Use - Among
Paulding,33.920349,-84.86729478,Georgia,164044.0,13223,76.3,72.7,79.6,%,Crude Prevalence,Mammography - Use - Among
Peach,32.56872254,-83.82698708,Georgia,27297.0,13225,77.0,73.9,80.0,%,Crude Prevalence,Mammography - Use - Among
Pickens,34.4640586,-84.46570351,Georgia,31980.0,13227,73.4,68.3,78.2,%,Crude Prevalence,Mammography - Use - Among
Pierce,31.35830685,-82.21370709,Georgia,19389.0,13229,73.4,68.6,77.3,%,Crude Prevalence,Mammography - Use - Among
Pike,33.0917654,-84.38944889,Georgia,18634.0,13231,73.6,69.1,77.5,%,Crude Prevalence,Mammography - Use - Among
Polk,34.00173603,-85.18800549,Georgia,42470.0,13233,72.3,68.0,76.5,%,Crude Prevalence,Mammography - Use - Among
Pulaski,32.23199807,-83.47572165,Georgia,11069.0,13235,74.5,70.6,78.1,%,Crude Prevalence,Mammography - Use - Among
Putnam,33.32156395,-83.37309234,Georgia,21809.0,13237,74.5,70.6,78.0,%,Crude Prevalence,Mammography - Use - Among
Quitman,31.86632781,-85.01899463,Georgia,2279.0,13239,73.7,70.1,77.1,%,Crude Prevalence,Mammography - Use - Among
Rabun,34.88177324,-83.40248502,Georgia,16867.0,13241,72.6,67.6,77.2,%,Crude Prevalence,Mammography - Use - Among
Randolph,31.76233108,-84.7533471,Georgia,6833.0,13243,74.7,71.0,78.1,%,Crude Prevalence,Mammography - Use - Among
Richmond,33.35966539,-82.07417198,Georgia,201554.0,13245,77.2,74.1,80.1,%,Crude Prevalence,Mammography - Use - Among
Rockdale,33.65544072,-84.02526917,Georgia,90594.0,13247,77.1,74.1,80.0,%,Crude Prevalence,Mammography - Use - Among
Schley,32.26214536,-84.31475136,Georgia,5236.0,13249,74.0,69.8,77.8,%,Crude Prevalence,Mammography - Use - Among
Screven,32.75104093,-81.61171991,Georgia,13938.0,13251,75.6,72.2,78.8,%,Crude Prevalence,Mammography - Use - Among
Seminole,30.93880431,-84.86859159,Georgia,8315.0,13253,75.1,71.3,78.5,%,Crude Prevalence,Mammography - Use - Among
Spalding,33.26037673,-84.28476696,Georgia,66100.0,13255,75.1,71.4,78.6,%,Crude Prevalence,Mammography - Use - Among
Stephens,34.55385729,-83.29321853,Georgia,26035.0,13257,72.0,67.6,76.4,%,Crude Prevalence,Mammography - Use - Among
Stewart,32.07745568,-84.8356578,Georgia,6199.0,13259,73.6,69.8,77.1,%,Crude Prevalence,Mammography - Use - Among
Sumter,32.03986221,-84.19711308,Georgia,29733.0,13261,75.2,72.1,78.2,%,Crude Prevalence,Mammography - Use - Among
Talbot,32.69942139,-84.53331429,Georgia,6272.0,13263,75.6,73.1,78.1,%,Crude Prevalence,Mammography - Use - Among
Taliaferro,33.5652811,-82.87867399,Georgia,1608.0,13265,75.6,72.1,78.7,%,Crude Prevalence,Mammography - Use - Among
Tattnall,32.04550377,-82.05852109,Georgia,25391.0,13267,71.0,67.1,75.1,%,Crude Prevalence,Mammography - Use - Among
Taylor,32.55545221,-84.25028906,Georgia,8039.0,13269,72.7,69.1,76.2,%,Crude Prevalence,Mammography - Use - Among
Telfair,31.92982674,-82.93919704,Georgia,15876.0,13271,71.7,68.0,75.2,%,Crude Prevalence,Mammography - Use - Among
Terrell,31.77666522,-84.43667353,Georgia,8611.0,13273,75.3,71.7,78.5,%,Crude Prevalence,Mammography - Use - Among
Thomas,30.86373928,-83.91918638,Georgia,44448.0,13275,76.9,73.3,80.1,%,Crude Prevalence,Mammography - Use - Among
Tift,31.45747862,-83.52674119,Georgia,40571.0,13277,75.2,71.8,78.4,%,Crude Prevalence,Mammography - Use - Among
Toombs,32.12152475,-82.33095995,Georgia,26887.0,13279,74.8,71.4,78.3,%,Crude Prevalence,Mammography - Use - Among
Towns,34.91682754,-83.73740021,Georgia,11852.0,13281,72.5,67.8,77.0,%,Crude Prevalence,Mammography - Use - Among
Treutlen,32.40378483,-82.56759372,Georgia,6809.0,13283,74.7,71.1,78.1,%,Crude Prevalence,Mammography - Use - Among
Troup,33.03355985,-85.02851439,Georgia,70034.0,13285,75.4,71.7,78.9,%,Crude Prevalence,Mammography - Use - Among
Turner,31.71645085,-83.6238197,Georgia,7912.0,13287,74.5,71.2,77.8,%,Crude Prevalence,Mammography - Use - Among
Twiggs,32.66723611,-83.42727973,Georgia,8188.0,13289,73.9,70.3,77.3,%,Crude Prevalence,Mammography - Use - Among
Union,34.83383243,-83.99014461,Georgia,24001.0,13291,74.8,70.0,78.9,%,Crude Prevalence,Mammography - Use - Among
Upson,32.88087659,-84.29952649,Georgia,26215.0,13293,73.2,69.5,76.6,%,Crude Prevalence,Mammography - Use - Among
Walker,34.7358293,-85.30124895,Georgia,69410.0,13295,70.7,65.9,75.5,%,Crude Prevalence,Mammography - Use - Among
Walton,33.78145869,-83.73391829,Georgia,93503.0,13297,75.5,71.7,79.0,%,Crude Prevalence,Mammography - Use - Among
Ware,31.0538998,-82.42363828,Georgia,35680.0,13299,73.2,69.8,76.7,%,Crude Prevalence,Mammography - Use - Among
Warren,33.40902488,-82.67619426,Georgia,5251.0,13301,75.8,72.5,78.9,%,Crude Prevalence,Mammography - Use - Among
Washington,32.9692438,-82.79634307,Georgia,20386.0,13303,76.2,73.0,79.2,%,Crude Prevalence,Mammography - Use - Among
Wayne,31.55120637,-81.91715588,Georgia,29808.0,13305,74.3,70.2,78.0,%,Crude Prevalence,Mammography - Use - Among
Webster,32.04731618,-84.55121005,Georgia,2611.0,13307,74.5,70.9,77.7,%,Crude Prevalence,Mammography - Use - Among
Wheeler,32.1168757,-82.72443335,Georgia,7879.0,13309,70.9,66.8,74.8,%,Crude Prevalence,Mammography - Use - Among
White,34.64547516,-83.74713501,Georgia,29970.0,13311,74.9,70.1,79.4,%,Crude Prevalence,Mammography - Use - Among
Whitfield,34.80551983,-84.96711735,Georgia,104062.0,13313,72.6,68.5,76.9,%,Crude Prevalence,Mammography - Use - Among
Wilcox,31.97263162,-83.43199201,Georgia,8812.0,13315,73.2,69.3,76.5,%,Crude Prevalence,Mammography - Use - Among
Wilkes,33.78213952,-82.74356988,Georgia,9876.0,13317,74.7,71.4,77.9,%,Crude Prevalence,Mammography - Use - Among
Wilkinson,32.80238417,-83.17161919,Georgia,9036.0,13319,74.0,70.3,77.1,%,Crude Prevalence,Mammography - Use - Among
Worth,31.55136135,-83.85071446,Georgia,20299.0,13321,73.8,70.0,77.3,%,Crude Prevalence,Mammography - Use - Among
Ada,43.45109387,-116.2411457,Idaho,469966.0,16001,68.8,64.4,73.1,%,Crude Prevalence,Mammography - Use - Among
Adams,44.88919141,-116.4539392,Idaho,4250.0,16003,64.2,58.6,69.4,%,Crude Prevalence,Mammography - Use - Among
Bannock,42.66900791,-112.2250113,Idaho,87138.0,16005,64.7,60.0,69.1,%,Crude Prevalence,Mammography - Use - Among
Bear Lake,42.28468759,-111.3294344,Idaho,6050.0,16007,62.6,56.9,67.9,%,Crude Prevalence,Mammography - Use - Among
Benewah,47.21751507,-116.6589561,Idaho,9226.0,16009,60.2,55.1,65.1,%,Crude Prevalence,Mammography - Use - Among
Bingham,43.21654997,-112.3979588,Idaho,46236.0,16011,63.5,58.7,67.8,%,Crude Prevalence,Mammography - Use - Among
Blaine,43.40759364,-113.9705796,Idaho,22601.0,16013,67.0,62.0,71.4,%,Crude Prevalence,Mammography - Use - Among
Boise,43.98981735,-115.7272456,Idaho,7634.0,16015,63.6,58.9,68.6,%,Crude Prevalence,Mammography - Use - Among
Bonner,48.2999159,-116.6012435,Idaho,44727.0,16017,63.3,57.8,68.5,%,Crude Prevalence,Mammography - Use - Among
Bonneville,43.38779682,-111.6148389,Idaho,116854.0,16019,64.4,59.3,69.1,%,Crude Prevalence,Mammography - Use - Among
Boundary,48.766998,-116.4627525,Idaho,11948.0,16021,58.6,53.1,64.0,%,Crude Prevalence,Mammography - Use - Among
Butte,43.72335197,-113.1711938,Idaho,2611.0,16023,63.6,58.4,68.5,%,Crude Prevalence,Mammography - Use - Among
Camas,43.46439664,-114.8050128,Idaho,1127.0,16025,60.9,55.6,66.2,%,Crude Prevalence,Mammography - Use - Among
Canyon,43.62515378,-116.7092489,Idaho,223499.0,16027,61.0,56.7,65.4,%,Crude Prevalence,Mammography - Use - Among
Caribou,42.77041121,-111.5621779,Idaho,7060.0,16029,62.7,57.8,67.6,%,Crude Prevalence,Mammography - Use - Among
Cassia,42.28396522,-113.6003424,Idaho,23864.0,16031,61.5,56.5,66.3,%,Crude Prevalence,Mammography - Use - Among
Clark,44.2840844,-112.3516256,Idaho,852.0,16033,60.4,55.4,65.0,%,Crude Prevalence,Mammography - Use - Among
Clearwater,46.67343002,-115.6567783,Idaho,8758.0,16035,60.9,55.3,66.3,%,Crude Prevalence,Mammography - Use - Among
Custer,44.24080899,-114.2827325,Idaho,4280.0,16037,60.5,54.4,66.1,%,Crude Prevalence,Mammography - Use - Among
Elmore,43.3532536,-115.4693813,Idaho,27259.0,16039,64.3,59.5,69.0,%,Crude Prevalence,Mammography - Use - Among
Franklin,42.18122472,-111.8132856,Idaho,13726.0,16041,61.9,56.4,67.7,%,Crude Prevalence,Mammography - Use - Among
Fremont,44.22914506,-111.4819759,Idaho,13168.0,16043,60.0,53.9,65.7,%,Crude Prevalence,Mammography - Use - Among
Gem,44.06105955,-116.3973679,Idaho,17634.0,16045,60.3,55.0,65.6,%,Crude Prevalence,Mammography - Use - Among
Gooding,42.97113174,-114.8115228,Idaho,15196.0,16047,61.6,56.6,66.5,%,Crude Prevalence,Mammography - Use - Among
Idaho,45.84411919,-115.4670388,Idaho,16513.0,16049,61.9,56.6,66.9,%,Crude Prevalence,Mammography - Use - Among
Jefferson,43.82021855,-112.3110107,Idaho,29439.0,16051,65.4,59.7,70.3,%,Crude Prevalence,Mammography - Use - Among
Jerome,42.68992076,-114.2645038,Idaho,24015.0,16053,60.6,55.4,65.7,%,Crude Prevalence,Mammography - Use - Among
Kootenai,47.6744641,-116.7000308,Idaho,161505.0,16055,64.2,59.1,69.0,%,Crude Prevalence,Mammography - Use - Among
Latah,46.81605667,-116.711485,Idaho,40134.0,16057,66.3,61.2,70.8,%,Crude Prevalence,Mammography - Use - Among
Lemhi,44.94368489,-113.9340756,Idaho,7961.0,16059,61.0,55.4,66.3,%,Crude Prevalence,Mammography - Use - Among
Lewis,46.23675721,-116.4260622,Idaho,3861.0,16061,62.8,57.7,67.6,%,Crude Prevalence,Mammography - Use - Among
Lincoln,43.00232711,-114.1383193,Idaho,5360.0,16063,61.3,56.7,66.1,%,Crude Prevalence,Mammography - Use - Among
Madison,43.78424091,-111.6590247,Idaho,39304.0,16065,60.8,55.7,65.8,%,Crude Prevalence,Mammography - Use - Among
Minidoka,42.85448818,-113.6375197,Idaho,20825.0,16067,59.9,55.4,64.2,%,Crude Prevalence,Mammography - Use - Among
Nez Perce,46.32669016,-116.7500003,Idaho,40408.0,16069,66.2,61.5,70.9,%,Crude Prevalence,Mammography - Use - Among
Oneida,42.19493884,-112.539538,Idaho,4488.0,16071,61.5,56.2,66.6,%,Crude Prevalence,Mammography - Use - Among
Owyhee,42.58150395,-116.1700201,Idaho,11693.0,16073,59.1,54.1,63.5,%,Crude Prevalence,Mammography - Use - Among
Payette,44.00705386,-116.7602225,Idaho,23551.0,16075,62.0,56.8,66.8,%,Crude Prevalence,Mammography - Use - Among
Power,42.69353476,-112.8408579,Idaho,7768.0,16077,61.7,57.0,66.4,%,Crude Prevalence,Mammography - Use - Among
Shoshone,47.35207039,-115.8914809,Idaho,12796.0,16079,59.9,53.8,65.4,%,Crude Prevalence,Mammography - Use - Among
Teton,43.76000399,-111.2080195,Idaho,11640.0,16081,65.4,60.1,70.6,%,Crude Prevalence,Mammography - Use - Among
Twin Falls,42.35602464,-114.6672662,Idaho,86081.0,16083,60.0,54.6,65.0,%,Crude Prevalence,Mammography - Use - Among
Valley,44.7666868,-115.5664274,Idaho,11041.0,16085,65.0,59.3,70.2,%,Crude Prevalence,Mammography - Use - Among
Washington,44.45272668,-116.7848239,Idaho,10161.0,16087,61.0,55.4,65.8,%,Crude Prevalence,Mammography - Use - Among
Adams,39.9878741,-91.18845544,Illinois,65691.0,17001,69.9,65.0,74.7,%,Crude Prevalence,Mammography - Use - Among
Alexander,37.19140962,-89.33768329,Illinois,6060.0,17003,69.4,65.3,73.3,%,Crude Prevalence,Mammography - Use - Among
Bond,38.88702523,-89.43550064,Illinois,16630.0,17005,69.3,63.7,74.4,%,Crude Prevalence,Mammography - Use - Among
Boone,42.32289961,-88.82332316,Illinois,53577.0,17007,71.7,66.7,75.9,%,Crude Prevalence,Mammography - Use - Among
Brown,39.96106736,-90.75026903,Illinois,6556.0,17009,69.8,64.8,75.0,%,Crude Prevalence,Mammography - Use - Among
Bureau,41.40423623,-89.52854555,Illinois,32993.0,17011,71.0,66.2,75.2,%,Crude Prevalence,Mammography - Use - Among
Calhoun,39.16882841,-90.66735551,Illinois,4802.0,17013,70.0,66.1,74.0,%,Crude Prevalence,Mammography - Use - Among
Carroll,42.06790394,-89.93368608,Illinois,14312.0,17015,70.6,65.8,75.1,%,Crude Prevalence,Mammography - Use - Among
Cass,39.97361133,-90.24733059,Illinois,12260.0,17017,69.1,64.3,73.9,%,Crude Prevalence,Mammography - Use - Among
Champaign,40.14009306,-88.19939639,Illinois,209983.0,17019,72.5,68.2,76.3,%,Crude Prevalence,Mammography - Use - Among
Christian,39.54579537,-89.27739335,Illinois,32661.0,17021,68.4,63.1,73.1,%,Crude Prevalence,Mammography - Use - Among
Clark,39.333655,-87.7876984,Illinois,15596.0,17023,69.6,65.7,73.4,%,Crude Prevalence,Mammography - Use - Among
Clay,38.75358984,-88.49042328,Illinois,13253.0,17025,68.7,63.5,73.6,%,Crude Prevalence,Mammography - Use - Among
Clinton,38.6064723,-89.42268213,Illinois,37639.0,17027,72.0,66.8,76.7,%,Crude Prevalence,Mammography - Use - Among
Coles,39.52086003,-88.22141023,Illinois,50885.0,17029,70.0,65.0,74.9,%,Crude Prevalence,Mammography - Use - Among
Cook,41.83995114,-87.81688021,Illinois,5180493.0,17031,75.7,73.0,78.4,%,Crude Prevalence,Mammography - Use - Among
Crawford,39.003307,-87.75963754,Illinois,18807.0,17033,69.7,64.2,74.6,%,Crude Prevalence,Mammography - Use - Among
Cumberland,39.27402237,-88.24036948,Illinois,10808.0,17035,69.1,63.5,73.9,%,Crude Prevalence,Mammography - Use - Among
DeKalb,41.89322815,-88.77009318,Illinois,104143.0,17037,70.1,65.3,74.4,%,Crude Prevalence,Mammography - Use - Among
De Witt,40.17440678,-88.90398072,Illinois,15769.0,17039,70.3,64.9,75.0,%,Crude Prevalence,Mammography - Use - Among
Douglas,39.76949551,-88.21754608,Illinois,19479.0,17041,68.7,63.3,74.4,%,Crude Prevalence,Mammography - Use - Among
DuPage,41.85194686,-88.08559673,Illinois,928589.0,17043,72.4,68.2,75.9,%,Crude Prevalence,Mammography - Use - Among
Edgar,39.67864858,-87.74546637,Illinois,17360.0,17045,70.8,65.7,75.6,%,Crude Prevalence,Mammography - Use - Among
Edwards,38.41610002,-88.05385604,Illinois,6392.0,17047,70.0,65.3,74.4,%,Crude Prevalence,Mammography - Use - Among
Effingham,39.05963979,-88.5897574,Illinois,34208.0,17049,71.6,66.7,76.3,%,Crude Prevalence,Mammography - Use - Among
Fayette,39.00018837,-89.02422026,Illinois,21416.0,17051,68.8,63.5,74.0,%,Crude Prevalence,Mammography - Use - Among
Ford,40.59739228,-88.2235302,Illinois,13264.0,17053,68.9,63.4,73.9,%,Crude Prevalence,Mammography - Use - Among
Franklin,37.99210601,-88.92419062,Illinois,38701.0,17055,68.6,63.1,73.7,%,Crude Prevalence,Mammography - Use - Among
Fulton,40.47265322,-90.207453,Illinois,34844.0,17057,67.9,62.3,73.0,%,Crude Prevalence,Mammography - Use - Among
Gallatin,37.76357747,-88.22876649,Illinois,5058.0,17059,67.4,63.2,71.0,%,Crude Prevalence,Mammography - Use - Among
Greene,39.35635609,-90.39056399,Illinois,13044.0,17061,69.4,64.2,74.4,%,Crude Prevalence,Mammography - Use - Among
Grundy,41.28544033,-88.41889597,Illinois,50972.0,17063,71.8,67.4,76.0,%,Crude Prevalence,Mammography - Use - Among
Hamilton,38.08154333,-88.53881219,Illinois,8163.0,17065,70.5,65.1,75.2,%,Crude Prevalence,Mammography - Use - Among
Hancock,40.40377304,-91.16466866,Illinois,17844.0,17067,70.2,65.3,75.2,%,Crude Prevalence,Mammography - Use - Among
Hardin,37.51808974,-88.26669442,Illinois,3910.0,17069,68.2,62.7,73.2,%,Crude Prevalence,Mammography - Use - Among
Henderson,40.81804873,-90.92497453,Illinois,6709.0,17071,69.3,64.3,74.3,%,Crude Prevalence,Mammography - Use - Among
Henry,41.35314467,-90.1312813,Illinois,49090.0,17073,71.6,66.3,76.0,%,Crude Prevalence,Mammography - Use - Among
Iroquois,40.74721556,-87.82469568,Illinois,27604.0,17075,67.8,62.5,72.6,%,Crude Prevalence,Mammography - Use - Among
Jackson,37.7852773,-89.38220561,Illinois,57419.0,17077,70.4,65.7,74.8,%,Crude Prevalence,Mammography - Use - Among
Jasper,39.01057055,-88.15388345,Illinois,9611.0,17079,70.4,65.0,75.2,%,Crude Prevalence,Mammography - Use - Among
Jefferson,38.30021861,-88.92399469,Illinois,37820.0,17081,69.0,63.8,73.5,%,Crude Prevalence,Mammography - Use - Among
Jersey,39.08568063,-90.35672109,Illinois,21847.0,17083,71.2,66.3,75.8,%,Crude Prevalence,Mammography - Use - Among
Jo Daviess,42.3652792,-90.21213574,Illinois,21366.0,17085,71.6,66.7,76.4,%,Crude Prevalence,Mammography - Use - Among
Johnson,37.45952508,-88.88074172,Illinois,12456.0,17087,69.6,64.0,74.9,%,Crude Prevalence,Mammography - Use - Among
Kane,41.93907809,-88.42862274,Illinois,534216.0,17089,69.7,65.2,73.7,%,Crude Prevalence,Mammography - Use - Among
Kankakee,41.13747721,-87.86188723,Illinois,110024.0,17091,71.5,67.1,75.6,%,Crude Prevalence,Mammography - Use - Among
Kendall,41.59098734,-88.4288083,Illinois,127915.0,17093,75.1,71.1,78.7,%,Crude Prevalence,Mammography - Use - Among
Knox,40.93161365,-90.21324527,Illinois,50112.0,17095,68.2,62.9,72.7,%,Crude Prevalence,Mammography - Use - Among
Lake,42.32324586,-88.0038997,Illinois,700832.0,17097,71.8,67.7,75.6,%,Crude Prevalence,Mammography - Use - Among
LaSalle,41.34406326,-88.88641893,Illinois,109430.0,17099,67.4,62.1,72.1,%,Crude Prevalence,Mammography - Use - Among
Lawrence,38.7203392,-87.72684251,Illinois,15765.0,17101,68.7,63.2,73.7,%,Crude Prevalence,Mammography - Use - Among
Lee,41.74642172,-89.30007923,Illinois,34223.0,17103,70.2,65.3,74.8,%,Crude Prevalence,Mammography - Use - Among
Livingston,40.89177714,-88.55788487,Illinois,35761.0,17105,69.1,64.0,74.0,%,Crude Prevalence,Mammography - Use - Among
Logan,40.12456067,-89.36756428,Illinois,28925.0,17107,71.0,66.0,75.6,%,Crude Prevalence,Mammography - Use - Among
McDonough,40.45646248,-90.67782344,Illinois,29955.0,17109,69.9,64.8,74.6,%,Crude Prevalence,Mammography - Use - Among
McHenry,42.32444298,-88.45264553,Illinois,308570.0,17111,73.0,68.3,77.4,%,Crude Prevalence,Mammography - Use - Among
McLean,40.49078887,-88.84759624,Illinois,172828.0,17113,72.1,67.2,76.3,%,Crude Prevalence,Mammography - Use - Among
Macon,39.86003285,-88.96170117,Illinois,104712.0,17115,71.2,66.8,75.3,%,Crude Prevalence,Mammography - Use - Among
Macoupin,39.26115141,-89.92450243,Illinois,45313.0,17117,68.8,63.7,73.4,%,Crude Prevalence,Mammography - Use - Among
Madison,38.8299742,-89.90521707,Illinois,264461.0,17119,73.1,68.6,77.4,%,Crude Prevalence,Mammography - Use - Among
Marion,38.649654,-88.91897966,Illinois,37620.0,17121,68.3,63.0,73.2,%,Crude Prevalence,Mammography - Use - Among
Marshall,41.03321359,-89.34479498,Illinois,11534.0,17123,70.4,65.3,75.2,%,Crude Prevalence,Mammography - Use - Among
Mason,40.23973518,-89.91638016,Illinois,13565.0,17125,68.6,64.3,72.8,%,Crude Prevalence,Mammography - Use - Among
Massac,37.21907548,-88.70788222,Illinois,14080.0,17127,69.0,64.3,73.5,%,Crude Prevalence,Mammography - Use - Among
Menard,40.02765612,-89.80176112,Illinois,12288.0,17129,71.9,67.9,75.5,%,Crude Prevalence,Mammography - Use - Among
Mercer,41.20543979,-90.74108693,Illinois,15601.0,17131,71.2,66.3,75.8,%,Crude Prevalence,Mammography - Use - Among
Monroe,38.27857376,-90.17768675,Illinois,34335.0,17133,72.7,67.8,77.1,%,Crude Prevalence,Mammography - Use - Among
Montgomery,39.23105133,-89.47892664,Illinois,28601.0,17135,70.1,64.8,75.0,%,Crude Prevalence,Mammography - Use - Among
Morgan,39.71559646,-90.20099574,Illinois,33976.0,17137,69.9,65.1,74.5,%,Crude Prevalence,Mammography - Use - Among
Moultrie,39.64136791,-88.61929654,Illinois,14717.0,17139,70.5,65.2,75.4,%,Crude Prevalence,Mammography - Use - Among
Ogle,42.04268981,-89.32056003,Illinois,50923.0,17141,70.5,65.7,75.0,%,Crude Prevalence,Mammography - Use - Among
Peoria,40.78823251,-89.7600207,Illinois,180621.0,17143,71.3,66.8,75.5,%,Crude Prevalence,Mammography - Use - Among
Perry,38.084378,-89.3675078,Illinois,21174.0,17145,69.0,63.5,73.6,%,Crude Prevalence,Mammography - Use - Among
Piatt,40.01034924,-88.59111287,Illinois,16396.0,17147,72.9,67.5,77.5,%,Crude Prevalence,Mammography - Use - Among
Pike,39.6224698,-90.88627486,Illinois,15611.0,17149,68.9,63.4,74.1,%,Crude Prevalence,Mammography - Use - Among
Pope,37.41280919,-88.56135849,Illinois,4212.0,17151,70.1,65.1,74.8,%,Crude Prevalence,Mammography - Use - Among
Pulaski,37.22291001,-89.12759127,Illinois,5463.0,17153,70.7,67.7,73.6,%,Crude Prevalence,Mammography - Use - Among
Putnam,41.20465835,-89.28586591,Illinois,5740.0,17155,70.4,66.4,74.2,%,Crude Prevalence,Mammography - Use - Among
Randolph,38.05215265,-89.82565692,Illinois,32106.0,17157,68.1,63.0,73.1,%,Crude Prevalence,Mammography - Use - Among
Richland,38.71236738,-88.08547184,Illinois,15763.0,17159,69.6,64.1,74.3,%,Crude Prevalence,Mammography - Use - Among
Rock Island,41.46722963,-90.5679268,Illinois,143477.0,17161,72.7,68.4,76.7,%,Crude Prevalence,Mammography - Use - Among
St. Clair,38.47017783,-89.92845262,Illinois,261059.0,17163,72.4,68.8,75.8,%,Crude Prevalence,Mammography - Use - Among
Saline,37.75324113,-88.54097347,Illinois,23906.0,17165,67.0,61.0,72.4,%,Crude Prevalence,Mammography - Use - Among
Sangamon,39.75825624,-89.65866519,Illinois,195348.0,17167,72.8,68.2,77.3,%,Crude Prevalence,Mammography - Use - Among
Schuyler,40.15792843,-90.61533662,Illinois,6907.0,17169,69.6,64.2,74.7,%,Crude Prevalence,Mammography - Use - Among
Scott,39.64390994,-90.47433071,Illinois,4926.0,17171,68.6,63.7,73.7,%,Crude Prevalence,Mammography - Use - Among
Shelby,39.39134637,-88.80585338,Illinois,21741.0,17173,69.9,64.5,75.0,%,Crude Prevalence,Mammography - Use - Among
Stark,41.09340992,-89.79745221,Illinois,5427.0,17175,68.1,62.4,73.2,%,Crude Prevalence,Mammography - Use - Among
Stephenson,42.35163901,-89.6625328,Illinois,44753.0,17177,69.2,64.7,73.6,%,Crude Prevalence,Mammography - Use - Among
Tazewell,40.50760685,-89.51345916,Illinois,132328.0,17179,70.3,65.5,74.8,%,Crude Prevalence,Mammography - Use - Among
Union,37.47128742,-89.25472463,Illinois,16841.0,17181,69.6,65.4,73.4,%,Crude Prevalence,Mammography - Use - Among
Vermilion,40.18371703,-87.73292605,Illinois,76806.0,17183,69.9,65.3,74.6,%,Crude Prevalence,Mammography - Use - Among
Wabash,38.44627997,-87.84427585,Illinois,11549.0,17185,70.5,66.5,74.3,%,Crude Prevalence,Mammography - Use - Among
Warren,40.84851016,-90.61481857,Illinois,17032.0,17187,70.1,65.0,74.9,%,Crude Prevalence,Mammography - Use - Among
Washington,38.35246483,-89.41076459,Illinois,13995.0,17189,71.1,66.0,75.7,%,Crude Prevalence,Mammography - Use - Among
Wayne,38.42897399,-88.42560057,Illinois,16332.0,17191,69.7,64.2,74.8,%,Crude Prevalence,Mammography - Use - Among
White,38.08680041,-88.17955899,Illinois,13665.0,17193,68.9,63.6,73.5,%,Crude Prevalence,Mammography - Use - Among
Whiteside,41.75596232,-89.9141825,Illinois,55626.0,17195,71.9,67.4,76.4,%,Crude Prevalence,Mammography - Use - Among
Will,41.44492484,-87.97842332,Illinois,692310.0,17197,74.1,70.5,77.6,%,Crude Prevalence,Mammography - Use - Among
Williamson,37.73040711,-88.93010963,Illinois,67056.0,17199,69.5,64.1,74.1,%,Crude Prevalence,Mammography - Use - Among
Winnebago,42.33635569,-89.16091989,Illinois,284081.0,17201,70.0,65.7,74.1,%,Crude Prevalence,Mammography - Use - Among
Woodford,40.78829161,-89.21105717,Illinois,38463.0,17203,72.0,66.9,76.5,%,Crude Prevalence,Mammography - Use - Among
Adams,40.7457325,-84.93671592,Indiana,35636.0,18001,68.2,63.0,73.1,%,Crude Prevalence,Mammography - Use - Among
Allen,41.09113181,-85.06660354,Indiana,375351.0,18003,69.7,65.6,73.8,%,Crude Prevalence,Mammography - Use - Among
Bartholomew,39.20600189,-85.89759541,Indiana,82753.0,18005,72.1,67.4,76.3,%,Crude Prevalence,Mammography - Use - Among
Benton,40.60632664,-87.31080022,Indiana,8653.0,18007,69.2,64.4,74.0,%,Crude Prevalence,Mammography - Use - Among
Blackford,40.47362942,-85.32478442,Indiana,11930.0,18009,67.9,63.0,73.0,%,Crude Prevalence,Mammography - Use - Among
Boone,40.05096134,-86.46861109,Indiana,66999.0,18011,73.0,67.6,77.6,%,Crude Prevalence,Mammography - Use - Among
Brown,39.19641206,-86.22763978,Indiana,15234.0,18013,71.0,65.7,75.8,%,Crude Prevalence,Mammography - Use - Among
Carroll,40.5830106,-86.56346615,Indiana,20127.0,18015,69.6,64.1,74.4,%,Crude Prevalence,Mammography - Use - Among
Cass,40.76162398,-86.34618331,Indiana,37955.0,18017,66.4,61.7,71.3,%,Crude Prevalence,Mammography - Use - Among
Clark,38.47741387,-85.7071025,Indiana,117360.0,18019,72.5,68.2,76.5,%,Crude Prevalence,Mammography - Use - Among
Clay,39.39284447,-87.11576628,Indiana,26170.0,18021,70.8,65.6,75.4,%,Crude Prevalence,Mammography - Use - Among
Clinton,40.30196661,-86.47534877,Indiana,32250.0,18023,70.9,66.1,75.7,%,Crude Prevalence,Mammography - Use - Among
Crawford,38.29212557,-86.45129948,Indiana,10558.0,18025,67.4,61.9,72.6,%,Crude Prevalence,Mammography - Use - Among
Daviess,38.7027045,-87.07192926,Indiana,33147.0,18027,68.4,62.9,73.7,%,Crude Prevalence,Mammography - Use - Among
Dearborn,39.14486496,-84.97342343,Indiana,49568.0,18029,72.5,67.9,77.2,%,Crude Prevalence,Mammography - Use - Among
Decatur,39.30705605,-85.50112492,Indiana,26794.0,18031,69.7,64.7,74.2,%,Crude Prevalence,Mammography - Use - Among
DeKalb,41.39806132,-84.99898798,Indiana,43226.0,18033,68.5,63.4,73.1,%,Crude Prevalence,Mammography - Use - Among
Delaware,40.22779145,-85.39727723,Indiana,114772.0,18035,70.9,66.4,75.3,%,Crude Prevalence,Mammography - Use - Among
Dubois,38.36490688,-86.87994224,Indiana,42565.0,18037,73.9,69.5,78.3,%,Crude Prevalence,Mammography - Use - Among
Elkhart,41.59769459,-85.85876445,Indiana,205560.0,18039,67.3,62.5,72.0,%,Crude Prevalence,Mammography - Use - Among
Fayette,39.63983379,-85.17841116,Indiana,23047.0,18041,70.0,64.9,74.7,%,Crude Prevalence,Mammography - Use - Among
Floyd,38.31844161,-85.90679103,Indiana,77781.0,18043,72.5,67.4,76.7,%,Crude Prevalence,Mammography - Use - Among
Fountain,40.12118478,-87.24128969,Indiana,16351.0,18045,69.4,64.5,74.1,%,Crude Prevalence,Mammography - Use - Among
Franklin,39.41468559,-85.0602732,Indiana,22736.0,18047,68.2,62.8,73.3,%,Crude Prevalence,Mammography - Use - Among
Fulton,41.04708011,-86.26359212,Indiana,20092.0,18049,70.1,65.1,75.0,%,Crude Prevalence,Mammography - Use - Among
Gibson,38.3118341,-87.58386455,Indiana,33452.0,18051,71.4,66.3,75.7,%,Crude Prevalence,Mammography - Use - Among
Grant,40.51580434,-85.65457061,Indiana,65936.0,18053,69.1,64.3,73.8,%,Crude Prevalence,Mammography - Use - Among
Greene,39.03627682,-86.96218924,Indiana,32006.0,18055,67.4,62.3,72.3,%,Crude Prevalence,Mammography - Use - Among
Hamilton,40.07241804,-86.05178886,Indiana,330086.0,18057,76.3,71.9,79.9,%,Crude Prevalence,Mammography - Use - Among
Hancock,39.82304185,-85.77344357,Indiana,76351.0,18059,72.2,67.4,76.5,%,Crude Prevalence,Mammography - Use - Among
Harrison,38.19513188,-86.11177384,Indiana,40350.0,18061,69.7,64.8,74.2,%,Crude Prevalence,Mammography - Use - Among
Hendricks,39.76976097,-86.5100815,Indiana,167009.0,18063,73.7,69.1,77.7,%,Crude Prevalence,Mammography - Use - Among
Henry,39.93112509,-85.3965434,Indiana,48271.0,18065,70.3,65.2,75.4,%,Crude Prevalence,Mammography - Use - Among
Howard,40.48355419,-86.11663764,Indiana,82366.0,18067,71.9,66.9,76.2,%,Crude Prevalence,Mammography - Use - Among
Huntington,40.82911501,-85.48824811,Indiana,36240.0,18069,71.5,66.1,76.4,%,Crude Prevalence,Mammography - Use - Among
Jackson,38.90660897,-86.03795352,Indiana,44111.0,18071,67.4,62.2,72.6,%,Crude Prevalence,Mammography - Use - Among
Jasper,41.0231193,-87.11603007,Indiana,33370.0,18073,68.7,63.8,73.4,%,Crude Prevalence,Mammography - Use - Among
Jay,40.43787862,-85.00574195,Indiana,20764.0,18075,67.9,62.9,72.9,%,Crude Prevalence,Mammography - Use - Among
Jefferson,38.78583386,-85.43825267,Indiana,32208.0,18077,69.1,64.0,73.6,%,Crude Prevalence,Mammography - Use - Among
Jennings,38.99710816,-85.62772534,Indiana,27611.0,18079,68.7,63.7,73.5,%,Crude Prevalence,Mammography - Use - Among
Johnson,39.49009483,-86.10147271,Indiana,156225.0,18081,69.9,64.7,74.3,%,Crude Prevalence,Mammography - Use - Among
Knox,38.68972721,-87.41749963,Indiana,36895.0,18083,70.3,65.3,75.1,%,Crude Prevalence,Mammography - Use - Among
Kosciusko,41.2445485,-85.86064749,Indiana,79344.0,18085,69.4,64.6,74.3,%,Crude Prevalence,Mammography - Use - Among
LaGrange,41.64234778,-85.42669106,Indiana,39330.0,18087,67.8,62.2,73.0,%,Crude Prevalence,Mammography - Use - Among
Lake,41.41492641,-87.3818402,Indiana,484411.0,18089,70.3,67.2,73.4,%,Crude Prevalence,Mammography - Use - Among
LaPorte,41.54624768,-86.73994342,Indiana,110007.0,18091,67.8,63.0,72.2,%,Crude Prevalence,Mammography - Use - Among
Lawrence,38.84115114,-86.48319018,Indiana,45668.0,18093,68.4,63.2,73.5,%,Crude Prevalence,Mammography - Use - Among
Madison,40.16144939,-85.7195642,Indiana,129641.0,18095,68.3,63.8,72.3,%,Crude Prevalence,Mammography - Use - Among
Marion,39.78178178,-86.1385378,Indiana,954670.0,18097,71.1,67.7,74.6,%,Crude Prevalence,Mammography - Use - Among
Marshall,41.32487399,-86.26179966,Indiana,46248.0,18099,70.7,65.9,75.7,%,Crude Prevalence,Mammography - Use - Among
Martin,38.70858739,-86.80282124,Indiana,10217.0,18101,68.3,63.3,73.0,%,Crude Prevalence,Mammography - Use - Among
Miami,40.76960427,-86.04512696,Indiana,35567.0,18103,69.0,63.6,73.5,%,Crude Prevalence,Mammography - Use - Among
Monroe,39.16111024,-86.52317588,Indiana,146917.0,18105,70.9,66.2,75.4,%,Crude Prevalence,Mammography - Use - Among
Montgomery,40.04033554,-86.89313068,Indiana,38346.0,18107,70.2,65.3,74.8,%,Crude Prevalence,Mammography - Use - Among
Morgan,39.48183246,-86.44627913,Indiana,70116.0,18109,68.4,63.5,73.1,%,Crude Prevalence,Mammography - Use - Among
Newton,40.95577159,-87.3978017,Indiana,14011.0,18111,67.6,62.2,72.3,%,Crude Prevalence,Mammography - Use - Among
Noble,41.39833847,-85.41728883,Indiana,47532.0,18113,69.2,64.2,73.5,%,Crude Prevalence,Mammography - Use - Among
Ohio,38.94997094,-84.96468041,Indiana,5844.0,18115,71.6,66.8,76.1,%,Crude Prevalence,Mammography - Use - Among
Orange,38.54117054,-86.49532745,Indiana,19489.0,18117,68.4,63.3,73.6,%,Crude Prevalence,Mammography - Use - Among
Owen,39.31265802,-86.83767189,Indiana,20845.0,18119,68.6,63.5,73.9,%,Crude Prevalence,Mammography - Use - Among
Parke,39.77372635,-87.20681006,Indiana,16927.0,18121,69.6,64.5,74.5,%,Crude Prevalence,Mammography - Use - Among
Perry,38.07979649,-86.6382075,Indiana,19102.0,18123,70.7,66.1,75.2,%,Crude Prevalence,Mammography - Use - Among
Pike,38.39837363,-87.23212087,Indiana,12410.0,18125,68.7,63.7,73.7,%,Crude Prevalence,Mammography - Use - Among
Porter,41.46088039,-87.06742642,Indiana,169594.0,18127,70.0,65.7,74.2,%,Crude Prevalence,Mammography - Use - Among
Posey,38.02422595,-87.86549926,Indiana,25540.0,18129,70.7,65.6,75.1,%,Crude Prevalence,Mammography - Use - Among
Pulaski,41.04179355,-86.69884167,Indiana,12469.0,18131,69.6,64.6,74.5,%,Crude Prevalence,Mammography - Use - Among
Putnam,39.66638181,-86.84504823,Indiana,37779.0,18133,70.7,65.8,75.3,%,Crude Prevalence,Mammography - Use - Among
Randolph,40.15737546,-85.01133381,Indiana,24851.0,18135,68.2,62.6,73.0,%,Crude Prevalence,Mammography - Use - Among
Ripley,39.10348437,-85.26223182,Indiana,28523.0,18137,70.3,65.0,74.6,%,Crude Prevalence,Mammography - Use - Among
Rush,39.62000981,-85.46569307,Indiana,16663.0,18139,67.3,61.7,72.4,%,Crude Prevalence,Mammography - Use - Among
St. Joseph,41.61670681,-86.28991252,Indiana,270771.0,18141,72.1,67.9,75.7,%,Crude Prevalence,Mammography - Use - Among
Scott,38.68534147,-85.74729208,Indiana,23878.0,18143,69.3,64.1,74.2,%,Crude Prevalence,Mammography - Use - Among
Shelby,39.52322427,-85.79159084,Indiana,44593.0,18145,70.6,65.9,75.4,%,Crude Prevalence,Mammography - Use - Among
Spencer,38.01412885,-87.00810471,Indiana,20327.0,18147,69.3,64.2,73.9,%,Crude Prevalence,Mammography - Use - Among
Starke,41.28096496,-86.64777783,Indiana,22935.0,18149,64.6,59.3,69.8,%,Crude Prevalence,Mammography - Use - Among
Steuben,41.64408329,-85.00106921,Indiana,34586.0,18151,70.1,65.0,74.8,%,Crude Prevalence,Mammography - Use - Among
Sullivan,39.0890832,-87.4140086,Indiana,20690.0,18153,68.9,63.7,73.5,%,Crude Prevalence,Mammography - Use - Among
Switzerland,38.82629425,-85.03664271,Indiana,10717.0,18155,67.2,61.7,72.2,%,Crude Prevalence,Mammography - Use - Among
Tippecanoe,40.38870976,-86.8940701,Indiana,193048.0,18157,72.7,68.2,76.8,%,Crude Prevalence,Mammography - Use - Among
Tipton,40.31110579,-86.05218508,Indiana,15128.0,18159,70.4,65.1,75.6,%,Crude Prevalence,Mammography - Use - Among
Union,39.62555022,-84.92480221,Indiana,7037.0,18161,69.2,63.9,73.7,%,Crude Prevalence,Mammography - Use - Among
Vanderburgh,38.02515742,-87.58610192,Indiana,180974.0,18163,75.2,70.7,78.7,%,Crude Prevalence,Mammography - Use - Among
Vermillion,39.85408373,-87.46414168,Indiana,15479.0,18165,69.8,64.7,74.4,%,Crude Prevalence,Mammography - Use - Among
Vigo,39.4307138,-87.38970625,Indiana,107386.0,18167,66.3,61.4,71.0,%,Crude Prevalence,Mammography - Use - Among
Wabash,40.84586409,-85.79403759,Indiana,31280.0,18169,70.1,65.4,74.4,%,Crude Prevalence,Mammography - Use - Among
Warren,40.3466672,-87.35353232,Indiana,8263.0,18171,69.3,64.1,74.1,%,Crude Prevalence,Mammography - Use - Among
Warrick,38.09221599,-87.27220106,Indiana,62567.0,18173,71.9,67.2,76.5,%,Crude Prevalence,Mammography - Use - Among
Washington,38.59984583,-86.1051501,Indiana,27943.0,18175,69.8,64.7,74.3,%,Crude Prevalence,Mammography - Use - Among
Wayne,39.86428776,-85.00999792,Indiana,65936.0,18177,70.6,65.6,74.9,%,Crude Prevalence,Mammography - Use - Among
Wells,40.72910808,-85.22138963,Indiana,28206.0,18179,72.2,67.2,76.8,%,Crude Prevalence,Mammography - Use - Among
White,40.74992374,-86.86541019,Indiana,24133.0,18181,69.8,64.6,74.6,%,Crude Prevalence,Mammography - Use - Among
Whitley,41.13930903,-85.50505034,Indiana,34074.0,18183,72.0,66.9,76.4,%,Crude Prevalence,Mammography - Use - Among
Adair,41.33075609,-94.47105874,Iowa,7063.0,19001,71.6,66.8,76.0,%,Crude Prevalence,Mammography - Use - Among
Adams,41.02901204,-94.6993121,Iowa,3645.0,19003,72.6,68.1,77.0,%,Crude Prevalence,Mammography - Use - Among
Allamakee,43.2841423,-91.37807715,Iowa,13832.0,19005,72.9,67.9,77.3,%,Crude Prevalence,Mammography - Use - Among
Appanoose,40.74324681,-92.86864604,Iowa,12437.0,19007,71.5,67.0,75.9,%,Crude Prevalence,Mammography - Use - Among
Audubon,41.6844628,-94.90581859,Iowa,5506.0,19009,72.2,67.4,76.6,%,Crude Prevalence,Mammography - Use - Among
Benton,42.0802159,-92.06460929,Iowa,25642.0,19011,72.9,68.2,77.5,%,Crude Prevalence,Mammography - Use - Among
Black Hawk,42.47010183,-92.30869072,Iowa,132408.0,19013,77.1,73.0,80.3,%,Crude Prevalence,Mammography - Use - Among
Boone,42.03667226,-93.93138861,Iowa,26346.0,19015,72.1,67.2,76.6,%,Crude Prevalence,Mammography - Use - Among
Bremer,42.77458494,-92.31797633,Iowa,24947.0,19017,73.2,68.2,77.3,%,Crude Prevalence,Mammography - Use - Among
Buchanan,42.47108587,-91.83755723,Iowa,21199.0,19019,73.5,69.3,77.5,%,Crude Prevalence,Mammography - Use - Among
Buena Vista,42.73545875,-95.15100162,Iowa,19874.0,19021,68.9,64.6,73.2,%,Crude Prevalence,Mammography - Use - Among
Butler,42.73173816,-92.79017341,Iowa,14539.0,19023,72.7,68.2,77.4,%,Crude Prevalence,Mammography - Use - Among
Calhoun,42.38521126,-94.64046395,Iowa,9699.0,19025,72.0,67.7,76.4,%,Crude Prevalence,Mammography - Use - Among
Carroll,42.03617207,-94.86032705,Iowa,20154.0,19027,75.1,70.3,79.3,%,Crude Prevalence,Mammography - Use - Among
Cass,41.33146007,-94.92791359,Iowa,12930.0,19029,71.2,66.2,75.9,%,Crude Prevalence,Mammography - Use - Among
Cedar,41.77233777,-91.13246684,Iowa,18627.0,19031,75.0,70.8,79.0,%,Crude Prevalence,Mammography - Use - Among
Cerro Gordo,43.08177563,-93.2612239,Iowa,42647.0,19033,74.3,70.3,78.2,%,Crude Prevalence,Mammography - Use - Among
Cherokee,42.73538914,-95.62389402,Iowa,11321.0,19035,72.2,67.5,76.9,%,Crude Prevalence,Mammography - Use - Among
Chickasaw,43.06006651,-92.31765448,Iowa,11964.0,19037,74.5,69.8,78.6,%,Crude Prevalence,Mammography - Use - Among
Clarke,41.02910749,-93.78499688,Iowa,9423.0,19039,72.8,68.4,77.1,%,Crude Prevalence,Mammography - Use - Among
Clay,43.08247182,-95.15096481,Iowa,16134.0,19041,73.0,68.1,77.6,%,Crude Prevalence,Mammography - Use - Among
Clayton,42.84449371,-91.34142108,Iowa,17556.0,19043,72.2,67.3,76.7,%,Crude Prevalence,Mammography - Use - Among
Clinton,41.89792461,-90.53230889,Iowa,46518.0,19045,73.0,68.7,77.2,%,Crude Prevalence,Mammography - Use - Among
Crawford,42.03717842,-95.38197668,Iowa,17158.0,19047,70.0,64.8,74.6,%,Crude Prevalence,Mammography - Use - Among
Dallas,41.68492618,-94.03968953,Iowa,90180.0,19049,76.4,72.0,80.0,%,Crude Prevalence,Mammography - Use - Among
Davis,40.74775139,-92.41006563,Iowa,9017.0,19051,71.9,66.5,76.7,%,Crude Prevalence,Mammography - Use - Among
Decatur,40.73780689,-93.78644163,Iowa,7890.0,19053,70.3,65.0,74.9,%,Crude Prevalence,Mammography - Use - Among
Delaware,42.47128287,-91.36699389,Iowa,17069.0,19055,72.9,68.4,77.2,%,Crude Prevalence,Mammography - Use - Among
Des Moines,40.92304427,-91.18142012,Iowa,39138.0,19057,73.8,69.5,78.0,%,Crude Prevalence,Mammography - Use - Among
Dickinson,43.37782493,-95.15099396,Iowa,17153.0,19059,71.8,67.3,76.0,%,Crude Prevalence,Mammography - Use - Among
Dubuque,42.46868108,-90.88219145,Iowa,96854.0,19061,77.2,73.1,81.3,%,Crude Prevalence,Mammography - Use - Among
Emmet,43.3778228,-94.67861386,Iowa,9253.0,19063,72.4,67.9,76.6,%,Crude Prevalence,Mammography - Use - Among
Fayette,42.86275777,-91.84447588,Iowa,19660.0,19065,70.4,65.5,75.2,%,Crude Prevalence,Mammography - Use - Among
Floyd,43.0600053,-92.78940097,Iowa,15761.0,19067,74.2,69.5,78.3,%,Crude Prevalence,Mammography - Use - Among
Franklin,42.73270366,-93.26256737,Iowa,10124.0,19069,70.9,66.0,75.6,%,Crude Prevalence,Mammography - Use - Among
Fremont,40.74552519,-95.60474436,Iowa,6993.0,19071,73.6,68.8,77.8,%,Crude Prevalence,Mammography - Use - Among
Greene,42.03614551,-94.39658081,Iowa,8981.0,19073,71.1,66.2,76.0,%,Crude Prevalence,Mammography - Use - Among
Grundy,42.40195716,-92.7914653,Iowa,12304.0,19075,73.9,69.1,78.4,%,Crude Prevalence,Mammography - Use - Among
Guthrie,41.68378965,-94.50111014,Iowa,10720.0,19077,72.6,67.9,76.9,%,Crude Prevalence,Mammography - Use - Among
Hamilton,42.38395377,-93.70672502,Iowa,14952.0,19079,74.1,69.8,78.3,%,Crude Prevalence,Mammography - Use - Among
Hancock,43.08182065,-93.73458123,Iowa,10712.0,19081,70.0,65.2,74.7,%,Crude Prevalence,Mammography - Use - Among
Hardin,42.38393029,-93.24040527,Iowa,16868.0,19083,74.4,70.2,78.3,%,Crude Prevalence,Mammography - Use - Among
Harrison,41.6832759,-95.81703374,Iowa,14134.0,19085,70.6,65.6,75.1,%,Crude Prevalence,Mammography - Use - Among
Henry,40.98761344,-91.54434326,Iowa,20067.0,19087,71.1,66.4,75.3,%,Crude Prevalence,Mammography - Use - Among
Howard,43.35676409,-92.31712672,Iowa,9187.0,19089,70.7,65.6,75.4,%,Crude Prevalence,Mammography - Use - Among
Humboldt,42.7764426,-94.20722537,Iowa,9547.0,19091,71.8,66.3,76.1,%,Crude Prevalence,Mammography - Use - Among
Ida,42.38694449,-95.51351729,Iowa,6841.0,19093,71.4,67.1,75.7,%,Crude Prevalence,Mammography - Use - Among
Iowa,41.68631148,-92.06480935,Iowa,16141.0,19095,74.6,70.2,78.5,%,Crude Prevalence,Mammography - Use - Among
Jackson,42.17178419,-90.57403934,Iowa,19432.0,19097,73.3,68.3,77.7,%,Crude Prevalence,Mammography - Use - Among
Jasper,41.68604724,-93.05375647,Iowa,37147.0,19099,71.6,67.0,75.7,%,Crude Prevalence,Mammography - Use - Among
Jefferson,41.03163516,-91.94861765,Iowa,18381.0,19101,70.2,65.5,74.9,%,Crude Prevalence,Mammography - Use - Among
Johnson,41.67183878,-91.58796281,Iowa,151260.0,19103,74.9,70.8,78.4,%,Crude Prevalence,Mammography - Use - Among
Jones,42.12118609,-91.13139641,Iowa,20744.0,19105,70.4,65.7,74.9,%,Crude Prevalence,Mammography - Use - Among
Keokuk,41.33649665,-92.17850717,Iowa,10225.0,19107,72.7,67.8,77.0,%,Crude Prevalence,Mammography - Use - Among
Kossuth,43.20413984,-94.20689787,Iowa,14908.0,19109,72.7,68.1,76.8,%,Crude Prevalence,Mammography - Use - Among
Lee,40.64178807,-91.47914149,Iowa,34055.0,19111,68.2,63.5,72.7,%,Crude Prevalence,Mammography - Use - Among
Linn,42.07941108,-91.5980766,Iowa,225909.0,19113,75.2,71.1,78.8,%,Crude Prevalence,Mammography - Use - Among
Louisa,41.2184858,-91.25962762,Iowa,11169.0,19115,71.9,67.4,76.2,%,Crude Prevalence,Mammography - Use - Among
Lucas,41.02958964,-93.32780803,Iowa,8645.0,19117,70.9,66.2,75.6,%,Crude Prevalence,Mammography - Use - Among
Lyon,43.38105522,-96.21023387,Iowa,11811.0,19119,74.8,70.0,79.1,%,Crude Prevalence,Mammography - Use - Among
Madison,41.33079759,-94.01553843,Iowa,16249.0,19121,72.3,67.5,76.4,%,Crude Prevalence,Mammography - Use - Among
Mahaska,41.33521503,-92.64083907,Iowa,22000.0,19123,70.3,65.5,74.8,%,Crude Prevalence,Mammography - Use - Among
Marion,41.33446684,-93.09934964,Iowa,33407.0,19125,74.9,70.5,79.2,%,Crude Prevalence,Mammography - Use - Among
Marshall,42.03584688,-92.9989596,Iowa,39981.0,19127,73.9,69.3,77.5,%,Crude Prevalence,Mammography - Use - Among
Mills,41.03345537,-95.62137337,Iowa,15063.0,19129,71.7,67.1,76.4,%,Crude Prevalence,Mammography - Use - Among
Mitchell,43.35639379,-92.78887576,Iowa,10569.0,19131,72.3,67.5,76.9,%,Crude Prevalence,Mammography - Use - Among
Monona,42.05236881,-95.95997093,Iowa,8679.0,19133,72.3,67.7,76.5,%,Crude Prevalence,Mammography - Use - Among
Monroe,41.02988815,-92.8690667,Iowa,7790.0,19135,70.8,65.9,75.4,%,Crude Prevalence,Mammography - Use - Among
Montgomery,41.03017649,-95.15643535,Iowa,10003.0,19137,71.9,67.2,76.3,%,Crude Prevalence,Mammography - Use - Among
Muscatine,41.48387233,-91.11281646,Iowa,42929.0,19139,71.3,66.9,75.3,%,Crude Prevalence,Mammography - Use - Among
O'Brien,43.08361729,-95.62474556,Iowa,13840.0,19141,72.1,67.7,76.1,%,Crude Prevalence,Mammography - Use - Among
Osceola,43.3786784,-95.62423,Iowa,6040.0,19143,72.2,67.6,76.5,%,Crude Prevalence,Mammography - Use - Among
Page,40.73917437,-95.15010031,Iowa,15249.0,19145,73.2,68.2,77.5,%,Crude Prevalence,Mammography - Use - Among
Palo Alto,43.08193849,-94.67824621,Iowa,8929.0,19147,72.7,67.7,76.9,%,Crude Prevalence,Mammography - Use - Among
Plymouth,42.73716882,-96.21438768,Iowa,25095.0,19149,71.3,66.4,75.8,%,Crude Prevalence,Mammography - Use - Among
Pocahontas,42.73420133,-94.67862564,Iowa,6740.0,19151,72.5,68.1,76.8,%,Crude Prevalence,Mammography - Use - Among
Polk,41.68553392,-93.57370726,Iowa,487204.0,19153,74.2,70.2,77.7,%,Crude Prevalence,Mammography - Use - Among
Pottawattamie,41.33663618,-95.5423094,Iowa,93533.0,19155,69.8,65.2,74.3,%,Crude Prevalence,Mammography - Use - Among
Poweshiek,41.68656972,-92.53093432,Iowa,18699.0,19157,71.7,66.7,76.1,%,Crude Prevalence,Mammography - Use - Among
Ringgold,40.7351498,-94.24367465,Iowa,4968.0,19159,73.5,69.0,77.9,%,Crude Prevalence,Mammography - Use - Among
Sac,42.38625275,-95.10545149,Iowa,9719.0,19161,71.7,66.5,76.3,%,Crude Prevalence,Mammography - Use - Among
Scott,41.63679024,-90.62325526,Iowa,173283.0,19163,77.5,73.9,81.0,%,Crude Prevalence,Mammography - Use - Among
Shelby,41.6850066,-95.31015553,Iowa,11578.0,19165,73.7,69.2,77.9,%,Crude Prevalence,Mammography - Use - Among
Sioux,43.08289701,-96.17802873,Iowa,34909.0,19167,73.3,68.8,77.6,%,Crude Prevalence,Mammography - Use - Among
