LocationName,lat,lng,StateDesc,TotalPopulation,CountyFIPS,Data_Value,Low_Confidence_Limit,High_Confidence_Limit,Data_Value_Unit,Data_Value_Type,Measure_Short
Autauga,32.5350198,-86.64301145,Alabama,55601.0,01001,26.4,23.7,29.1,%,Crude Prevalence,Leisure-Time - Physical - Activity
Baldwin,30.72811673,-87.72275422,Alabama,218022.0,01003,23.5,20.7,26.2,%,Crude Prevalence,Leisure-Time - Physical - Activity
Barbour,31.86925212,-85.39330307,Alabama,24881.0,01005,36.8,34.0,39.3,%,Crude Prevalence,Leisure-Time - Physical - Activity
Bibb,32.99854412,-87.12653219,Alabama,22400.0,01007,31.2,28.8,33.6,%,Crude Prevalence,Leisure-Time - Physical - Activity
Blount,33.98070621,-86.56784586,Alabama,57840.0,01009,30.1,27.0,33.2,%,Crude Prevalence,Leisure-Time - Physical - Activity
Bullock,32.10044482,-85.71563262,Alabama,10138.0,01011,38.1,34.9,41.0,%,Crude Prevalence,Leisure-Time - Physical - Activity
Butler,31.75259734,-86.68030416,Alabama,19680.0,01013,35.6,32.7,38.2,%,Crude Prevalence,Leisure-Time - Physical - Activity
Calhoun,33.77170768,-85.82579874,Alabama,114277.0,01015,29.3,26.5,31.8,%,Crude Prevalence,Leisure-Time - Physical - Activity
Chambers,32.91401536,-85.39238495,Alabama,33615.0,01017,32.7,30.4,35.1,%,Crude Prevalence,Leisure-Time - Physical - Activity
Cherokee,34.17572884,-85.60387093,Alabama,26032.0,01019,30.9,27.7,34.0,%,Crude Prevalence,Leisure-Time - Physical - Activity
Chilton,32.84755922,-86.71886671,Alabama,44153.0,01021,33.0,30.2,36.0,%,Crude Prevalence,Leisure-Time - Physical - Activity
Choctaw,32.020526,-88.26304964,Alabama,12841.0,01023,34.0,31.4,36.6,%,Crude Prevalence,Leisure-Time - Physical - Activity
Clarke,31.67753092,-87.83050953,Alabama,23920.0,01025,35.8,32.9,38.3,%,Crude Prevalence,Leisure-Time - Physical - Activity
Clay,33.26916978,-85.86076142,Alabama,13275.0,01027,32.5,29.8,35.3,%,Crude Prevalence,Leisure-Time - Physical - Activity
Cleburne,33.67451857,-85.51894991,Alabama,14987.0,01029,30.4,27.2,33.5,%,Crude Prevalence,Leisure-Time - Physical - Activity
Coffee,31.40188396,-85.98828821,Alabama,51909.0,01031,29.8,27.1,32.5,%,Crude Prevalence,Leisure-Time - Physical - Activity
Colbert,34.70084917,-87.80480288,Alabama,54762.0,01033,29.7,26.9,32.6,%,Crude Prevalence,Leisure-Time - Physical - Activity
Conecuh,31.42928542,-86.99409002,Alabama,12277.0,01035,38.6,36.1,41.2,%,Crude Prevalence,Leisure-Time - Physical - Activity
Coosa,32.93634238,-86.24787111,Alabama,10715.0,01037,33.2,30.6,35.6,%,Crude Prevalence,Leisure-Time - Physical - Activity
Covington,31.24869317,-86.45156346,Alabama,36986.0,01039,31.4,28.3,34.3,%,Crude Prevalence,Leisure-Time - Physical - Activity
Crenshaw,31.73171737,-86.31327649,Alabama,13824.0,01041,31.7,29.1,34.7,%,Crude Prevalence,Leisure-Time - Physical - Activity
Cullman,34.13199197,-86.8671365,Alabama,83442.0,01043,30.9,27.8,34.3,%,Crude Prevalence,Leisure-Time - Physical - Activity
Dale,31.43150889,-85.61159073,Alabama,48956.0,01045,30.2,27.7,32.7,%,Crude Prevalence,Leisure-Time - Physical - Activity
Dallas,32.32602481,-87.1066303,Alabama,38310.0,01047,39.6,36.4,42.9,%,Crude Prevalence,Leisure-Time - Physical - Activity
DeKalb,34.4602025,-85.8035973,Alabama,71385.0,01049,33.5,30.5,36.5,%,Crude Prevalence,Leisure-Time - Physical - Activity
Elmore,32.59685888,-86.14875636,Alabama,81887.0,01051,27.5,24.6,30.0,%,Crude Prevalence,Leisure-Time - Physical - Activity
Escambia,31.12612281,-87.16137773,Alabama,36748.0,01053,33.9,31.5,36.2,%,Crude Prevalence,Leisure-Time - Physical - Activity
Etowah,34.04522195,-86.03539165,Alabama,102501.0,01055,31.0,28.1,33.8,%,Crude Prevalence,Leisure-Time - Physical - Activity
Fayette,33.72121137,-87.73921374,Alabama,16433.0,01057,32.6,29.7,35.8,%,Crude Prevalence,Leisure-Time - Physical - Activity
Franklin,34.44238135,-87.843283,Alabama,31363.0,01059,32.6,29.6,35.6,%,Crude Prevalence,Leisure-Time - Physical - Activity
Geneva,31.09487431,-85.83932635,Alabama,26314.0,01061,34.9,32.0,38.0,%,Crude Prevalence,Leisure-Time - Physical - Activity
Greene,32.8537694,-87.95608364,Alabama,8233.0,01063,39.3,36.0,42.4,%,Crude Prevalence,Leisure-Time - Physical - Activity
Hale,32.76294506,-87.63018079,Alabama,14726.0,01065,36.8,34.2,39.4,%,Crude Prevalence,Leisure-Time - Physical - Activity
Henry,31.5149075,-85.24183736,Alabama,17209.0,01067,30.7,28.0,33.4,%,Crude Prevalence,Leisure-Time - Physical - Activity
Houston,31.15350797,-85.30249702,Alabama,104722.0,01069,31.9,29.0,34.5,%,Crude Prevalence,Leisure-Time - Physical - Activity
Jackson,34.77967706,-85.99947453,Alabama,51736.0,01071,33.3,30.3,36.5,%,Crude Prevalence,Leisure-Time - Physical - Activity
Jefferson,33.55458811,-86.89673378,Alabama,659300.0,01073,27.5,25.2,29.9,%,Crude Prevalence,Leisure-Time - Physical - Activity
Lamar,33.77909349,-88.09715315,Alabama,13844.0,01075,31.1,28.3,34.0,%,Crude Prevalence,Leisure-Time - Physical - Activity
Lauderdale,34.90142261,-87.65453895,Alabama,92387.0,01077,27.5,24.6,30.5,%,Crude Prevalence,Leisure-Time - Physical - Activity
Lawrence,34.52187809,-87.31069915,Alabama,32957.0,01079,29.9,27.2,32.4,%,Crude Prevalence,Leisure-Time - Physical - Activity
Lee,32.60099295,-85.35534328,Alabama,163941.0,01081,26.2,23.8,28.6,%,Crude Prevalence,Leisure-Time - Physical - Activity
Limestone,34.81026419,-86.98204165,Alabama,96174.0,01083,27.6,24.9,30.7,%,Crude Prevalence,Leisure-Time - Physical - Activity
Lowndes,32.15495765,-86.65008014,Alabama,9974.0,01085,37.1,34.0,40.4,%,Crude Prevalence,Leisure-Time - Physical - Activity
Macon,32.38575719,-85.69271411,Alabama,18439.0,01087,35.4,32.0,38.7,%,Crude Prevalence,Leisure-Time - Physical - Activity
Madison,34.7629041,-86.5506924,Alabama,366519.0,01089,25.6,23.0,28.2,%,Crude Prevalence,Leisure-Time - Physical - Activity
Marengo,32.24802803,-87.78897342,Alabama,19066.0,01091,33.6,31.1,35.9,%,Crude Prevalence,Leisure-Time - Physical - Activity
Marion,34.13691691,-87.88740512,Alabama,29763.0,01093,31.5,28.0,35.0,%,Crude Prevalence,Leisure-Time - Physical - Activity
Marshall,34.36718343,-86.30608505,Alabama,96109.0,01095,31.3,28.0,34.5,%,Crude Prevalence,Leisure-Time - Physical - Activity
Mobile,30.78657016,-88.20658862,Alabama,413757.0,01097,29.2,26.6,31.7,%,Crude Prevalence,Leisure-Time - Physical - Activity
Monroe,31.57086205,-87.36533405,Alabama,21067.0,01099,37.0,34.5,39.8,%,Crude Prevalence,Leisure-Time - Physical - Activity
Montgomery,32.22034164,-86.20804808,Alabama,225763.0,01101,29.9,27.2,32.7,%,Crude Prevalence,Leisure-Time - Physical - Activity
Morgan,34.4534685,-86.85332071,Alabama,119089.0,01103,27.3,24.8,30.1,%,Crude Prevalence,Leisure-Time - Physical - Activity
Perry,32.63868928,-87.29439436,Alabama,9140.0,01105,40.8,37.7,43.9,%,Crude Prevalence,Leisure-Time - Physical - Activity
Pickens,33.28043578,-88.08874093,Alabama,19938.0,01107,34.2,31.6,36.6,%,Crude Prevalence,Leisure-Time - Physical - Activity
Pike,31.80252217,-85.94116812,Alabama,33338.0,01109,31.8,29.2,34.3,%,Crude Prevalence,Leisure-Time - Physical - Activity
Randolph,33.29367147,-85.45907232,Alabama,22725.0,01111,31.5,28.6,34.3,%,Crude Prevalence,Leisure-Time - Physical - Activity
Russell,32.28842421,-85.18445744,Alabama,57781.0,01113,32.8,30.3,35.2,%,Crude Prevalence,Leisure-Time - Physical - Activity
St. Clair,33.71565784,-86.3149495,Alabama,88690.0,01115,29.8,26.8,33.0,%,Crude Prevalence,Leisure-Time - Physical - Activity
Shelby,33.26422221,-86.66104603,Alabama,215707.0,01117,22.8,20.3,25.5,%,Crude Prevalence,Leisure-Time - Physical - Activity
Sumter,32.58923369,-88.1995063,Alabama,12691.0,01119,35.2,32.0,38.3,%,Crude Prevalence,Leisure-Time - Physical - Activity
Talladega,33.38016157,-86.16578887,Alabama,79828.0,01121,34.3,31.7,36.8,%,Crude Prevalence,Leisure-Time - Physical - Activity
Tallapoosa,32.86282332,-85.79743161,Alabama,40497.0,01123,31.1,28.3,33.9,%,Crude Prevalence,Leisure-Time - Physical - Activity
Tuscaloosa,33.28961016,-87.52507429,Alabama,208911.0,01125,26.2,23.8,28.7,%,Crude Prevalence,Leisure-Time - Physical - Activity
Walker,33.80308206,-87.29738289,Alabama,63711.0,01127,30.9,27.9,33.7,%,Crude Prevalence,Leisure-Time - Physical - Activity
Washington,31.40764298,-88.20779087,Alabama,16378.0,01129,33.2,30.7,35.6,%,Crude Prevalence,Leisure-Time - Physical - Activity
Wilcox,31.98925616,-87.30801913,Alabama,10627.0,01131,37.6,34.6,40.6,%,Crude Prevalence,Leisure-Time - Physical - Activity
Winston,34.14919919,-87.37360952,Alabama,23660.0,01133,31.4,28.2,34.6,%,Crude Prevalence,Leisure-Time - Physical - Activity
Aleutians East,55.35903757,-161.979848,Alaska,3515.0,02013,26.8,24.8,28.7,%,Crude Prevalence,Leisure-Time - Physical - Activity
Aleutians West,52.8107872,-174.181061,Alaska,5723.0,02016,24.4,22.7,26.2,%,Crude Prevalence,Leisure-Time - Physical - Activity
Anchorage,61.1504589,-149.1141071,Alaska,291538.0,02020,19.0,17.3,20.7,%,Crude Prevalence,Leisure-Time - Physical - Activity
Bethel,60.91560276,-159.8247503,Alaska,18216.0,02050,31.3,28.3,34.2,%,Crude Prevalence,Leisure-Time - Physical - Activity
Bristol Bay,58.74223433,-156.701884,Alaska,877.0,02060,20.6,19.1,22.3,%,Crude Prevalence,Leisure-Time - Physical - Activity
Denali,63.67350143,-150.0088291,Alaska,2059.0,02068,19.2,17.1,21.5,%,Crude Prevalence,Leisure-Time - Physical - Activity
Dillingham,59.79999618,-158.2125392,Alaska,5000.0,02070,26.5,24.1,28.9,%,Crude Prevalence,Leisure-Time - Physical - Activity
Fairbanks North Star,64.80852672,-146.5624138,Alaska,98971.0,02090,19.5,17.5,21.4,%,Crude Prevalence,Leisure-Time - Physical - Activity
Haines,59.11448538,-135.5007934,Alaska,2474.0,02100,18.0,16.0,20.1,%,Crude Prevalence,Leisure-Time - Physical - Activity
Hoonah-Angoon,58.18652895,-135.3290871,Alaska,2151.0,02105,22.0,20.2,23.7,%,Crude Prevalence,Leisure-Time - Physical - Activity
Juneau,58.45102839,-134.1828501,Alaska,32113.0,02110,17.7,16.0,19.4,%,Crude Prevalence,Leisure-Time - Physical - Activity
Kenai Peninsula,60.25818708,-151.5665895,Alaska,58533.0,02122,20.3,18.0,22.3,%,Crude Prevalence,Leisure-Time - Physical - Activity
Ketchikan Gateway,55.58863162,-130.9352394,Alaska,13918.0,02130,20.8,19.0,22.5,%,Crude Prevalence,Leisure-Time - Physical - Activity
Kodiak Island,57.66814491,-153.7816117,Alaska,13345.0,02150,21.4,19.8,23.1,%,Crude Prevalence,Leisure-Time - Physical - Activity
Kusilvak,62.1574671,-163.3831265,Alaska,8303.0,02158,38.5,35.5,41.5,%,Crude Prevalence,Leisure-Time - Physical - Activity
Lake and Peninsula,58.63644251,-156.1898946,Alaska,1587.0,02164,26.9,24.7,28.9,%,Crude Prevalence,Leisure-Time - Physical - Activity
Matanuska-Susitna,62.3154278,-149.5702635,Alaska,107610.0,02170,19.8,17.7,21.9,%,Crude Prevalence,Leisure-Time - Physical - Activity
Nome,64.91045824,-164.0327478,Alaska,10008.0,02180,26.7,24.6,29.1,%,Crude Prevalence,Leisure-Time - Physical - Activity
North Slope,69.3117884,-153.4445902,Alaska,9872.0,02185,23.1,21.1,24.9,%,Crude Prevalence,Leisure-Time - Physical - Activity
Northwest Arctic,67.05603596,-159.7201294,Alaska,7671.0,02188,30.0,27.6,32.5,%,Crude Prevalence,Leisure-Time - Physical - Activity
Petersburg,56.81190828,-133.2863383,Alaska,3221.0,02195,20.4,18.2,22.4,%,Crude Prevalence,Leisure-Time - Physical - Activity
Prince of Wales-Hyder,55.50495667,-132.7096152,Alaska,6422.0,02198,24.1,22.1,26.0,%,Crude Prevalence,Leisure-Time - Physical - Activity
Sitka,57.23208595,-135.3033492,Alaska,8647.0,02220,18.4,16.6,20.1,%,Crude Prevalence,Leisure-Time - Physical - Activity
Skagway,59.55833765,-135.3374592,Alaska,1148.0,02230,17.1,15.0,19.3,%,Crude Prevalence,Leisure-Time - Physical - Activity
Southeast Fairbanks,63.87758207,-143.2062598,Alaska,6918.0,02240,21.3,19.3,23.4,%,Crude Prevalence,Leisure-Time - Physical - Activity
Valdez-Cordova,61.5583398,-144.4916418,Alaska,9164.0,02261,20.9,18.9,22.9,%,Crude Prevalence,Leisure-Time - Physical - Activity
Wrangell,56.32355894,-132.0250936,Alaska,2503.0,02275,21.6,19.6,23.8,%,Crude Prevalence,Leisure-Time - Physical - Activity
Yakutat,59.8899763,-140.3569385,Alaska,604.0,02282,23.0,21.4,24.7,%,Crude Prevalence,Leisure-Time - Physical - Activity
Yukon-Koyukuk,65.50918931,-151.3907449,Alaska,5327.0,02290,28.8,26.3,31.3,%,Crude Prevalence,Leisure-Time - Physical - Activity
Apache,35.3954111,-109.48883,Arizona,71818.0,04001,28.5,25.9,30.9,%,Crude Prevalence,Leisure-Time - Physical - Activity
Cochise,31.87949959,-109.751401,Arizona,126770.0,04003,24.8,22.7,27.1,%,Crude Prevalence,Leisure-Time - Physical - Activity
Coconino,35.83863914,-111.7705891,Arizona,142854.0,04005,18.7,17.0,20.4,%,Crude Prevalence,Leisure-Time - Physical - Activity
Gila,33.80040568,-110.8132413,Arizona,53889.0,04007,26.0,23.9,28.3,%,Crude Prevalence,Leisure-Time - Physical - Activity
Graham,32.93306592,-109.8871087,Arizona,38072.0,04009,24.1,22.2,26.1,%,Crude Prevalence,Leisure-Time - Physical - Activity
Greenlee,33.21528272,-109.2401339,Arizona,9483.0,04011,23.4,21.6,25.2,%,Crude Prevalence,Leisure-Time - Physical - Activity
La Paz,33.72903482,-113.9813104,Arizona,21098.0,04012,28.9,26.8,31.1,%,Crude Prevalence,Leisure-Time - Physical - Activity
Maricopa,33.34873471,-112.4911577,Arizona,4410824.0,04013,21.3,19.3,23.4,%,Crude Prevalence,Leisure-Time - Physical - Activity
Mohave,35.70432399,-113.7582468,Arizona,209550.0,04015,26.3,23.8,28.8,%,Crude Prevalence,Leisure-Time - Physical - Activity
Navajo,35.39967567,-110.3214398,Arizona,110445.0,04017,26.0,24.1,28.0,%,Crude Prevalence,Leisure-Time - Physical - Activity
Pima,32.09739367,-111.7899304,Arizona,1039073.0,04019,21.9,19.9,24.1,%,Crude Prevalence,Leisure-Time - Physical - Activity
Pinal,32.90442817,-111.3447295,Arizona,447138.0,04021,26.3,24.1,28.5,%,Crude Prevalence,Leisure-Time - Physical - Activity
Santa Cruz,31.52596855,-110.8465934,Arizona,46511.0,04023,27.9,24.5,31.2,%,Crude Prevalence,Leisure-Time - Physical - Activity
Yavapai,34.59993679,-112.5546325,Arizona,231993.0,04025,20.5,18.2,22.7,%,Crude Prevalence,Leisure-Time - Physical - Activity
Yuma,32.76937366,-113.9054902,Arizona,212128.0,04027,26.9,24.3,29.5,%,Crude Prevalence,Leisure-Time - Physical - Activity
Arkansas,34.29096754,-91.3748863,Arkansas,17769.0,05001,35.2,32.3,38.1,%,Crude Prevalence,Leisure-Time - Physical - Activity
Ashley,33.19113397,-91.76816623,Arkansas,20046.0,05003,37.9,35.0,40.8,%,Crude Prevalence,Leisure-Time - Physical - Activity
Baxter,36.28685474,-92.33709121,Arkansas,41619.0,05005,29.4,26.3,32.5,%,Crude Prevalence,Leisure-Time - Physical - Activity
Benton,36.33868245,-94.25600736,Arkansas,272608.0,05007,26.7,23.8,29.6,%,Crude Prevalence,Leisure-Time - Physical - Activity
Boone,36.30867994,-93.09130789,Arkansas,37480.0,05009,33.0,29.6,36.4,%,Crude Prevalence,Leisure-Time - Physical - Activity
Bradley,33.46670706,-92.16175892,Arkansas,10897.0,05011,36.1,33.6,38.6,%,Crude Prevalence,Leisure-Time - Physical - Activity
Calhoun,33.5579242,-92.50254644,Arkansas,5277.0,05013,34.8,31.8,37.6,%,Crude Prevalence,Leisure-Time - Physical - Activity
Carroll,36.34098375,-93.53833197,Arkansas,28223.0,05015,32.2,29.1,35.0,%,Crude Prevalence,Leisure-Time - Physical - Activity
Chicot,33.26749203,-91.29368077,Arkansas,10438.0,05017,39.7,37.0,42.3,%,Crude Prevalence,Leisure-Time - Physical - Activity
Clark,34.05109731,-93.17677056,Arkansas,22061.0,05019,32.2,29.6,34.8,%,Crude Prevalence,Leisure-Time - Physical - Activity
Clay,36.368387,-90.41752753,Arkansas,14847.0,05021,35.7,32.2,39.2,%,Crude Prevalence,Leisure-Time - Physical - Activity
Cleburne,35.5386039,-92.02657971,Arkansas,24965.0,05023,31.9,28.5,35.4,%,Crude Prevalence,Leisure-Time - Physical - Activity
Cleveland,33.89825014,-92.18537424,Arkansas,8018.0,05025,33.4,30.1,36.5,%,Crude Prevalence,Leisure-Time - Physical - Activity
Columbia,33.21420367,-93.22734359,Arkansas,23537.0,05027,36.1,33.3,38.9,%,Crude Prevalence,Leisure-Time - Physical - Activity
Conway,35.26219672,-92.70068272,Arkansas,20891.0,05029,33.0,30.0,35.8,%,Crude Prevalence,Leisure-Time - Physical - Activity
Craighead,35.83160874,-90.63229859,Arkansas,108558.0,05031,31.0,28.0,33.9,%,Crude Prevalence,Leisure-Time - Physical - Activity
Crawford,35.58844941,-94.24297668,Arkansas,63406.0,05033,32.3,29.4,35.3,%,Crude Prevalence,Leisure-Time - Physical - Activity
Crittenden,35.20802432,-90.30893924,Arkansas,48342.0,05035,37.4,34.6,40.2,%,Crude Prevalence,Leisure-Time - Physical - Activity
Cross,35.29535703,-90.77162753,Arkansas,16676.0,05037,35.3,32.3,37.9,%,Crude Prevalence,Leisure-Time - Physical - Activity
Dallas,33.96963779,-92.65478384,Arkansas,7182.0,05039,37.1,34.4,39.7,%,Crude Prevalence,Leisure-Time - Physical - Activity
Desha,33.83364691,-91.25357726,Arkansas,11512.0,05041,39.7,37.1,42.2,%,Crude Prevalence,Leisure-Time - Physical - Activity
Drew,33.58969442,-91.71953511,Arkansas,18328.0,05043,33.5,30.9,36.3,%,Crude Prevalence,Leisure-Time - Physical - Activity
Faulkner,35.14730833,-92.33175659,Arkansas,124806.0,05045,27.2,24.3,30.0,%,Crude Prevalence,Leisure-Time - Physical - Activity
Franklin,35.51242559,-93.89070925,Arkansas,17810.0,05047,34.5,31.1,37.7,%,Crude Prevalence,Leisure-Time - Physical - Activity
Fulton,36.38184868,-91.8181331,Arkansas,12269.0,05049,35.1,31.9,38.3,%,Crude Prevalence,Leisure-Time - Physical - Activity
Garland,34.57659951,-93.15048723,Arkansas,99154.0,05051,28.7,25.9,31.6,%,Crude Prevalence,Leisure-Time - Physical - Activity
Grant,34.28984017,-92.42388914,Arkansas,18188.0,05053,29.7,26.6,32.8,%,Crude Prevalence,Leisure-Time - Physical - Activity
Greene,36.11781055,-90.5589908,Arkansas,45325.0,05055,32.4,29.3,35.7,%,Crude Prevalence,Leisure-Time - Physical - Activity
Hempstead,33.73525161,-93.66829193,Arkansas,21741.0,05057,36.1,33.5,38.7,%,Crude Prevalence,Leisure-Time - Physical - Activity
Hot Spring,34.31759618,-92.9458125,Arkansas,33701.0,05059,31.5,28.6,34.5,%,Crude Prevalence,Leisure-Time - Physical - Activity
Howard,34.08863063,-93.99348622,Arkansas,13341.0,05061,37.3,34.5,39.8,%,Crude Prevalence,Leisure-Time - Physical - Activity
Independence,35.74162443,-91.56928386,Arkansas,37678.0,05063,32.1,28.7,35.4,%,Crude Prevalence,Leisure-Time - Physical - Activity
Izard,36.09523171,-91.91321978,Arkansas,13593.0,05065,31.7,28.9,34.7,%,Crude Prevalence,Leisure-Time - Physical - Activity
Jackson,35.59855662,-91.21410789,Arkansas,16811.0,05067,36.9,33.9,39.8,%,Crude Prevalence,Leisure-Time - Physical - Activity
Jefferson,34.26873626,-91.93188484,Arkansas,68114.0,05069,35.2,32.6,37.9,%,Crude Prevalence,Leisure-Time - Physical - Activity
Johnson,35.57042442,-93.45972872,Arkansas,26742.0,05071,37.0,33.7,40.2,%,Crude Prevalence,Leisure-Time - Physical - Activity
Lafayette,33.24154014,-93.60616765,Arkansas,6682.0,05073,35.7,33.1,38.5,%,Crude Prevalence,Leisure-Time - Physical - Activity
Lawrence,36.04107822,-91.10729307,Arkansas,16434.0,05075,32.5,28.9,35.9,%,Crude Prevalence,Leisure-Time - Physical - Activity
Lee,34.78072086,-90.78263385,Arkansas,8985.0,05077,39.6,36.9,42.3,%,Crude Prevalence,Leisure-Time - Physical - Activity
Lincoln,33.95746845,-91.73312526,Arkansas,13383.0,05079,37.2,34.4,39.8,%,Crude Prevalence,Leisure-Time - Physical - Activity
Little River,33.69972301,-94.23313382,Arkansas,12326.0,05081,34.0,31.3,36.6,%,Crude Prevalence,Leisure-Time - Physical - Activity
Logan,35.21566114,-93.71636811,Arkansas,21737.0,05083,34.2,30.8,37.5,%,Crude Prevalence,Leisure-Time - Physical - Activity
Lonoke,34.75408935,-91.88869734,Arkansas,73657.0,05085,29.8,26.8,32.8,%,Crude Prevalence,Leisure-Time - Physical - Activity
Madison,36.0109104,-93.72471538,Arkansas,16481.0,05087,34.4,31.2,37.5,%,Crude Prevalence,Leisure-Time - Physical - Activity
Marion,36.2685868,-92.68427373,Arkansas,16722.0,05089,31.4,28.1,34.9,%,Crude Prevalence,Leisure-Time - Physical - Activity
Miller,33.31104739,-93.89206062,Arkansas,43592.0,05091,33.1,30.4,35.6,%,Crude Prevalence,Leisure-Time - Physical - Activity
Mississippi,35.76390932,-90.05430128,Arkansas,41239.0,05093,37.6,34.9,40.2,%,Crude Prevalence,Leisure-Time - Physical - Activity
Monroe,34.67817821,-91.20388766,Arkansas,6900.0,05095,40.0,37.3,42.5,%,Crude Prevalence,Leisure-Time - Physical - Activity
Montgomery,34.53854423,-93.65940752,Arkansas,8924.0,05097,33.8,30.6,36.9,%,Crude Prevalence,Leisure-Time - Physical - Activity
Nevada,33.66372397,-93.30711084,Arkansas,8326.0,05099,35.5,32.9,38.1,%,Crude Prevalence,Leisure-Time - Physical - Activity
Newton,35.92023827,-93.2177712,Arkansas,7805.0,05101,32.1,28.8,35.4,%,Crude Prevalence,Leisure-Time - Physical - Activity
Ouachita,33.59337489,-92.88169493,Arkansas,23606.0,05103,36.0,33.4,38.5,%,Crude Prevalence,Leisure-Time - Physical - Activity
Perry,34.94710024,-92.9314862,Arkansas,10352.0,05105,33.4,30.1,36.6,%,Crude Prevalence,Leisure-Time - Physical - Activity
Phillips,34.42859172,-90.84788141,Arkansas,18029.0,05107,38.4,35.5,41.4,%,Crude Prevalence,Leisure-Time - Physical - Activity
Pike,34.16302712,-93.65631372,Arkansas,10673.0,05109,33.3,30.2,36.4,%,Crude Prevalence,Leisure-Time - Physical - Activity
Poinsett,35.57473823,-90.66320391,Arkansas,23974.0,05111,35.5,32.2,38.7,%,Crude Prevalence,Leisure-Time - Physical - Activity
Polk,34.48593652,-94.22791298,Arkansas,20049.0,05113,35.0,31.7,38.1,%,Crude Prevalence,Leisure-Time - Physical - Activity
Pope,35.44769349,-93.03400082,Arkansas,64000.0,05115,31.1,28.0,34.1,%,Crude Prevalence,Leisure-Time - Physical - Activity
Prairie,34.82960671,-91.55264098,Arkansas,8074.0,05117,33.6,30.1,36.9,%,Crude Prevalence,Leisure-Time - Physical - Activity
Pulaski,34.76991477,-92.31181185,Arkansas,392680.0,05119,26.9,24.7,29.4,%,Crude Prevalence,Leisure-Time - Physical - Activity
Randolph,36.3414338,-91.02767458,Arkansas,17948.0,05121,35.2,31.5,38.7,%,Crude Prevalence,Leisure-Time - Physical - Activity
St. Francis,35.02173053,-90.74737815,Arkansas,25439.0,05123,38.4,35.9,41.0,%,Crude Prevalence,Leisure-Time - Physical - Activity
Saline,34.64661648,-92.67655282,Arkansas,121421.0,05125,27.5,24.5,30.4,%,Crude Prevalence,Leisure-Time - Physical - Activity
Scott,34.86065738,-94.06289549,Arkansas,10319.0,05127,37.2,34.0,40.1,%,Crude Prevalence,Leisure-Time - Physical - Activity
Searcy,35.91104278,-92.69953421,Arkansas,7958.0,05129,33.6,30.2,37.0,%,Crude Prevalence,Leisure-Time - Physical - Activity
Sebastian,35.19876858,-94.27373467,Arkansas,127753.0,05131,34.1,31.2,36.9,%,Crude Prevalence,Leisure-Time - Physical - Activity
Sevier,33.99734907,-94.24207566,Arkansas,17139.0,05133,36.9,34.1,39.4,%,Crude Prevalence,Leisure-Time - Physical - Activity
Sharp,36.16113202,-91.47983875,Arkansas,17366.0,05135,36.2,32.8,39.8,%,Crude Prevalence,Leisure-Time - Physical - Activity
Stone,35.86015356,-92.15687671,Arkansas,12457.0,05137,34.2,30.6,37.5,%,Crude Prevalence,Leisure-Time - Physical - Activity
Union,33.17138124,-92.59714252,Arkansas,39126.0,05139,34.9,32.2,37.7,%,Crude Prevalence,Leisure-Time - Physical - Activity
Van Buren,35.58056473,-92.51564197,Arkansas,16603.0,05141,32.4,29.1,35.8,%,Crude Prevalence,Leisure-Time - Physical - Activity
Washington,35.97881814,-94.21583896,Arkansas,236961.0,05143,28.8,25.8,31.8,%,Crude Prevalence,Leisure-Time - Physical - Activity
White,35.25617211,-91.74483397,Arkansas,78727.0,05145,33.0,29.7,36.4,%,Crude Prevalence,Leisure-Time - Physical - Activity
Woodruff,35.18577746,-91.24211404,Arkansas,6490.0,05147,36.3,33.5,39.2,%,Crude Prevalence,Leisure-Time - Physical - Activity
Yell,35.00279251,-93.41096826,Arkansas,21535.0,05149,36.4,33.5,39.3,%,Crude Prevalence,Leisure-Time - Physical - Activity
Alameda,37.64555147,-121.8893196,California,1666753.0,06001,18.5,16.9,20.4,%,Crude Prevalence,Leisure-Time - Physical - Activity
Alpine,38.59716187,-119.8207379,California,1101.0,06003,21.8,19.6,24.1,%,Crude Prevalence,Leisure-Time - Physical - Activity
Amador,38.44628731,-120.6497455,California,39383.0,06005,19.7,17.9,21.8,%,Crude Prevalence,Leisure-Time - Physical - Activity
Butte,39.6668772,-121.5995887,California,231256.0,06007,21.9,19.8,24.2,%,Crude Prevalence,Leisure-Time - Physical - Activity
Calaveras,38.20431662,-120.55399,California,45602.0,06009,19.1,17.3,21.3,%,Crude Prevalence,Leisure-Time - Physical - Activity
Colusa,39.17712713,-122.237555,California,21627.0,06011,25.9,23.5,28.4,%,Crude Prevalence,Leisure-Time - Physical - Activity
Contra Costa,37.91916061,-121.927827,California,1150215.0,06013,17.9,16.1,19.6,%,Crude Prevalence,Leisure-Time - Physical - Activity
Del Norte,41.74313957,-123.8987443,California,27828.0,06015,24.8,22.7,26.9,%,Crude Prevalence,Leisure-Time - Physical - Activity
El Dorado,38.77927687,-120.525118,California,190678.0,06017,18.0,15.9,20.1,%,Crude Prevalence,Leisure-Time - Physical - Activity
Fresno,36.75819212,-119.6510577,California,994400.0,06019,28.4,25.9,30.7,%,Crude Prevalence,Leisure-Time - Physical - Activity
Glenn,39.59823808,-122.3909024,California,28047.0,06021,25.1,22.9,27.3,%,Crude Prevalence,Leisure-Time - Physical - Activity
Humboldt,40.69920799,-123.87575,California,136373.0,06023,19.9,17.8,22.1,%,Crude Prevalence,Leisure-Time - Physical - Activity
Imperial,33.039537,-115.3652644,California,181827.0,06025,30.4,27.1,33.7,%,Crude Prevalence,Leisure-Time - Physical - Activity
Inyo,36.51151321,-117.4115268,California,17987.0,06027,20.2,18.4,22.2,%,Crude Prevalence,Leisure-Time - Physical - Activity
Kern,35.34295136,-118.730066,California,896764.0,06029,29.4,27.0,31.8,%,Crude Prevalence,Leisure-Time - Physical - Activity
Kings,36.07536089,-119.8154673,California,151366.0,06031,26.3,24.2,28.4,%,Crude Prevalence,Leisure-Time - Physical - Activity
Lake,39.09956568,-122.7541069,California,64382.0,06033,23.2,21.1,25.4,%,Crude Prevalence,Leisure-Time - Physical - Activity
Lassen,40.67344398,-120.5943294,California,30802.0,06035,23.6,21.6,25.7,%,Crude Prevalence,Leisure-Time - Physical - Activity
Los Angeles,34.32114132,-118.2246916,California,10105518.0,06037,22.3,20.3,24.6,%,Crude Prevalence,Leisure-Time - Physical - Activity
Madera,37.2182163,-119.7627487,California,157672.0,06039,28.1,25.7,30.5,%,Crude Prevalence,Leisure-Time - Physical - Activity
Marin,38.07388193,-122.7238042,California,259666.0,06041,14.6,12.9,16.6,%,Crude Prevalence,Leisure-Time - Physical - Activity
Mariposa,37.57736279,-119.9110034,California,17471.0,06043,19.5,17.5,21.5,%,Crude Prevalence,Leisure-Time - Physical - Activity
Mendocino,39.44035366,-123.3914133,California,87606.0,06045,21.4,19.4,23.5,%,Crude Prevalence,Leisure-Time - Physical - Activity
Merced,37.19191313,-120.7175557,California,274765.0,06047,29.8,27.3,32.3,%,Crude Prevalence,Leisure-Time - Physical - Activity
Modoc,41.58974607,-120.724791,California,8777.0,06049,23.4,21.1,25.6,%,Crude Prevalence,Leisure-Time - Physical - Activity
Mono,37.93923386,-118.8875478,California,14250.0,06051,18.6,16.6,20.7,%,Crude Prevalence,Leisure-Time - Physical - Activity
Monterey,36.21636989,-121.2393212,California,435594.0,06053,25.1,22.6,27.7,%,Crude Prevalence,Leisure-Time - Physical - Activity
Napa,38.50726702,-122.3314634,California,139417.0,06055,19.1,17.1,21.1,%,Crude Prevalence,Leisure-Time - Physical - Activity
Nevada,39.30115247,-120.7686055,California,99696.0,06057,16.4,14.4,18.7,%,Crude Prevalence,Leisure-Time - Physical - Activity
Orange,33.70297627,-117.7607477,California,3185968.0,06059,18.7,16.9,20.6,%,Crude Prevalence,Leisure-Time - Physical - Activity
Placer,39.06343593,-120.7171226,California,393149.0,06061,15.6,14.0,17.5,%,Crude Prevalence,Leisure-Time - Physical - Activity
Plumas,40.00402792,-120.8376469,California,18804.0,06063,18.4,16.3,20.4,%,Crude Prevalence,Leisure-Time - Physical - Activity
Riverside,33.74363564,-115.9938549,California,2450758.0,06065,22.7,20.6,24.6,%,Crude Prevalence,Leisure-Time - Physical - Activity
Sacramento,38.44874079,-121.3448359,California,1540975.0,06067,22.4,20.6,24.2,%,Crude Prevalence,Leisure-Time - Physical - Activity
San Benito,36.60399254,-121.0755542,California,61537.0,06069,22.7,20.5,24.9,%,Crude Prevalence,Leisure-Time - Physical - Activity
San Bernardino,34.84178102,-116.1786779,California,2171603.0,06071,25.8,23.5,27.7,%,Crude Prevalence,Leisure-Time - Physical - Activity
San Diego,33.03401356,-116.7353793,California,3343364.0,06073,19.5,17.6,21.3,%,Crude Prevalence,Leisure-Time - Physical - Activity
San Francisco,37.75999356,-122.4393922,California,883305.0,06075,17.7,15.9,19.7,%,Crude Prevalence,Leisure-Time - Physical - Activity
San Joaquin,37.93484195,-121.2718065,California,752660.0,06077,27.0,25.0,29.0,%,Crude Prevalence,Leisure-Time - Physical - Activity
San Luis Obispo,35.38726285,-120.4048434,California,284010.0,06079,17.7,15.9,19.6,%,Crude Prevalence,Leisure-Time - Physical - Activity
San Mateo,37.42322968,-122.3273639,California,769545.0,06081,17.1,15.4,18.9,%,Crude Prevalence,Leisure-Time - Physical - Activity
Santa Barbara,34.67363399,-120.0166318,California,446527.0,06083,20.5,18.4,22.7,%,Crude Prevalence,Leisure-Time - Physical - Activity
Santa Clara,37.23263642,-121.6961445,California,1937570.0,06085,17.8,16.0,19.8,%,Crude Prevalence,Leisure-Time - Physical - Activity
Santa Cruz,37.05611958,-122.0010073,California,274255.0,06087,18.4,16.5,20.5,%,Crude Prevalence,Leisure-Time - Physical - Activity
Shasta,40.7636356,-122.0392223,California,180040.0,06089,19.4,17.5,21.5,%,Crude Prevalence,Leisure-Time - Physical - Activity
Sierra,39.58014381,-120.5160862,California,2987.0,06091,19.8,17.9,21.8,%,Crude Prevalence,Leisure-Time - Physical - Activity
Siskiyou,41.59425182,-122.5390516,California,43724.0,06093,21.5,19.3,23.9,%,Crude Prevalence,Leisure-Time - Physical - Activity
Solano,38.27061842,-121.9320733,California,446610.0,06095,21.5,19.9,23.1,%,Crude Prevalence,Leisure-Time - Physical - Activity
Sonoma,38.52854399,-122.8876375,California,499942.0,06097,18.9,16.9,20.9,%,Crude Prevalence,Leisure-Time - Physical - Activity
Stanislaus,37.55913651,-120.997954,California,549815.0,06099,24.5,22.4,26.6,%,Crude Prevalence,Leisure-Time - Physical - Activity
Sutter,39.03443385,-121.6945535,California,96807.0,06101,26.1,24.0,28.0,%,Crude Prevalence,Leisure-Time - Physical - Activity
Tehama,40.12516798,-122.2337288,California,63916.0,06103,23.9,21.8,26.1,%,Crude Prevalence,Leisure-Time - Physical - Activity
Trinity,40.64977624,-123.1157771,California,12535.0,06105,22.3,19.8,24.5,%,Crude Prevalence,Leisure-Time - Physical - Activity
Tulare,36.22061355,-118.8012238,California,465861.0,06107,29.6,26.9,32.3,%,Crude Prevalence,Leisure-Time - Physical - Activity
Tuolumne,38.02628123,-119.9524446,California,54539.0,06109,19.8,17.8,21.7,%,Crude Prevalence,Leisure-Time - Physical - Activity
Ventura,34.45676389,-119.0835707,California,850967.0,06111,21.5,19.3,23.8,%,Crude Prevalence,Leisure-Time - Physical - Activity
Yolo,38.68651609,-121.9018521,California,220408.0,06113,21.3,19.4,23.4,%,Crude Prevalence,Leisure-Time - Physical - Activity
Yuba,39.26964082,-121.3505415,California,78041.0,06115,23.5,21.5,25.5,%,Crude Prevalence,Leisure-Time - Physical - Activity
Adams,39.87402122,-104.3380626,Colorado,511868.0,08001,22.0,20.1,24.2,%,Crude Prevalence,Leisure-Time - Physical - Activity
Alamosa,37.57262092,-105.7883819,Colorado,16683.0,08003,22.7,20.7,24.9,%,Crude Prevalence,Leisure-Time - Physical - Activity
Arapahoe,39.65033573,-104.3370084,Colorado,651215.0,08005,17.4,15.6,19.2,%,Crude Prevalence,Leisure-Time - Physical - Activity
Archuleta,37.19365584,-107.0481757,Colorado,13765.0,08007,15.4,13.5,17.3,%,Crude Prevalence,Leisure-Time - Physical - Activity
Baca,37.31928731,-102.5601285,Colorado,3585.0,08009,20.3,17.9,22.7,%,Crude Prevalence,Leisure-Time - Physical - Activity
Bent,37.9550485,-103.0720329,Colorado,5882.0,08011,23.7,21.8,25.6,%,Crude Prevalence,Leisure-Time - Physical - Activity
Boulder,40.09251514,-105.3580726,Colorado,326078.0,08013,12.4,10.7,14.2,%,Crude Prevalence,Leisure-Time - Physical - Activity
Broomfield,39.95460762,-105.0530144,Colorado,69267.0,08014,12.4,10.9,14.1,%,Crude Prevalence,Leisure-Time - Physical - Activity
Chaffee,38.74850892,-106.1933346,Colorado,20027.0,08015,16.0,14.0,18.2,%,Crude Prevalence,Leisure-Time - Physical - Activity
Cheyenne,38.82780819,-102.6036384,Colorado,1876.0,08017,18.3,16.3,20.3,%,Crude Prevalence,Leisure-Time - Physical - Activity
Clear Creek,39.68900806,-105.6448509,Colorado,9605.0,08019,13.7,11.8,15.8,%,Crude Prevalence,Leisure-Time - Physical - Activity
Conejos,37.20064187,-106.1913793,Colorado,8200.0,08021,23.8,21.8,25.9,%,Crude Prevalence,Leisure-Time - Physical - Activity
Costilla,37.27777759,-105.4282108,Colorado,3828.0,08023,27.4,24.5,30.2,%,Crude Prevalence,Leisure-Time - Physical - Activity
Crowley,38.32649889,-103.7843752,Colorado,5858.0,08025,24.3,22.4,26.3,%,Crude Prevalence,Leisure-Time - Physical - Activity
Custer,38.10865771,-105.3669993,Colorado,4954.0,08027,16.1,14.0,18.5,%,Crude Prevalence,Leisure-Time - Physical - Activity
Delta,38.86152219,-107.8629832,Colorado,30953.0,08029,19.7,17.5,21.8,%,Crude Prevalence,Leisure-Time - Physical - Activity
Denver,39.76029518,-104.876586,Colorado,716492.0,08031,17.7,15.8,19.6,%,Crude Prevalence,Leisure-Time - Physical - Activity
Dolores,37.75186746,-108.5172417,Colorado,2074.0,08033,18.0,15.9,20.2,%,Crude Prevalence,Leisure-Time - Physical - Activity
Douglas,39.32963177,-104.9287982,Colorado,342776.0,08035,10.0,8.7,11.5,%,Crude Prevalence,Leisure-Time - Physical - Activity
Eagle,39.62796763,-106.6952462,Colorado,54993.0,08037,14.5,12.5,16.5,%,Crude Prevalence,Leisure-Time - Physical - Activity
Elbert,39.28676208,-104.1357093,Colorado,26282.0,08039,14.4,12.5,16.5,%,Crude Prevalence,Leisure-Time - Physical - Activity
El Paso,38.83236112,-104.5254283,Colorado,713856.0,08041,16.3,14.5,18.2,%,Crude Prevalence,Leisure-Time - Physical - Activity
Fremont,38.47308193,-105.4397863,Colorado,48021.0,08043,19.9,17.8,21.8,%,Crude Prevalence,Leisure-Time - Physical - Activity
Garfield,39.59926674,-107.903937,Colorado,59770.0,08045,17.6,15.5,19.8,%,Crude Prevalence,Leisure-Time - Physical - Activity
Gilpin,39.85718515,-105.5224457,Colorado,6121.0,08047,13.4,11.6,15.3,%,Crude Prevalence,Leisure-Time - Physical - Activity
Grand,40.10265772,-106.1174119,Colorado,15525.0,08049,15.8,13.7,18.1,%,Crude Prevalence,Leisure-Time - Physical - Activity
Gunnison,38.66682101,-107.0321897,Colorado,17246.0,08051,14.1,12.1,16.2,%,Crude Prevalence,Leisure-Time - Physical - Activity
Hinsdale,37.82198642,-107.3002736,Colorado,811.0,08053,15.3,13.0,17.5,%,Crude Prevalence,Leisure-Time - Physical - Activity
Huerfano,37.68494013,-104.9606298,Colorado,6889.0,08055,20.2,18.3,22.0,%,Crude Prevalence,Leisure-Time - Physical - Activity
Jackson,40.66601351,-106.3429878,Colorado,1399.0,08057,18.7,16.5,21.0,%,Crude Prevalence,Leisure-Time - Physical - Activity
Jefferson,39.58587063,-105.2503251,Colorado,580233.0,08059,14.1,12.2,15.9,%,Crude Prevalence,Leisure-Time - Physical - Activity
Kiowa,38.43289762,-102.7405008,Colorado,1383.0,08061,18.7,16.6,20.9,%,Crude Prevalence,Leisure-Time - Physical - Activity
Kit Carson,39.30507096,-102.60233,Colorado,7163.0,08063,19.4,17.5,21.5,%,Crude Prevalence,Leisure-Time - Physical - Activity
Lake,39.20191528,-106.3448349,Colorado,7824.0,08065,19.7,17.6,22.0,%,Crude Prevalence,Leisure-Time - Physical - Activity
La Plata,37.28668213,-107.8432983,Colorado,56310.0,08067,14.3,12.6,16.3,%,Crude Prevalence,Leisure-Time - Physical - Activity
Larimer,40.66652488,-105.4614279,Colorado,350518.0,08069,12.7,11.0,14.5,%,Crude Prevalence,Leisure-Time - Physical - Activity
Las Animas,37.31576816,-104.0386566,Colorado,14503.0,08071,21.0,19.1,22.8,%,Crude Prevalence,Leisure-Time - Physical - Activity
Lincoln,38.98816975,-103.5138977,Colorado,5610.0,08073,20.2,18.4,22.1,%,Crude Prevalence,Leisure-Time - Physical - Activity
Logan,40.72485403,-103.1100371,Colorado,21528.0,08075,19.0,17.0,20.9,%,Crude Prevalence,Leisure-Time - Physical - Activity
Mesa,39.0181822,-108.4669015,Colorado,153207.0,08077,17.7,15.6,19.9,%,Crude Prevalence,Leisure-Time - Physical - Activity
Mineral,37.66845124,-106.924145,Colorado,776.0,08079,14.2,12.3,16.0,%,Crude Prevalence,Leisure-Time - Physical - Activity
Moffat,40.61836452,-108.207536,Colorado,13188.0,08081,19.0,17.0,21.1,%,Crude Prevalence,Leisure-Time - Physical - Activity
Montezuma,37.33855367,-108.5966504,Colorado,26158.0,08083,19.1,17.0,21.0,%,Crude Prevalence,Leisure-Time - Physical - Activity
Montrose,38.40236635,-108.2688964,Colorado,42214.0,08085,19.1,17.0,21.1,%,Crude Prevalence,Leisure-Time - Physical - Activity
Morgan,40.26277543,-103.8097244,Colorado,28558.0,08087,21.8,19.8,23.7,%,Crude Prevalence,Leisure-Time - Physical - Activity
Otero,37.9024143,-103.7167076,Colorado,18432.0,08089,23.6,21.6,25.8,%,Crude Prevalence,Leisure-Time - Physical - Activity
Ouray,38.15530071,-107.7692209,Colorado,4833.0,08091,13.5,11.7,15.6,%,Crude Prevalence,Leisure-Time - Physical - Activity
Park,39.11978797,-105.7164996,Colorado,18556.0,08093,14.7,12.9,16.5,%,Crude Prevalence,Leisure-Time - Physical - Activity
Phillips,40.59394842,-102.3573987,Colorado,4286.0,08095,18.0,15.9,20.1,%,Crude Prevalence,Leisure-Time - Physical - Activity
Pitkin,39.21744595,-106.9159741,Colorado,17950.0,08097,12.1,10.3,14.3,%,Crude Prevalence,Leisure-Time - Physical - Activity
Prowers,37.95518014,-102.3933004,Colorado,12164.0,08099,21.4,19.2,23.4,%,Crude Prevalence,Leisure-Time - Physical - Activity
Pueblo,38.17380845,-104.5126955,Colorado,167529.0,08101,22.8,20.7,24.8,%,Crude Prevalence,Leisure-Time - Physical - Activity
Rio Blanco,39.9797518,-108.2171135,Colorado,6336.0,08103,18.0,16.0,20.1,%,Crude Prevalence,Leisure-Time - Physical - Activity
Rio Grande,37.58223399,-106.3829212,Colorado,11250.0,08105,21.7,19.4,23.8,%,Crude Prevalence,Leisure-Time - Physical - Activity
Routt,40.48551867,-106.9912275,Colorado,25733.0,08107,13.6,11.6,15.8,%,Crude Prevalence,Leisure-Time - Physical - Activity
Saguache,38.08046529,-106.2811212,Colorado,6843.0,08109,22.8,20.5,25.2,%,Crude Prevalence,Leisure-Time - Physical - Activity
San Juan,37.76425547,-107.6756734,Colorado,762.0,08111,15.9,13.8,18.0,%,Crude Prevalence,Leisure-Time - Physical - Activity
San Miguel,38.00401543,-108.4059271,Colorado,8191.0,08113,13.1,11.3,15.3,%,Crude Prevalence,Leisure-Time - Physical - Activity
Sedgwick,40.87598057,-102.3519638,Colorado,2303.0,08115,19.2,16.9,21.3,%,Crude Prevalence,Leisure-Time - Physical - Activity
Summit,39.6342148,-106.1163196,Colorado,31007.0,08117,13.8,11.8,15.9,%,Crude Prevalence,Leisure-Time - Physical - Activity
Teller,38.88227988,-105.1617042,Colorado,25083.0,08119,15.4,13.4,17.4,%,Crude Prevalence,Leisure-Time - Physical - Activity
Washington,39.97112969,-103.2014136,Colorado,4909.0,08121,18.4,16.6,20.3,%,Crude Prevalence,Leisure-Time - Physical - Activity
Weld,40.55493613,-104.3928271,Colorado,314305.0,08123,20.3,18.1,22.5,%,Crude Prevalence,Leisure-Time - Physical - Activity
Yuma,40.00284508,-102.4246098,Colorado,10020.0,08125,19.3,17.2,21.6,%,Crude Prevalence,Leisure-Time - Physical - Activity
Fairfield,41.27166724,-73.38942182,Connecticut,943823.0,09001,20.4,18.1,22.6,%,Crude Prevalence,Leisure-Time - Physical - Activity
Hartford,41.80653444,-72.73276698,Connecticut,892697.0,09003,20.8,18.6,22.8,%,Crude Prevalence,Leisure-Time - Physical - Activity
Litchfield,41.79234069,-73.24529195,Connecticut,181111.0,09005,18.9,16.6,21.4,%,Crude Prevalence,Leisure-Time - Physical - Activity
Middlesex,41.46333347,-72.53513114,Connecticut,162682.0,09007,17.8,15.5,20.0,%,Crude Prevalence,Leisure-Time - Physical - Activity
New Haven,41.41052748,-72.93263656,Connecticut,857620.0,09009,23.3,21.0,25.5,%,Crude Prevalence,Leisure-Time - Physical - Activity
New London,41.48674009,-72.10184166,Connecticut,266784.0,09011,20.7,18.6,23.0,%,Crude Prevalence,Leisure-Time - Physical - Activity
Tolland,41.8545849,-72.33645479,Connecticut,150921.0,09013,17.7,15.7,19.9,%,Crude Prevalence,Leisure-Time - Physical - Activity
Windham,41.82994523,-71.98753068,Connecticut,117027.0,09015,24.2,21.7,26.8,%,Crude Prevalence,Leisure-Time - Physical - Activity
Kent,39.08669553,-75.56840742,Delaware,178550.0,10001,30.0,27.5,32.3,%,Crude Prevalence,Leisure-Time - Physical - Activity
New Castle,39.58183211,-75.64792264,Delaware,559335.0,10003,25.4,23.1,27.6,%,Crude Prevalence,Leisure-Time - Physical - Activity
Sussex,38.66089894,-75.38998541,Delaware,229286.0,10005,28.7,25.8,31.3,%,Crude Prevalence,Leisure-Time - Physical - Activity
District of Columbia,38.90472697,-77.01629978,District of Columbia,702455.0,11001,18.9,16.9,21.0,%,Crude Prevalence,Leisure-Time - Physical - Activity
Alachua,29.67494731,-82.35809321,Florida,269956.0,12001,24.6,22.4,27.0,%,Crude Prevalence,Leisure-Time - Physical - Activity
Baker,30.3312026,-82.28474734,Florida,28355.0,12003,27.9,25.3,30.3,%,Crude Prevalence,Leisure-Time - Physical - Activity
Bay,30.26524085,-85.62018844,Florida,185287.0,12005,27.8,25.3,30.4,%,Crude Prevalence,Leisure-Time - Physical - Activity
Bradford,29.94988611,-82.16842536,Florida,27732.0,12007,34.3,31.7,37.0,%,Crude Prevalence,Leisure-Time - Physical - Activity
Brevard,28.29322516,-80.73215381,Florida,596849.0,12009,25.0,22.5,27.3,%,Crude Prevalence,Leisure-Time - Physical - Activity
Broward,26.15211451,-80.48727073,Florida,1951260.0,12011,25.1,23.1,27.0,%,Crude Prevalence,Leisure-Time - Physical - Activity
Calhoun,30.40605417,-85.19663919,Florida,14587.0,12013,37.2,34.5,40.0,%,Crude Prevalence,Leisure-Time - Physical - Activity
Charlotte,26.9058863,-81.9117906,Florida,184998.0,12015,24.5,21.9,27.0,%,Crude Prevalence,Leisure-Time - Physical - Activity
Citrus,28.84866146,-82.47820833,Florida,147929.0,12017,30.1,27.0,33.2,%,Crude Prevalence,Leisure-Time - Physical - Activity
Clay,29.98303767,-81.85788984,Florida,216072.0,12019,27.7,25.2,30.1,%,Crude Prevalence,Leisure-Time - Physical - Activity
Collier,26.1170245,-81.34467832,Florida,378488.0,12021,23.6,21.1,26.0,%,Crude Prevalence,Leisure-Time - Physical - Activity
Columbia,30.22447896,-82.62181545,Florida,70503.0,12023,32.2,29.6,34.8,%,Crude Prevalence,Leisure-Time - Physical - Activity
DeSoto,27.1865581,-81.80934054,Florida,37489.0,12027,35.8,33.3,38.1,%,Crude Prevalence,Leisure-Time - Physical - Activity
Dixie,29.60801957,-83.15869392,Florida,16700.0,12029,33.5,30.7,36.2,%,Crude Prevalence,Leisure-Time - Physical - Activity
Duval,30.33209992,-81.6706332,Florida,950181.0,12031,27.6,25.4,29.9,%,Crude Prevalence,Leisure-Time - Physical - Activity
Escambia,30.66788784,-87.36427494,Florida,315534.0,12033,25.9,23.6,28.2,%,Crude Prevalence,Leisure-Time - Physical - Activity
Flagler,29.46168424,-81.31348156,Florida,112067.0,12035,24.8,22.5,27.2,%,Crude Prevalence,Leisure-Time - Physical - Activity
Franklin,29.8752004,-84.80774397,Florida,11736.0,12037,29.2,26.4,32.1,%,Crude Prevalence,Leisure-Time - Physical - Activity
Gadsden,30.57964751,-84.61392478,Florida,45894.0,12039,34.7,32.1,37.4,%,Crude Prevalence,Leisure-Time - Physical - Activity
Gilchrist,29.72556885,-82.80066665,Florida,18256.0,12041,30.4,27.1,33.5,%,Crude Prevalence,Leisure-Time - Physical - Activity
Glades,26.95659579,-81.18898528,Florida,13724.0,12043,33.7,31.6,35.9,%,Crude Prevalence,Leisure-Time - Physical - Activity
Gulf,29.9540337,-85.22351197,Florida,16164.0,12045,25.9,23.4,28.5,%,Crude Prevalence,Leisure-Time - Physical - Activity
Hamilton,30.49625814,-82.94811131,Florida,14310.0,12047,31.7,29.4,33.9,%,Crude Prevalence,Leisure-Time - Physical - Activity
Hardee,27.49284808,-81.80987667,Florida,27245.0,12049,37.7,35.2,40.2,%,Crude Prevalence,Leisure-Time - Physical - Activity
Hendry,26.55354881,-81.16530531,Florida,41556.0,12051,37.5,35.0,40.0,%,Crude Prevalence,Leisure-Time - Physical - Activity
Hernando,28.55409758,-82.42570675,Florida,190865.0,12053,27.5,24.9,29.9,%,Crude Prevalence,Leisure-Time - Physical - Activity
Highlands,27.34286958,-81.34096496,Florida,105424.0,12055,30.6,28.2,32.9,%,Crude Prevalence,Leisure-Time - Physical - Activity
Hillsborough,27.92970662,-82.30922863,Florida,1436888.0,12057,26.7,24.7,28.9,%,Crude Prevalence,Leisure-Time - Physical - Activity
Holmes,30.86788611,-85.81399621,Florida,19477.0,12059,33.2,30.1,36.1,%,Crude Prevalence,Leisure-Time - Physical - Activity
Indian River,27.69411658,-80.60621042,Florida,157413.0,12061,25.1,22.6,27.8,%,Crude Prevalence,Leisure-Time - Physical - Activity
Jackson,30.79544821,-85.21553453,Florida,48305.0,12063,33.6,31.0,36.2,%,Crude Prevalence,Leisure-Time - Physical - Activity
Jefferson,30.43745722,-83.89499655,Florida,14288.0,12065,25.8,23.5,27.9,%,Crude Prevalence,Leisure-Time - Physical - Activity
Lafayette,29.98573094,-83.18182453,Florida,8732.0,12067,32.6,29.6,35.3,%,Crude Prevalence,Leisure-Time - Physical - Activity
Lake,28.76124449,-81.71150817,Florida,356495.0,12069,24.7,22.4,26.9,%,Crude Prevalence,Leisure-Time - Physical - Activity
Lee,26.57745177,-81.83497865,Florida,754610.0,12071,25.9,23.4,28.3,%,Crude Prevalence,Leisure-Time - Physical - Activity
Leon,30.45809639,-84.27803622,Florida,292502.0,12073,22.5,20.5,24.7,%,Crude Prevalence,Leisure-Time - Physical - Activity
Levy,29.31923477,-82.74244699,Florida,40770.0,12075,31.6,29.0,34.4,%,Crude Prevalence,Leisure-Time - Physical - Activity
Liberty,30.24124181,-84.88270861,Florida,8457.0,12077,34.7,32.2,37.4,%,Crude Prevalence,Leisure-Time - Physical - Activity
Madison,30.4443914,-83.46982282,Florida,18529.0,12079,35.2,32.8,37.7,%,Crude Prevalence,Leisure-Time - Physical - Activity
Manatee,27.47186118,-82.31549584,Florida,394855.0,12081,24.9,22.4,27.3,%,Crude Prevalence,Leisure-Time - Physical - Activity
Marion,29.21016091,-82.05673787,Florida,359977.0,12083,28.8,26.5,31.1,%,Crude Prevalence,Leisure-Time - Physical - Activity
Martin,27.07763224,-80.43125893,Florida,160912.0,12085,22.5,20.1,25.2,%,Crude Prevalence,Leisure-Time - Physical - Activity
Miami-Dade,25.61427046,-80.56142803,Florida,2761581.0,12086,30.1,27.1,33.2,%,Crude Prevalence,Leisure-Time - Physical - Activity
Monroe,25.36600458,-81.06771247,Florida,75027.0,12087,24.6,22.2,27.0,%,Crude Prevalence,Leisure-Time - Physical - Activity
Nassau,30.6106208,-81.80198035,Florida,85832.0,12089,23.4,20.7,26.1,%,Crude Prevalence,Leisure-Time - Physical - Activity
Okaloosa,30.69085706,-86.59169942,Florida,207269.0,12091,26.1,23.6,28.8,%,Crude Prevalence,Leisure-Time - Physical - Activity
Okeechobee,27.38669569,-80.88881798,Florida,41537.0,12093,34.9,32.5,37.3,%,Crude Prevalence,Leisure-Time - Physical - Activity
Orange,28.51418401,-81.32288958,Florida,1380645.0,12095,26.3,24.3,28.4,%,Crude Prevalence,Leisure-Time - Physical - Activity
Osceola,28.06260996,-81.14956272,Florida,367990.0,12097,30.3,27.9,32.7,%,Crude Prevalence,Leisure-Time - Physical - Activity
Palm Beach,26.64769528,-80.46525488,Florida,1485941.0,12099,26.7,24.4,29.0,%,Crude Prevalence,Leisure-Time - Physical - Activity
Pasco,28.30950733,-82.39262762,Florida,539630.0,12101,27.8,25.3,30.5,%,Crude Prevalence,Leisure-Time - Physical - Activity
Pinellas,27.9201576,-82.72165973,Florida,975280.0,12103,23.6,21.3,26.0,%,Crude Prevalence,Leisure-Time - Physical - Activity
Polk,27.94877779,-81.69731123,Florida,708009.0,12105,29.0,26.7,31.3,%,Crude Prevalence,Leisure-Time - Physical - Activity
Putnam,29.60861786,-81.74426877,Florida,74163.0,12107,34.6,31.7,37.2,%,Crude Prevalence,Leisure-Time - Physical - Activity
St. Johns,29.90163206,-81.44052295,Florida,254261.0,12109,20.7,18.3,23.4,%,Crude Prevalence,Leisure-Time - Physical - Activity
St. Lucie,27.37755371,-80.47093128,Florida,321128.0,12111,27.9,25.8,30.2,%,Crude Prevalence,Leisure-Time - Physical - Activity
Santa Rosa,30.70044866,-87.02094806,Florida,179349.0,12113,25.2,22.7,28.0,%,Crude Prevalence,Leisure-Time - Physical - Activity
Sarasota,27.18438631,-82.33145633,Florida,426718.0,12115,21.1,18.8,23.8,%,Crude Prevalence,Leisure-Time - Physical - Activity
Seminole,28.71737531,-81.23554604,Florida,467832.0,12117,23.9,21.9,26.2,%,Crude Prevalence,Leisure-Time - Physical - Activity
Sumter,28.70547136,-82.08154799,Florida,128754.0,12119,21.8,19.6,24.1,%,Crude Prevalence,Leisure-Time - Physical - Activity
Suwannee,30.19467162,-82.9910983,Florida,44191.0,12121,30.9,28.2,33.4,%,Crude Prevalence,Leisure-Time - Physical - Activity
Taylor,30.04708495,-83.60298751,Florida,21623.0,12123,33.2,30.8,35.5,%,Crude Prevalence,Leisure-Time - Physical - Activity
Union,30.04409779,-82.37190745,Florida,14940.0,12125,33.8,31.1,36.4,%,Crude Prevalence,Leisure-Time - Physical - Activity
Volusia,29.05881989,-81.18199975,Florida,547538.0,12127,25.8,23.3,28.0,%,Crude Prevalence,Leisure-Time - Physical - Activity
Wakulla,30.16737643,-84.40048848,Florida,32461.0,12129,25.9,23.4,28.4,%,Crude Prevalence,Leisure-Time - Physical - Activity
Walton,30.64344211,-86.16975224,Florida,71375.0,12131,25.8,23.1,28.6,%,Crude Prevalence,Leisure-Time - Physical - Activity
Washington,30.61072043,-85.66537437,Florida,24880.0,12133,32.7,30.1,35.5,%,Crude Prevalence,Leisure-Time - Physical - Activity
Appling,31.74894487,-82.28939513,Georgia,18507.0,13001,33.3,30.7,36.0,%,Crude Prevalence,Leisure-Time - Physical - Activity
Atkinson,31.29719202,-82.88029248,Georgia,8297.0,13003,35.4,33.0,37.7,%,Crude Prevalence,Leisure-Time - Physical - Activity
Bacon,31.55344199,-82.45254076,Georgia,11185.0,13005,33.4,30.8,35.9,%,Crude Prevalence,Leisure-Time - Physical - Activity
Baker,31.3263615,-84.44394261,Georgia,3092.0,13007,31.0,28.7,33.3,%,Crude Prevalence,Leisure-Time - Physical - Activity
Baldwin,33.06922942,-83.25048524,Georgia,44823.0,13009,29.7,27.3,32.3,%,Crude Prevalence,Leisure-Time - Physical - Activity
Banks,34.3536866,-83.49742613,Georgia,18988.0,13011,29.2,26.4,31.9,%,Crude Prevalence,Leisure-Time - Physical - Activity
Barrow,33.99304503,-83.71351145,Georgia,80809.0,13013,26.6,24.2,29.1,%,Crude Prevalence,Leisure-Time - Physical - Activity
Bartow,34.23777244,-84.84062451,Georgia,106408.0,13015,27.1,24.4,29.6,%,Crude Prevalence,Leisure-Time - Physical - Activity
Ben Hill,31.75971358,-83.22013115,Georgia,16787.0,13017,33.5,31.1,35.7,%,Crude Prevalence,Leisure-Time - Physical - Activity
Berrien,31.27582028,-83.22986267,Georgia,19252.0,13019,31.6,28.5,34.6,%,Crude Prevalence,Leisure-Time - Physical - Activity
Bibb,32.80641586,-83.6976276,Georgia,153095.0,13021,31.3,28.5,34.1,%,Crude Prevalence,Leisure-Time - Physical - Activity
Bleckley,32.43439209,-83.32807354,Georgia,12838.0,13023,28.9,26.5,31.5,%,Crude Prevalence,Leisure-Time - Physical - Activity
Brantley,31.19704641,-81.98144479,Georgia,18897.0,13025,32.1,29.0,35.1,%,Crude Prevalence,Leisure-Time - Physical - Activity
Brooks,30.84217815,-83.58055565,Georgia,15513.0,13027,30.8,28.6,33.1,%,Crude Prevalence,Leisure-Time - Physical - Activity
Bryan,32.01573371,-81.44586077,Georgia,38109.0,13029,24.1,21.5,26.7,%,Crude Prevalence,Leisure-Time - Physical - Activity
Bulloch,32.39677746,-81.74311416,Georgia,77296.0,13031,26.3,24.0,28.7,%,Crude Prevalence,Leisure-Time - Physical - Activity
Burke,33.06115117,-82.00102189,Georgia,22423.0,13033,33.1,30.7,35.5,%,Crude Prevalence,Leisure-Time - Physical - Activity
Butts,33.28825619,-83.95738636,Georgia,24193.0,13035,31.7,29.4,34.2,%,Crude Prevalence,Leisure-Time - Physical - Activity
Calhoun,31.52834311,-84.62399916,Georgia,6352.0,13037,37.7,35.1,40.5,%,Crude Prevalence,Leisure-Time - Physical - Activity
Camden,30.93024409,-81.67056811,Georgia,53677.0,13039,25.8,23.4,28.1,%,Crude Prevalence,Leisure-Time - Physical - Activity
Candler,32.40343894,-82.07370957,Georgia,10836.0,13043,34.5,31.7,37.3,%,Crude Prevalence,Leisure-Time - Physical - Activity
Carroll,33.58254077,-85.07983718,Georgia,118121.0,13045,28.9,26.4,31.4,%,Crude Prevalence,Leisure-Time - Physical - Activity
Catoosa,34.90295804,-85.13861912,Georgia,67420.0,13047,24.4,21.7,27.3,%,Crude Prevalence,Leisure-Time - Physical - Activity
Charlton,30.78160602,-82.13753604,Georgia,12968.0,13049,33.1,30.7,35.7,%,Crude Prevalence,Leisure-Time - Physical - Activity
Chatham,32.00369869,-81.13314122,Georgia,289195.0,13051,24.3,21.9,26.7,%,Crude Prevalence,Leisure-Time - Physical - Activity
Chattahoochee,32.34726889,-84.78680105,Georgia,10684.0,13053,27.3,25.3,29.3,%,Crude Prevalence,Leisure-Time - Physical - Activity
Chattooga,34.47483844,-85.34525888,Georgia,24790.0,13055,31.4,28.5,34.3,%,Crude Prevalence,Leisure-Time - Physical - Activity
Cherokee,34.24392336,-84.47658676,Georgia,254149.0,13057,20.1,17.7,22.6,%,Crude Prevalence,Leisure-Time - Physical - Activity
Clarke,33.95063302,-83.36691008,Georgia,127330.0,13059,26.0,23.8,28.3,%,Crude Prevalence,Leisure-Time - Physical - Activity
Clay,31.62647612,-84.97943709,Georgia,2887.0,13061,38.9,36.1,41.6,%,Crude Prevalence,Leisure-Time - Physical - Activity
Clayton,33.54217493,-84.35859676,Georgia,289615.0,13063,32.7,29.7,35.4,%,Crude Prevalence,Leisure-Time - Physical - Activity
Clinch,30.91528788,-82.70637489,Georgia,6648.0,13065,36.0,33.3,38.7,%,Crude Prevalence,Leisure-Time - Physical - Activity
Cobb,33.94105875,-84.57641569,Georgia,756865.0,13067,21.6,19.6,23.6,%,Crude Prevalence,Leisure-Time - Physical - Activity
Coffee,31.54928225,-82.84931649,Georgia,43093.0,13069,31.8,29.4,34.1,%,Crude Prevalence,Leisure-Time - Physical - Activity
Colquitt,31.18826336,-83.76874953,Georgia,45592.0,13071,34.8,32.4,37.1,%,Crude Prevalence,Leisure-Time - Physical - Activity
Columbia,33.54461092,-82.26368138,Georgia,154291.0,13073,23.5,21.2,25.8,%,Crude Prevalence,Leisure-Time - Physical - Activity
Cook,31.15442459,-83.43045437,Georgia,17162.0,13075,31.6,29.1,34.4,%,Crude Prevalence,Leisure-Time - Physical - Activity
Coweta,33.35337749,-84.76352637,Georgia,145864.0,13077,25.3,22.7,27.8,%,Crude Prevalence,Leisure-Time - Physical - Activity
Crawford,32.71422865,-83.98613815,Georgia,12318.0,13079,30.2,27.7,32.4,%,Crude Prevalence,Leisure-Time - Physical - Activity
Crisp,31.92295332,-83.76805172,Georgia,22601.0,13081,34.3,31.8,36.8,%,Crude Prevalence,Leisure-Time - Physical - Activity
Dade,34.8543477,-85.50487967,Georgia,16226.0,13083,26.7,24.0,29.8,%,Crude Prevalence,Leisure-Time - Physical - Activity
Dawson,34.44372498,-84.16999662,Georgia,25083.0,13085,22.5,19.6,25.4,%,Crude Prevalence,Leisure-Time - Physical - Activity
Decatur,30.87818367,-84.57936317,Georgia,26575.0,13087,32.5,30.1,34.8,%,Crude Prevalence,Leisure-Time - Physical - Activity
DeKalb,33.77156134,-84.22680801,Georgia,756558.0,13089,22.2,20.0,24.6,%,Crude Prevalence,Leisure-Time - Physical - Activity
Dodge,32.17246403,-83.16822743,Georgia,20705.0,13091,30.9,28.5,33.2,%,Crude Prevalence,Leisure-Time - Physical - Activity
Dooly,32.15743503,-83.79870262,Georgia,13706.0,13093,32.4,30.1,34.8,%,Crude Prevalence,Leisure-Time - Physical - Activity
Dougherty,31.53336898,-84.21651198,Georgia,91243.0,13095,33.2,30.0,36.2,%,Crude Prevalence,Leisure-Time - Physical - Activity
Douglas,33.70193019,-84.76771591,Georgia,145331.0,13097,26.9,24.4,29.3,%,Crude Prevalence,Leisure-Time - Physical - Activity
Early,31.32283637,-84.90338002,Georgia,10247.0,13099,33.7,31.0,36.5,%,Crude Prevalence,Leisure-Time - Physical - Activity
Echols,30.70975082,-82.89307938,Georgia,4000.0,13101,32.6,30.2,35.0,%,Crude Prevalence,Leisure-Time - Physical - Activity
Effingham,32.36744006,-81.34142795,Georgia,62190.0,13103,24.4,21.9,26.9,%,Crude Prevalence,Leisure-Time - Physical - Activity
Elbert,34.11646868,-82.83982029,Georgia,19120.0,13105,31.8,29.4,34.2,%,Crude Prevalence,Leisure-Time - Physical - Activity
Emanuel,32.58976895,-82.30188355,Georgia,22612.0,13107,33.2,30.7,35.6,%,Crude Prevalence,Leisure-Time - Physical - Activity
Evans,32.15671598,-81.88649243,Georgia,10721.0,13109,33.0,30.6,35.5,%,Crude Prevalence,Leisure-Time - Physical - Activity
Fannin,34.86437216,-84.3194942,Georgia,25964.0,13111,25.7,22.8,28.8,%,Crude Prevalence,Leisure-Time - Physical - Activity
Fayette,33.41321962,-84.4944377,Georgia,113459.0,13113,20.3,18.2,22.4,%,Crude Prevalence,Leisure-Time - Physical - Activity
Floyd,34.26263651,-85.21452883,Georgia,97927.0,13115,30.8,27.9,33.6,%,Crude Prevalence,Leisure-Time - Physical - Activity
Forsyth,34.22518135,-84.12500222,Georgia,236612.0,13117,17.3,15.2,19.5,%,Crude Prevalence,Leisure-Time - Physical - Activity
Franklin,34.37567635,-83.22903576,Georgia,23023.0,13119,30.2,27.2,33.1,%,Crude Prevalence,Leisure-Time - Physical - Activity
Fulton,33.78992663,-84.46763569,Georgia,1050114.0,13121,21.2,19.1,23.3,%,Crude Prevalence,Leisure-Time - Physical - Activity
Gilmer,34.69129166,-84.45521958,Georgia,30816.0,13123,27.4,24.6,30.4,%,Crude Prevalence,Leisure-Time - Physical - Activity
Glascock,33.22883042,-82.61046235,Georgia,2995.0,13125,30.8,28.1,33.8,%,Crude Prevalence,Leisure-Time - Physical - Activity
Glynn,31.23039265,-81.53954271,Georgia,85219.0,13127,26.1,23.7,28.5,%,Crude Prevalence,Leisure-Time - Physical - Activity
Gordon,34.50304049,-84.87632994,Georgia,57685.0,13129,31.0,28.2,34.0,%,Crude Prevalence,Leisure-Time - Physical - Activity
Grady,30.87476717,-84.23472316,Georgia,24748.0,13131,31.6,29.1,33.9,%,Crude Prevalence,Leisure-Time - Physical - Activity
Greene,33.57905137,-83.16647249,Georgia,17698.0,13133,29.7,27.0,32.2,%,Crude Prevalence,Leisure-Time - Physical - Activity
Gwinnett,33.96154951,-84.02434695,Georgia,927781.0,13135,27.0,25.0,29.0,%,Crude Prevalence,Leisure-Time - Physical - Activity
Habersham,34.6309009,-83.53082722,Georgia,45388.0,13137,28.1,25.2,30.9,%,Crude Prevalence,Leisure-Time - Physical - Activity
Hall,34.31657346,-83.81954094,Georgia,202148.0,13139,27.0,24.4,29.6,%,Crude Prevalence,Leisure-Time - Physical - Activity
Hancock,33.26994756,-83.00116758,Georgia,8348.0,13141,37.0,34.0,39.8,%,Crude Prevalence,Leisure-Time - Physical - Activity
Haralson,33.79408357,-85.21090935,Georgia,29533.0,13143,27.3,24.4,30.3,%,Crude Prevalence,Leisure-Time - Physical - Activity
Harris,32.73610662,-84.90980768,Georgia,34475.0,13145,20.9,18.7,23.2,%,Crude Prevalence,Leisure-Time - Physical - Activity
Hart,34.35045345,-82.96390815,Georgia,26099.0,13147,31.0,28.4,33.8,%,Crude Prevalence,Leisure-Time - Physical - Activity
Heard,33.29706696,-85.12858766,Georgia,11879.0,13149,29.5,26.9,32.1,%,Crude Prevalence,Leisure-Time - Physical - Activity
Henry,33.45332341,-84.15454247,Georgia,230220.0,13151,25.2,22.8,27.3,%,Crude Prevalence,Leisure-Time - Physical - Activity
Houston,32.45932111,-83.66627547,Georgia,155469.0,13153,26.4,24.1,28.8,%,Crude Prevalence,Leisure-Time - Physical - Activity
Irwin,31.6022122,-83.27631869,Georgia,9398.0,13155,32.5,29.9,35.1,%,Crude Prevalence,Leisure-Time - Physical - Activity
Jackson,34.1337491,-83.56535838,Georgia,70422.0,13157,25.8,23.0,28.6,%,Crude Prevalence,Leisure-Time - Physical - Activity
Jasper,33.31610752,-83.68819812,Georgia,14040.0,13159,30.7,28.1,33.1,%,Crude Prevalence,Leisure-Time - Physical - Activity
Jeff Davis,31.80548774,-82.63673877,Georgia,15029.0,13161,32.9,30.3,35.4,%,Crude Prevalence,Leisure-Time - Physical - Activity
Jefferson,33.05473798,-82.41819314,Georgia,15430.0,13163,33.3,30.9,35.6,%,Crude Prevalence,Leisure-Time - Physical - Activity
Jenkins,32.79245214,-81.96342975,Georgia,8683.0,13165,34.3,32.1,36.7,%,Crude Prevalence,Leisure-Time - Physical - Activity
Johnson,32.70149506,-82.66057401,Georgia,9708.0,13167,32.3,30.0,34.8,%,Crude Prevalence,Leisure-Time - Physical - Activity
Jones,33.02482235,-83.56022627,Georgia,28616.0,13169,27.4,24.8,30.0,%,Crude Prevalence,Leisure-Time - Physical - Activity
Lamar,33.07619335,-84.13960694,Georgia,19000.0,13171,28.3,26.0,30.6,%,Crude Prevalence,Leisure-Time - Physical - Activity
Lanier,31.03767665,-83.06308264,Georgia,10340.0,13173,29.9,27.2,32.3,%,Crude Prevalence,Leisure-Time - Physical - Activity
Laurens,32.46361796,-82.92234073,Georgia,47325.0,13175,31.7,29.2,34.2,%,Crude Prevalence,Leisure-Time - Physical - Activity
Lee,31.77951544,-84.14055796,Georgia,29764.0,13177,23.4,21.2,25.6,%,Crude Prevalence,Leisure-Time - Physical - Activity
Liberty,31.82747904,-81.49425872,Georgia,61497.0,13179,30.5,28.4,32.7,%,Crude Prevalence,Leisure-Time - Physical - Activity
Lincoln,33.79369971,-82.45140613,Georgia,7915.0,13181,30.5,27.9,32.9,%,Crude Prevalence,Leisure-Time - Physical - Activity
Long,31.75238101,-81.74557338,Georgia,18998.0,13183,30.1,27.7,32.3,%,Crude Prevalence,Leisure-Time - Physical - Activity
Lowndes,30.83353845,-83.26751001,Georgia,116321.0,13185,29.4,26.9,31.9,%,Crude Prevalence,Leisure-Time - Physical - Activity
Lumpkin,34.57208756,-84.00295315,Georgia,32955.0,13187,26.1,22.9,29.3,%,Crude Prevalence,Leisure-Time - Physical - Activity
McDuffie,33.48256646,-82.48108628,Georgia,21531.0,13189,32.3,29.9,34.7,%,Crude Prevalence,Leisure-Time - Physical - Activity
McIntosh,31.49468299,-81.40719135,Georgia,14340.0,13191,28.6,26.4,31.0,%,Crude Prevalence,Leisure-Time - Physical - Activity
Macon,32.35830897,-84.04223324,Georgia,13143.0,13193,35.8,33.3,38.3,%,Crude Prevalence,Leisure-Time - Physical - Activity
Madison,34.12804037,-83.2084333,Georgia,29650.0,13195,28.2,25.5,31.1,%,Crude Prevalence,Leisure-Time - Physical - Activity
Marion,32.35284374,-84.52453679,Georgia,8351.0,13197,31.2,28.8,33.7,%,Crude Prevalence,Leisure-Time - Physical - Activity
Meriwether,33.04036604,-84.68860778,Georgia,21068.0,13199,32.2,29.7,34.7,%,Crude Prevalence,Leisure-Time - Physical - Activity
Miller,31.16385811,-84.7308074,Georgia,5686.0,13201,29.9,27.4,32.5,%,Crude Prevalence,Leisure-Time - Physical - Activity
Mitchell,31.2246399,-84.19477796,Georgia,22192.0,13205,33.8,31.3,36.2,%,Crude Prevalence,Leisure-Time - Physical - Activity
Monroe,33.01421626,-83.91859794,Georgia,27520.0,13207,25.8,23.2,28.4,%,Crude Prevalence,Leisure-Time - Physical - Activity
Montgomery,32.17309958,-82.53455133,Georgia,9193.0,13209,30.2,27.9,32.7,%,Crude Prevalence,Leisure-Time - Physical - Activity
Morgan,33.59070196,-83.4920825,Georgia,18853.0,13211,25.4,22.9,28.0,%,Crude Prevalence,Leisure-Time - Physical - Activity
Murray,34.78859287,-84.74801074,Georgia,39921.0,13213,31.4,28.2,34.2,%,Crude Prevalence,Leisure-Time - Physical - Activity
Muscogee,32.51010604,-84.87648706,Georgia,194160.0,13215,26.4,24.3,28.6,%,Crude Prevalence,Leisure-Time - Physical - Activity
Newton,33.55479878,-83.84910042,Georgia,109541.0,13217,28.0,25.7,30.3,%,Crude Prevalence,Leisure-Time - Physical - Activity
Oconee,33.83499974,-83.43714652,Georgia,39272.0,13219,18.5,16.1,21.3,%,Crude Prevalence,Leisure-Time - Physical - Activity
Oglethorpe,33.8809594,-83.08127904,Georgia,15054.0,13221,30.3,27.5,33.3,%,Crude Prevalence,Leisure-Time - Physical - Activity
Paulding,33.920349,-84.86729478,Georgia,164044.0,13223,24.9,22.5,27.2,%,Crude Prevalence,Leisure-Time - Physical - Activity
Peach,32.56872254,-83.82698708,Georgia,27297.0,13225,30.3,27.9,32.7,%,Crude Prevalence,Leisure-Time - Physical - Activity
Pickens,34.4640586,-84.46570351,Georgia,31980.0,13227,23.7,20.5,26.6,%,Crude Prevalence,Leisure-Time - Physical - Activity
Pierce,31.35830685,-82.21370709,Georgia,19389.0,13229,29.6,26.9,32.5,%,Crude Prevalence,Leisure-Time - Physical - Activity
Pike,33.0917654,-84.38944889,Georgia,18634.0,13231,25.4,22.8,28.1,%,Crude Prevalence,Leisure-Time - Physical - Activity
Polk,34.00173603,-85.18800549,Georgia,42470.0,13233,30.9,28.6,33.3,%,Crude Prevalence,Leisure-Time - Physical - Activity
Pulaski,32.23199807,-83.47572165,Georgia,11069.0,13235,31.8,29.4,34.3,%,Crude Prevalence,Leisure-Time - Physical - Activity
Putnam,33.32156395,-83.37309234,Georgia,21809.0,13237,27.7,25.3,30.3,%,Crude Prevalence,Leisure-Time - Physical - Activity
Quitman,31.86632781,-85.01899463,Georgia,2279.0,13239,34.4,31.6,36.9,%,Crude Prevalence,Leisure-Time - Physical - Activity
Rabun,34.88177324,-83.40248502,Georgia,16867.0,13241,26.9,23.6,30.0,%,Crude Prevalence,Leisure-Time - Physical - Activity
Randolph,31.76233108,-84.7533471,Georgia,6833.0,13243,37.5,34.6,40.2,%,Crude Prevalence,Leisure-Time - Physical - Activity
Richmond,33.35966539,-82.07417198,Georgia,201554.0,13245,30.1,27.6,32.7,%,Crude Prevalence,Leisure-Time - Physical - Activity
Rockdale,33.65544072,-84.02526917,Georgia,90594.0,13247,27.5,24.7,30.1,%,Crude Prevalence,Leisure-Time - Physical - Activity
Schley,32.26214536,-84.31475136,Georgia,5236.0,13249,29.1,26.4,31.5,%,Crude Prevalence,Leisure-Time - Physical - Activity
Screven,32.75104093,-81.61171991,Georgia,13938.0,13251,31.9,29.6,34.4,%,Crude Prevalence,Leisure-Time - Physical - Activity
Seminole,30.93880431,-84.86859159,Georgia,8315.0,13253,30.3,28.0,32.6,%,Crude Prevalence,Leisure-Time - Physical - Activity
Spalding,33.26037673,-84.28476696,Georgia,66100.0,13255,30.9,28.3,33.3,%,Crude Prevalence,Leisure-Time - Physical - Activity
Stephens,34.55385729,-83.29321853,Georgia,26035.0,13257,27.4,24.1,30.3,%,Crude Prevalence,Leisure-Time - Physical - Activity
Stewart,32.07745568,-84.8356578,Georgia,6199.0,13259,39.2,36.1,42.0,%,Crude Prevalence,Leisure-Time - Physical - Activity
Sumter,32.03986221,-84.19711308,Georgia,29733.0,13261,32.2,29.5,34.7,%,Crude Prevalence,Leisure-Time - Physical - Activity
Talbot,32.69942139,-84.53331429,Georgia,6272.0,13263,33.0,30.5,35.3,%,Crude Prevalence,Leisure-Time - Physical - Activity
Taliaferro,33.5652811,-82.87867399,Georgia,1608.0,13265,35.9,33.4,38.2,%,Crude Prevalence,Leisure-Time - Physical - Activity
Tattnall,32.04550377,-82.05852109,Georgia,25391.0,13267,32.1,29.7,34.6,%,Crude Prevalence,Leisure-Time - Physical - Activity
Taylor,32.55545221,-84.25028906,Georgia,8039.0,13269,33.0,30.5,35.5,%,Crude Prevalence,Leisure-Time - Physical - Activity
Telfair,31.92982674,-82.93919704,Georgia,15876.0,13271,35.3,33.0,37.5,%,Crude Prevalence,Leisure-Time - Physical - Activity
Terrell,31.77666522,-84.43667353,Georgia,8611.0,13273,35.0,32.3,37.7,%,Crude Prevalence,Leisure-Time - Physical - Activity
Thomas,30.86373928,-83.91918638,Georgia,44448.0,13275,29.3,26.6,31.8,%,Crude Prevalence,Leisure-Time - Physical - Activity
Tift,31.45747862,-83.52674119,Georgia,40571.0,13277,30.0,27.5,32.3,%,Crude Prevalence,Leisure-Time - Physical - Activity
Toombs,32.12152475,-82.33095995,Georgia,26887.0,13279,32.2,29.7,34.8,%,Crude Prevalence,Leisure-Time - Physical - Activity
Towns,34.91682754,-83.73740021,Georgia,11852.0,13281,24.2,21.4,27.2,%,Crude Prevalence,Leisure-Time - Physical - Activity
Treutlen,32.40378483,-82.56759372,Georgia,6809.0,13283,30.9,28.2,33.5,%,Crude Prevalence,Leisure-Time - Physical - Activity
Troup,33.03355985,-85.02851439,Georgia,70034.0,13285,28.8,26.5,31.3,%,Crude Prevalence,Leisure-Time - Physical - Activity
Turner,31.71645085,-83.6238197,Georgia,7912.0,13287,33.1,30.6,35.5,%,Crude Prevalence,Leisure-Time - Physical - Activity
Twiggs,32.66723611,-83.42727973,Georgia,8188.0,13289,34.3,32.0,36.6,%,Crude Prevalence,Leisure-Time - Physical - Activity
Union,34.83383243,-83.99014461,Georgia,24001.0,13291,24.5,21.5,27.6,%,Crude Prevalence,Leisure-Time - Physical - Activity
Upson,32.88087659,-84.29952649,Georgia,26215.0,13293,31.0,28.5,33.7,%,Crude Prevalence,Leisure-Time - Physical - Activity
Walker,34.7358293,-85.30124895,Georgia,69410.0,13295,27.9,24.8,30.8,%,Crude Prevalence,Leisure-Time - Physical - Activity
Walton,33.78145869,-83.73391829,Georgia,93503.0,13297,26.7,24.2,29.3,%,Crude Prevalence,Leisure-Time - Physical - Activity
Ware,31.0538998,-82.42363828,Georgia,35680.0,13299,31.7,29.3,34.2,%,Crude Prevalence,Leisure-Time - Physical - Activity
Warren,33.40902488,-82.67619426,Georgia,5251.0,13301,35.3,32.6,37.9,%,Crude Prevalence,Leisure-Time - Physical - Activity
Washington,32.9692438,-82.79634307,Georgia,20386.0,13303,33.2,30.6,35.8,%,Crude Prevalence,Leisure-Time - Physical - Activity
Wayne,31.55120637,-81.91715588,Georgia,29808.0,13305,30.3,27.6,32.8,%,Crude Prevalence,Leisure-Time - Physical - Activity
Webster,32.04731618,-84.55121005,Georgia,2611.0,13307,32.9,30.3,35.4,%,Crude Prevalence,Leisure-Time - Physical - Activity
Wheeler,32.1168757,-82.72443335,Georgia,7879.0,13309,34.5,31.7,37.1,%,Crude Prevalence,Leisure-Time - Physical - Activity
White,34.64547516,-83.74713501,Georgia,29970.0,13311,25.0,22.1,28.1,%,Crude Prevalence,Leisure-Time - Physical - Activity
Whitfield,34.80551983,-84.96711735,Georgia,104062.0,13313,32.4,29.6,35.2,%,Crude Prevalence,Leisure-Time - Physical - Activity
Wilcox,31.97263162,-83.43199201,Georgia,8812.0,13315,32.7,30.0,35.0,%,Crude Prevalence,Leisure-Time - Physical - Activity
Wilkes,33.78213952,-82.74356988,Georgia,9876.0,13317,33.4,30.9,35.7,%,Crude Prevalence,Leisure-Time - Physical - Activity
Wilkinson,32.80238417,-83.17161919,Georgia,9036.0,13319,32.1,30.0,34.3,%,Crude Prevalence,Leisure-Time - Physical - Activity
Worth,31.55136135,-83.85071446,Georgia,20299.0,13321,29.9,27.6,32.3,%,Crude Prevalence,Leisure-Time - Physical - Activity
Ada,43.45109387,-116.2411457,Idaho,469966.0,16001,16.6,14.5,18.8,%,Crude Prevalence,Leisure-Time - Physical - Activity
Adams,44.88919141,-116.4539392,Idaho,4250.0,16003,22.3,19.7,25.1,%,Crude Prevalence,Leisure-Time - Physical - Activity
Bannock,42.66900791,-112.2250113,Idaho,87138.0,16005,20.7,18.3,23.0,%,Crude Prevalence,Leisure-Time - Physical - Activity
Bear Lake,42.28468759,-111.3294344,Idaho,6050.0,16007,22.9,20.1,25.5,%,Crude Prevalence,Leisure-Time - Physical - Activity
Benewah,47.21751507,-116.6589561,Idaho,9226.0,16009,22.3,20.1,24.5,%,Crude Prevalence,Leisure-Time - Physical - Activity
Bingham,43.21654997,-112.3979588,Idaho,46236.0,16011,21.7,19.6,23.8,%,Crude Prevalence,Leisure-Time - Physical - Activity
Blaine,43.40759364,-113.9705796,Idaho,22601.0,16013,19.1,16.6,21.6,%,Crude Prevalence,Leisure-Time - Physical - Activity
Boise,43.98981735,-115.7272456,Idaho,7634.0,16015,19.3,17.0,21.9,%,Crude Prevalence,Leisure-Time - Physical - Activity
Bonner,48.2999159,-116.6012435,Idaho,44727.0,16017,20.0,17.4,22.5,%,Crude Prevalence,Leisure-Time - Physical - Activity
Bonneville,43.38779682,-111.6148389,Idaho,116854.0,16019,19.6,17.2,22.0,%,Crude Prevalence,Leisure-Time - Physical - Activity
Boundary,48.766998,-116.4627525,Idaho,11948.0,16021,21.9,19.4,24.3,%,Crude Prevalence,Leisure-Time - Physical - Activity
Butte,43.72335197,-113.1711938,Idaho,2611.0,16023,21.2,18.8,23.5,%,Crude Prevalence,Leisure-Time - Physical - Activity
Camas,43.46439664,-114.8050128,Idaho,1127.0,16025,24.1,21.5,26.8,%,Crude Prevalence,Leisure-Time - Physical - Activity
Canyon,43.62515378,-116.7092489,Idaho,223499.0,16027,25.2,22.9,27.5,%,Crude Prevalence,Leisure-Time - Physical - Activity
Caribou,42.77041121,-111.5621779,Idaho,7060.0,16029,19.8,17.3,22.2,%,Crude Prevalence,Leisure-Time - Physical - Activity
Cassia,42.28396522,-113.6003424,Idaho,23864.0,16031,23.7,21.4,26.2,%,Crude Prevalence,Leisure-Time - Physical - Activity
Clark,44.2840844,-112.3516256,Idaho,852.0,16033,30.7,28.1,33.5,%,Crude Prevalence,Leisure-Time - Physical - Activity
Clearwater,46.67343002,-115.6567783,Idaho,8758.0,16035,21.6,19.3,24.1,%,Crude Prevalence,Leisure-Time - Physical - Activity
Custer,44.24080899,-114.2827325,Idaho,4280.0,16037,21.9,19.2,24.6,%,Crude Prevalence,Leisure-Time - Physical - Activity
Elmore,43.3532536,-115.4693813,Idaho,27259.0,16039,23.0,21.0,25.2,%,Crude Prevalence,Leisure-Time - Physical - Activity
Franklin,42.18122472,-111.8132856,Idaho,13726.0,16041,21.6,19.2,24.1,%,Crude Prevalence,Leisure-Time - Physical - Activity
Fremont,44.22914506,-111.4819759,Idaho,13168.0,16043,23.0,20.4,25.8,%,Crude Prevalence,Leisure-Time - Physical - Activity
Gem,44.06105955,-116.3973679,Idaho,17634.0,16045,23.4,20.9,25.9,%,Crude Prevalence,Leisure-Time - Physical - Activity
Gooding,42.97113174,-114.8115228,Idaho,15196.0,16047,24.6,22.2,26.8,%,Crude Prevalence,Leisure-Time - Physical - Activity
Idaho,45.84411919,-115.4670388,Idaho,16513.0,16049,21.5,19.0,23.8,%,Crude Prevalence,Leisure-Time - Physical - Activity
Jefferson,43.82021855,-112.3110107,Idaho,29439.0,16051,20.6,18.2,23.3,%,Crude Prevalence,Leisure-Time - Physical - Activity
Jerome,42.68992076,-114.2645038,Idaho,24015.0,16053,25.5,23.0,27.9,%,Crude Prevalence,Leisure-Time - Physical - Activity
Kootenai,47.6744641,-116.7000308,Idaho,161505.0,16055,19.0,16.7,21.4,%,Crude Prevalence,Leisure-Time - Physical - Activity
Latah,46.81605667,-116.711485,Idaho,40134.0,16057,17.8,15.6,20.2,%,Crude Prevalence,Leisure-Time - Physical - Activity
Lemhi,44.94368489,-113.9340756,Idaho,7961.0,16059,22.2,19.7,25.0,%,Crude Prevalence,Leisure-Time - Physical - Activity
Lewis,46.23675721,-116.4260622,Idaho,3861.0,16061,22.7,20.3,25.2,%,Crude Prevalence,Leisure-Time - Physical - Activity
Lincoln,43.00232711,-114.1383193,Idaho,5360.0,16063,25.9,23.6,28.0,%,Crude Prevalence,Leisure-Time - Physical - Activity
Madison,43.78424091,-111.6590247,Idaho,39304.0,16065,21.1,18.9,23.3,%,Crude Prevalence,Leisure-Time - Physical - Activity
Minidoka,42.85448818,-113.6375197,Idaho,20825.0,16067,26.0,23.7,28.2,%,Crude Prevalence,Leisure-Time - Physical - Activity
Nez Perce,46.32669016,-116.7500003,Idaho,40408.0,16069,20.1,17.8,22.5,%,Crude Prevalence,Leisure-Time - Physical - Activity
Oneida,42.19493884,-112.539538,Idaho,4488.0,16071,21.8,19.3,24.0,%,Crude Prevalence,Leisure-Time - Physical - Activity
Owyhee,42.58150395,-116.1700201,Idaho,11693.0,16073,26.9,24.6,29.3,%,Crude Prevalence,Leisure-Time - Physical - Activity
Payette,44.00705386,-116.7602225,Idaho,23551.0,16075,23.7,21.3,26.1,%,Crude Prevalence,Leisure-Time - Physical - Activity
Power,42.69353476,-112.8408579,Idaho,7768.0,16077,25.3,23.0,27.7,%,Crude Prevalence,Leisure-Time - Physical - Activity
Shoshone,47.35207039,-115.8914809,Idaho,12796.0,16079,23.6,21.0,26.2,%,Crude Prevalence,Leisure-Time - Physical - Activity
Teton,43.76000399,-111.2080195,Idaho,11640.0,16081,17.4,15.2,19.8,%,Crude Prevalence,Leisure-Time - Physical - Activity
Twin Falls,42.35602464,-114.6672662,Idaho,86081.0,16083,23.3,20.9,25.8,%,Crude Prevalence,Leisure-Time - Physical - Activity
Valley,44.7666868,-115.5664274,Idaho,11041.0,16085,17.6,15.2,20.0,%,Crude Prevalence,Leisure-Time - Physical - Activity
Washington,44.45272668,-116.7848239,Idaho,10161.0,16087,24.7,22.4,27.1,%,Crude Prevalence,Leisure-Time - Physical - Activity
Adams,39.9878741,-91.18845544,Illinois,65691.0,17001,25.7,22.6,28.8,%,Crude Prevalence,Leisure-Time - Physical - Activity
Alexander,37.19140962,-89.33768329,Illinois,6060.0,17003,34.2,31.6,36.8,%,Crude Prevalence,Leisure-Time - Physical - Activity
Bond,38.88702523,-89.43550064,Illinois,16630.0,17005,26.5,23.9,29.3,%,Crude Prevalence,Leisure-Time - Physical - Activity
Boone,42.32289961,-88.82332316,Illinois,53577.0,17007,26.7,24.1,29.4,%,Crude Prevalence,Leisure-Time - Physical - Activity
Brown,39.96106736,-90.75026903,Illinois,6556.0,17009,27.2,24.6,30.2,%,Crude Prevalence,Leisure-Time - Physical - Activity
Bureau,41.40423623,-89.52854555,Illinois,32993.0,17011,26.9,24.0,29.5,%,Crude Prevalence,Leisure-Time - Physical - Activity
Calhoun,39.16882841,-90.66735551,Illinois,4802.0,17013,26.5,23.4,29.6,%,Crude Prevalence,Leisure-Time - Physical - Activity
Carroll,42.06790394,-89.93368608,Illinois,14312.0,17015,25.8,23.1,28.7,%,Crude Prevalence,Leisure-Time - Physical - Activity
Cass,39.97361133,-90.24733059,Illinois,12260.0,17017,30.1,27.6,32.8,%,Crude Prevalence,Leisure-Time - Physical - Activity
Champaign,40.14009306,-88.19939639,Illinois,209983.0,17019,24.9,22.6,27.3,%,Crude Prevalence,Leisure-Time - Physical - Activity
Christian,39.54579537,-89.27739335,Illinois,32661.0,17021,28.0,24.9,30.8,%,Crude Prevalence,Leisure-Time - Physical - Activity
Clark,39.333655,-87.7876984,Illinois,15596.0,17023,26.8,23.6,29.9,%,Crude Prevalence,Leisure-Time - Physical - Activity
Clay,38.75358984,-88.49042328,Illinois,13253.0,17025,28.0,24.8,31.1,%,Crude Prevalence,Leisure-Time - Physical - Activity
Clinton,38.6064723,-89.42268213,Illinois,37639.0,17027,24.4,21.8,27.5,%,Crude Prevalence,Leisure-Time - Physical - Activity
Coles,39.52086003,-88.22141023,Illinois,50885.0,17029,26.8,23.8,29.9,%,Crude Prevalence,Leisure-Time - Physical - Activity
Cook,41.83995114,-87.81688021,Illinois,5180493.0,17031,24.2,22.2,26.3,%,Crude Prevalence,Leisure-Time - Physical - Activity
Crawford,39.003307,-87.75963754,Illinois,18807.0,17033,26.5,23.3,29.5,%,Crude Prevalence,Leisure-Time - Physical - Activity
Cumberland,39.27402237,-88.24036948,Illinois,10808.0,17035,27.1,23.9,30.3,%,Crude Prevalence,Leisure-Time - Physical - Activity
DeKalb,41.89322815,-88.77009318,Illinois,104143.0,17037,26.0,23.3,28.7,%,Crude Prevalence,Leisure-Time - Physical - Activity
De Witt,40.17440678,-88.90398072,Illinois,15769.0,17039,25.3,22.3,28.2,%,Crude Prevalence,Leisure-Time - Physical - Activity
Douglas,39.76949551,-88.21754608,Illinois,19479.0,17041,27.4,24.2,30.6,%,Crude Prevalence,Leisure-Time - Physical - Activity
DuPage,41.85194686,-88.08559673,Illinois,928589.0,17043,20.6,18.5,23.1,%,Crude Prevalence,Leisure-Time - Physical - Activity
Edgar,39.67864858,-87.74546637,Illinois,17360.0,17045,26.2,23.2,29.0,%,Crude Prevalence,Leisure-Time - Physical - Activity
Edwards,38.41610002,-88.05385604,Illinois,6392.0,17047,25.6,22.9,28.3,%,Crude Prevalence,Leisure-Time - Physical - Activity
Effingham,39.05963979,-88.5897574,Illinois,34208.0,17049,24.7,21.5,27.6,%,Crude Prevalence,Leisure-Time - Physical - Activity
Fayette,39.00018837,-89.02422026,Illinois,21416.0,17051,29.8,27.0,33.1,%,Crude Prevalence,Leisure-Time - Physical - Activity
Ford,40.59739228,-88.2235302,Illinois,13264.0,17053,26.7,23.6,29.7,%,Crude Prevalence,Leisure-Time - Physical - Activity
Franklin,37.99210601,-88.92419062,Illinois,38701.0,17055,29.4,26.0,32.8,%,Crude Prevalence,Leisure-Time - Physical - Activity
Fulton,40.47265322,-90.207453,Illinois,34844.0,17057,27.9,24.9,31.2,%,Crude Prevalence,Leisure-Time - Physical - Activity
Gallatin,37.76357747,-88.22876649,Illinois,5058.0,17059,29.4,26.4,32.1,%,Crude Prevalence,Leisure-Time - Physical - Activity
Greene,39.35635609,-90.39056399,Illinois,13044.0,17061,27.5,24.8,30.5,%,Crude Prevalence,Leisure-Time - Physical - Activity
Grundy,41.28544033,-88.41889597,Illinois,50972.0,17063,23.5,20.9,26.1,%,Crude Prevalence,Leisure-Time - Physical - Activity
Hamilton,38.08154333,-88.53881219,Illinois,8163.0,17065,25.5,22.6,28.6,%,Crude Prevalence,Leisure-Time - Physical - Activity
Hancock,40.40377304,-91.16466866,Illinois,17844.0,17067,25.2,22.1,28.0,%,Crude Prevalence,Leisure-Time - Physical - Activity
Hardin,37.51808974,-88.26669442,Illinois,3910.0,17069,29.4,26.3,32.7,%,Crude Prevalence,Leisure-Time - Physical - Activity
Henderson,40.81804873,-90.92497453,Illinois,6709.0,17071,25.5,22.7,28.4,%,Crude Prevalence,Leisure-Time - Physical - Activity
Henry,41.35314467,-90.1312813,Illinois,49090.0,17073,25.5,22.5,28.6,%,Crude Prevalence,Leisure-Time - Physical - Activity
Iroquois,40.74721556,-87.82469568,Illinois,27604.0,17075,27.6,24.5,30.5,%,Crude Prevalence,Leisure-Time - Physical - Activity
Jackson,37.7852773,-89.38220561,Illinois,57419.0,17077,27.1,24.2,29.9,%,Crude Prevalence,Leisure-Time - Physical - Activity
Jasper,39.01057055,-88.15388345,Illinois,9611.0,17079,25.9,22.9,29.0,%,Crude Prevalence,Leisure-Time - Physical - Activity
Jefferson,38.30021861,-88.92399469,Illinois,37820.0,17081,28.0,25.2,31.2,%,Crude Prevalence,Leisure-Time - Physical - Activity
Jersey,39.08568063,-90.35672109,Illinois,21847.0,17083,24.8,21.8,27.7,%,Crude Prevalence,Leisure-Time - Physical - Activity
Jo Daviess,42.3652792,-90.21213574,Illinois,21366.0,17085,24.0,21.1,27.1,%,Crude Prevalence,Leisure-Time - Physical - Activity
Johnson,37.45952508,-88.88074172,Illinois,12456.0,17087,27.5,24.6,30.5,%,Crude Prevalence,Leisure-Time - Physical - Activity
Kane,41.93907809,-88.42862274,Illinois,534216.0,17089,23.5,21.2,25.9,%,Crude Prevalence,Leisure-Time - Physical - Activity
Kankakee,41.13747721,-87.86188723,Illinois,110024.0,17091,27.3,24.9,30.0,%,Crude Prevalence,Leisure-Time - Physical - Activity
Kendall,41.59098734,-88.4288083,Illinois,127915.0,17093,22.0,19.7,24.3,%,Crude Prevalence,Leisure-Time - Physical - Activity
Knox,40.93161365,-90.21324527,Illinois,50112.0,17095,28.9,26.0,31.8,%,Crude Prevalence,Leisure-Time - Physical - Activity
Lake,42.32324586,-88.0038997,Illinois,700832.0,17097,23.0,20.8,25.5,%,Crude Prevalence,Leisure-Time - Physical - Activity
LaSalle,41.34406326,-88.88641893,Illinois,109430.0,17099,25.8,23.2,28.5,%,Crude Prevalence,Leisure-Time - Physical - Activity
Lawrence,38.7203392,-87.72684251,Illinois,15765.0,17101,29.4,26.6,32.3,%,Crude Prevalence,Leisure-Time - Physical - Activity
Lee,41.74642172,-89.30007923,Illinois,34223.0,17103,25.8,23.0,28.5,%,Crude Prevalence,Leisure-Time - Physical - Activity
Livingston,40.89177714,-88.55788487,Illinois,35761.0,17105,27.8,24.9,30.6,%,Crude Prevalence,Leisure-Time - Physical - Activity
Logan,40.12456067,-89.36756428,Illinois,28925.0,17107,25.4,22.8,28.1,%,Crude Prevalence,Leisure-Time - Physical - Activity
McDonough,40.45646248,-90.67782344,Illinois,29955.0,17109,25.3,22.4,28.1,%,Crude Prevalence,Leisure-Time - Physical - Activity
McHenry,42.32444298,-88.45264553,Illinois,308570.0,17111,21.9,19.2,24.6,%,Crude Prevalence,Leisure-Time - Physical - Activity
McLean,40.49078887,-88.84759624,Illinois,172828.0,17113,23.0,20.3,25.7,%,Crude Prevalence,Leisure-Time - Physical - Activity
Macon,39.86003285,-88.96170117,Illinois,104712.0,17115,26.8,24.1,29.4,%,Crude Prevalence,Leisure-Time - Physical - Activity
Macoupin,39.26115141,-89.92450243,Illinois,45313.0,17117,25.5,22.6,28.4,%,Crude Prevalence,Leisure-Time - Physical - Activity
Madison,38.8299742,-89.90521707,Illinois,264461.0,17119,27.8,24.8,30.7,%,Crude Prevalence,Leisure-Time - Physical - Activity
Marion,38.649654,-88.91897966,Illinois,37620.0,17121,28.7,25.6,31.7,%,Crude Prevalence,Leisure-Time - Physical - Activity
Marshall,41.03321359,-89.34479498,Illinois,11534.0,17123,25.8,23.0,28.7,%,Crude Prevalence,Leisure-Time - Physical - Activity
Mason,40.23973518,-89.91638016,Illinois,13565.0,17125,27.7,24.9,30.8,%,Crude Prevalence,Leisure-Time - Physical - Activity
Massac,37.21907548,-88.70788222,Illinois,14080.0,17127,29.3,26.3,32.0,%,Crude Prevalence,Leisure-Time - Physical - Activity
Menard,40.02765612,-89.80176112,Illinois,12288.0,17129,24.1,21.3,26.8,%,Crude Prevalence,Leisure-Time - Physical - Activity
Mercer,41.20543979,-90.74108693,Illinois,15601.0,17131,25.2,22.6,28.0,%,Crude Prevalence,Leisure-Time - Physical - Activity
Monroe,38.27857376,-90.17768675,Illinois,34335.0,17133,20.8,18.3,23.5,%,Crude Prevalence,Leisure-Time - Physical - Activity
Montgomery,39.23105133,-89.47892664,Illinois,28601.0,17135,28.0,24.8,30.9,%,Crude Prevalence,Leisure-Time - Physical - Activity
Morgan,39.71559646,-90.20099574,Illinois,33976.0,17137,26.7,24.0,29.4,%,Crude Prevalence,Leisure-Time - Physical - Activity
Moultrie,39.64136791,-88.61929654,Illinois,14717.0,17139,26.2,22.8,29.6,%,Crude Prevalence,Leisure-Time - Physical - Activity
Ogle,42.04268981,-89.32056003,Illinois,50923.0,17141,26.8,23.8,29.8,%,Crude Prevalence,Leisure-Time - Physical - Activity
Peoria,40.78823251,-89.7600207,Illinois,180621.0,17143,25.3,22.8,27.8,%,Crude Prevalence,Leisure-Time - Physical - Activity
Perry,38.084378,-89.3675078,Illinois,21174.0,17145,29.1,26.2,31.8,%,Crude Prevalence,Leisure-Time - Physical - Activity
Piatt,40.01034924,-88.59111287,Illinois,16396.0,17147,22.6,19.7,25.8,%,Crude Prevalence,Leisure-Time - Physical - Activity
Pike,39.6224698,-90.88627486,Illinois,15611.0,17149,28.2,25.2,31.5,%,Crude Prevalence,Leisure-Time - Physical - Activity
Pope,37.41280919,-88.56135849,Illinois,4212.0,17151,26.7,23.7,29.6,%,Crude Prevalence,Leisure-Time - Physical - Activity
Pulaski,37.22291001,-89.12759127,Illinois,5463.0,17153,32.7,30.5,34.8,%,Crude Prevalence,Leisure-Time - Physical - Activity
Putnam,41.20465835,-89.28586591,Illinois,5740.0,17155,24.8,22.1,27.3,%,Crude Prevalence,Leisure-Time - Physical - Activity
Randolph,38.05215265,-89.82565692,Illinois,32106.0,17157,28.4,25.6,30.9,%,Crude Prevalence,Leisure-Time - Physical - Activity
Richland,38.71236738,-88.08547184,Illinois,15763.0,17159,26.6,23.5,29.8,%,Crude Prevalence,Leisure-Time - Physical - Activity
Rock Island,41.46722963,-90.5679268,Illinois,143477.0,17161,26.6,23.8,29.3,%,Crude Prevalence,Leisure-Time - Physical - Activity
St. Clair,38.47017783,-89.92845262,Illinois,261059.0,17163,29.0,26.3,31.6,%,Crude Prevalence,Leisure-Time - Physical - Activity
Saline,37.75324113,-88.54097347,Illinois,23906.0,17165,29.0,25.9,32.2,%,Crude Prevalence,Leisure-Time - Physical - Activity
Sangamon,39.75825624,-89.65866519,Illinois,195348.0,17167,24.5,21.8,27.3,%,Crude Prevalence,Leisure-Time - Physical - Activity
Schuyler,40.15792843,-90.61533662,Illinois,6907.0,17169,27.4,24.4,30.3,%,Crude Prevalence,Leisure-Time - Physical - Activity
Scott,39.64390994,-90.47433071,Illinois,4926.0,17171,27.0,24.1,30.0,%,Crude Prevalence,Leisure-Time - Physical - Activity
Shelby,39.39134637,-88.80585338,Illinois,21741.0,17173,26.5,23.6,29.3,%,Crude Prevalence,Leisure-Time - Physical - Activity
Stark,41.09340992,-89.79745221,Illinois,5427.0,17175,27.7,24.8,31.1,%,Crude Prevalence,Leisure-Time - Physical - Activity
Stephenson,42.35163901,-89.6625328,Illinois,44753.0,17177,27.0,24.4,29.5,%,Crude Prevalence,Leisure-Time - Physical - Activity
Tazewell,40.50760685,-89.51345916,Illinois,132328.0,17179,24.5,21.6,27.5,%,Crude Prevalence,Leisure-Time - Physical - Activity
Union,37.47128742,-89.25472463,Illinois,16841.0,17181,27.7,24.5,30.9,%,Crude Prevalence,Leisure-Time - Physical - Activity
Vermilion,40.18371703,-87.73292605,Illinois,76806.0,17183,30.1,27.4,32.7,%,Crude Prevalence,Leisure-Time - Physical - Activity
Wabash,38.44627997,-87.84427585,Illinois,11549.0,17185,25.5,22.7,28.5,%,Crude Prevalence,Leisure-Time - Physical - Activity
Warren,40.84851016,-90.61481857,Illinois,17032.0,17187,27.3,24.3,30.2,%,Crude Prevalence,Leisure-Time - Physical - Activity
Washington,38.35246483,-89.41076459,Illinois,13995.0,17189,23.9,21.0,26.6,%,Crude Prevalence,Leisure-Time - Physical - Activity
Wayne,38.42897399,-88.42560057,Illinois,16332.0,17191,27.3,24.5,30.3,%,Crude Prevalence,Leisure-Time - Physical - Activity
White,38.08680041,-88.17955899,Illinois,13665.0,17193,26.8,23.9,29.8,%,Crude Prevalence,Leisure-Time - Physical - Activity
Whiteside,41.75596232,-89.9141825,Illinois,55626.0,17195,25.7,22.9,28.2,%,Crude Prevalence,Leisure-Time - Physical - Activity
Will,41.44492484,-87.97842332,Illinois,692310.0,17197,24.3,21.9,26.7,%,Crude Prevalence,Leisure-Time - Physical - Activity
Williamson,37.73040711,-88.93010963,Illinois,67056.0,17199,25.6,22.8,28.5,%,Crude Prevalence,Leisure-Time - Physical - Activity
Winnebago,42.33635569,-89.16091989,Illinois,284081.0,17201,28.7,26.1,31.3,%,Crude Prevalence,Leisure-Time - Physical - Activity
Woodford,40.78829161,-89.21105717,Illinois,38463.0,17203,21.7,18.8,24.6,%,Crude Prevalence,Leisure-Time - Physical - Activity
Adams,40.7457325,-84.93671592,Indiana,35636.0,18001,30.4,26.8,33.5,%,Crude Prevalence,Leisure-Time - Physical - Activity
Allen,41.09113181,-85.06660354,Indiana,375351.0,18003,26.4,23.7,29.0,%,Crude Prevalence,Leisure-Time - Physical - Activity
Bartholomew,39.20600189,-85.89759541,Indiana,82753.0,18005,25.8,22.8,28.7,%,Crude Prevalence,Leisure-Time - Physical - Activity
Benton,40.60632664,-87.31080022,Indiana,8653.0,18007,30.2,27.2,33.4,%,Crude Prevalence,Leisure-Time - Physical - Activity
Blackford,40.47362942,-85.32478442,Indiana,11930.0,18009,29.2,26.2,32.2,%,Crude Prevalence,Leisure-Time - Physical - Activity
Boone,40.05096134,-86.46861109,Indiana,66999.0,18011,21.8,18.8,25.3,%,Crude Prevalence,Leisure-Time - Physical - Activity
Brown,39.19641206,-86.22763978,Indiana,15234.0,18013,25.8,22.5,29.0,%,Crude Prevalence,Leisure-Time - Physical - Activity
Carroll,40.5830106,-86.56346615,Indiana,20127.0,18015,27.8,24.8,30.9,%,Crude Prevalence,Leisure-Time - Physical - Activity
Cass,40.76162398,-86.34618331,Indiana,37955.0,18017,32.7,30.0,35.5,%,Crude Prevalence,Leisure-Time - Physical - Activity
Clark,38.47741387,-85.7071025,Indiana,117360.0,18019,29.3,26.4,32.3,%,Crude Prevalence,Leisure-Time - Physical - Activity
Clay,39.39284447,-87.11576628,Indiana,26170.0,18021,29.2,26.0,32.5,%,Crude Prevalence,Leisure-Time - Physical - Activity
Clinton,40.30196661,-86.47534877,Indiana,32250.0,18023,30.5,27.6,33.4,%,Crude Prevalence,Leisure-Time - Physical - Activity
Crawford,38.29212557,-86.45129948,Indiana,10558.0,18025,32.4,28.8,35.8,%,Crude Prevalence,Leisure-Time - Physical - Activity
Daviess,38.7027045,-87.07192926,Indiana,33147.0,18027,31.7,28.3,35.3,%,Crude Prevalence,Leisure-Time - Physical - Activity
Dearborn,39.14486496,-84.97342343,Indiana,49568.0,18029,26.5,23.4,29.8,%,Crude Prevalence,Leisure-Time - Physical - Activity
Decatur,39.30705605,-85.50112492,Indiana,26794.0,18031,28.1,24.7,31.2,%,Crude Prevalence,Leisure-Time - Physical - Activity
DeKalb,41.39806132,-84.99898798,Indiana,43226.0,18033,27.1,23.9,30.1,%,Crude Prevalence,Leisure-Time - Physical - Activity
Delaware,40.22779145,-85.39727723,Indiana,114772.0,18035,29.2,26.0,32.3,%,Crude Prevalence,Leisure-Time - Physical - Activity
Dubois,38.36490688,-86.87994224,Indiana,42565.0,18037,26.4,23.5,29.4,%,Crude Prevalence,Leisure-Time - Physical - Activity
Elkhart,41.59769459,-85.85876445,Indiana,205560.0,18039,29.9,27.0,32.8,%,Crude Prevalence,Leisure-Time - Physical - Activity
Fayette,39.63983379,-85.17841116,Indiana,23047.0,18041,32.0,28.7,35.3,%,Crude Prevalence,Leisure-Time - Physical - Activity
Floyd,38.31844161,-85.90679103,Indiana,77781.0,18043,25.8,22.6,28.9,%,Crude Prevalence,Leisure-Time - Physical - Activity
Fountain,40.12118478,-87.24128969,Indiana,16351.0,18045,28.7,25.6,31.7,%,Crude Prevalence,Leisure-Time - Physical - Activity
Franklin,39.41468559,-85.0602732,Indiana,22736.0,18047,27.3,23.8,30.4,%,Crude Prevalence,Leisure-Time - Physical - Activity
Fulton,41.04708011,-86.26359212,Indiana,20092.0,18049,28.6,25.7,31.6,%,Crude Prevalence,Leisure-Time - Physical - Activity
Gibson,38.3118341,-87.58386455,Indiana,33452.0,18051,26.7,23.8,29.6,%,Crude Prevalence,Leisure-Time - Physical - Activity
Grant,40.51580434,-85.65457061,Indiana,65936.0,18053,30.7,27.7,33.4,%,Crude Prevalence,Leisure-Time - Physical - Activity
Greene,39.03627682,-86.96218924,Indiana,32006.0,18055,31.4,28.1,34.4,%,Crude Prevalence,Leisure-Time - Physical - Activity
Hamilton,40.07241804,-86.05178886,Indiana,330086.0,18057,19.2,16.6,22.0,%,Crude Prevalence,Leisure-Time - Physical - Activity
Hancock,39.82304185,-85.77344357,Indiana,76351.0,18059,23.8,20.8,26.6,%,Crude Prevalence,Leisure-Time - Physical - Activity
Harrison,38.19513188,-86.11177384,Indiana,40350.0,18061,28.2,25.2,31.2,%,Crude Prevalence,Leisure-Time - Physical - Activity
Hendricks,39.76976097,-86.5100815,Indiana,167009.0,18063,20.1,17.7,22.6,%,Crude Prevalence,Leisure-Time - Physical - Activity
Henry,39.93112509,-85.3965434,Indiana,48271.0,18065,30.5,27.4,33.5,%,Crude Prevalence,Leisure-Time - Physical - Activity
Howard,40.48355419,-86.11663764,Indiana,82366.0,18067,30.3,27.1,33.4,%,Crude Prevalence,Leisure-Time - Physical - Activity
Huntington,40.82911501,-85.48824811,Indiana,36240.0,18069,26.9,23.9,29.8,%,Crude Prevalence,Leisure-Time - Physical - Activity
Jackson,38.90660897,-86.03795352,Indiana,44111.0,18071,31.2,28.1,34.2,%,Crude Prevalence,Leisure-Time - Physical - Activity
Jasper,41.0231193,-87.11603007,Indiana,33370.0,18073,27.8,24.9,30.6,%,Crude Prevalence,Leisure-Time - Physical - Activity
Jay,40.43787862,-85.00574195,Indiana,20764.0,18075,31.3,28.2,34.4,%,Crude Prevalence,Leisure-Time - Physical - Activity
Jefferson,38.78583386,-85.43825267,Indiana,32208.0,18077,28.8,25.8,31.6,%,Crude Prevalence,Leisure-Time - Physical - Activity
Jennings,38.99710816,-85.62772534,Indiana,27611.0,18079,31.5,28.4,34.5,%,Crude Prevalence,Leisure-Time - Physical - Activity
Johnson,39.49009483,-86.10147271,Indiana,156225.0,18081,26.0,22.7,29.3,%,Crude Prevalence,Leisure-Time - Physical - Activity
Knox,38.68972721,-87.41749963,Indiana,36895.0,18083,29.8,26.7,33.0,%,Crude Prevalence,Leisure-Time - Physical - Activity
Kosciusko,41.2445485,-85.86064749,Indiana,79344.0,18085,29.4,26.2,32.6,%,Crude Prevalence,Leisure-Time - Physical - Activity
LaGrange,41.64234778,-85.42669106,Indiana,39330.0,18087,32.7,29.2,36.1,%,Crude Prevalence,Leisure-Time - Physical - Activity
Lake,41.41492641,-87.3818402,Indiana,484411.0,18089,29.5,27.1,31.7,%,Crude Prevalence,Leisure-Time - Physical - Activity
LaPorte,41.54624768,-86.73994342,Indiana,110007.0,18091,30.1,27.3,32.9,%,Crude Prevalence,Leisure-Time - Physical - Activity
Lawrence,38.84115114,-86.48319018,Indiana,45668.0,18093,28.9,25.6,32.0,%,Crude Prevalence,Leisure-Time - Physical - Activity
Madison,40.16144939,-85.7195642,Indiana,129641.0,18095,30.7,27.4,33.4,%,Crude Prevalence,Leisure-Time - Physical - Activity
Marion,39.78178178,-86.1385378,Indiana,954670.0,18097,30.0,27.5,32.6,%,Crude Prevalence,Leisure-Time - Physical - Activity
Marshall,41.32487399,-86.26179966,Indiana,46248.0,18099,30.9,27.9,34.3,%,Crude Prevalence,Leisure-Time - Physical - Activity
Martin,38.70858739,-86.80282124,Indiana,10217.0,18101,28.9,25.7,32.2,%,Crude Prevalence,Leisure-Time - Physical - Activity
Miami,40.76960427,-86.04512696,Indiana,35567.0,18103,32.2,29.0,35.3,%,Crude Prevalence,Leisure-Time - Physical - Activity
Monroe,39.16111024,-86.52317588,Indiana,146917.0,18105,23.9,21.1,27.0,%,Crude Prevalence,Leisure-Time - Physical - Activity
Montgomery,40.04033554,-86.89313068,Indiana,38346.0,18107,28.0,24.7,31.2,%,Crude Prevalence,Leisure-Time - Physical - Activity
Morgan,39.48183246,-86.44627913,Indiana,70116.0,18109,27.2,24.1,30.3,%,Crude Prevalence,Leisure-Time - Physical - Activity
Newton,40.95577159,-87.3978017,Indiana,14011.0,18111,31.4,28.3,34.3,%,Crude Prevalence,Leisure-Time - Physical - Activity
Noble,41.39833847,-85.41728883,Indiana,47532.0,18113,29.0,26.1,31.9,%,Crude Prevalence,Leisure-Time - Physical - Activity
Ohio,38.94997094,-84.96468041,Indiana,5844.0,18115,27.1,24.1,30.0,%,Crude Prevalence,Leisure-Time - Physical - Activity
Orange,38.54117054,-86.49532745,Indiana,19489.0,18117,31.9,28.7,35.0,%,Crude Prevalence,Leisure-Time - Physical - Activity
Owen,39.31265802,-86.83767189,Indiana,20845.0,18119,30.2,27.0,33.1,%,Crude Prevalence,Leisure-Time - Physical - Activity
Parke,39.77372635,-87.20681006,Indiana,16927.0,18121,30.7,27.6,33.8,%,Crude Prevalence,Leisure-Time - Physical - Activity
Perry,38.07979649,-86.6382075,Indiana,19102.0,18123,29.3,26.3,32.1,%,Crude Prevalence,Leisure-Time - Physical - Activity
Pike,38.39837363,-87.23212087,Indiana,12410.0,18125,28.9,25.8,32.1,%,Crude Prevalence,Leisure-Time - Physical - Activity
Porter,41.46088039,-87.06742642,Indiana,169594.0,18127,24.1,21.5,26.9,%,Crude Prevalence,Leisure-Time - Physical - Activity
Posey,38.02422595,-87.86549926,Indiana,25540.0,18129,25.9,22.8,28.8,%,Crude Prevalence,Leisure-Time - Physical - Activity
Pulaski,41.04179355,-86.69884167,Indiana,12469.0,18131,29.9,26.7,32.8,%,Crude Prevalence,Leisure-Time - Physical - Activity
Putnam,39.66638181,-86.84504823,Indiana,37779.0,18133,28.3,25.6,31.1,%,Crude Prevalence,Leisure-Time - Physical - Activity
Randolph,40.15737546,-85.01133381,Indiana,24851.0,18135,29.2,26.0,32.3,%,Crude Prevalence,Leisure-Time - Physical - Activity
Ripley,39.10348437,-85.26223182,Indiana,28523.0,18137,28.5,25.4,31.6,%,Crude Prevalence,Leisure-Time - Physical - Activity
Rush,39.62000981,-85.46569307,Indiana,16663.0,18139,30.8,27.6,33.9,%,Crude Prevalence,Leisure-Time - Physical - Activity
St. Joseph,41.61670681,-86.28991252,Indiana,270771.0,18141,26.0,23.4,28.6,%,Crude Prevalence,Leisure-Time - Physical - Activity
Scott,38.68534147,-85.74729208,Indiana,23878.0,18143,30.6,27.5,33.7,%,Crude Prevalence,Leisure-Time - Physical - Activity
Shelby,39.52322427,-85.79159084,Indiana,44593.0,18145,28.0,24.9,31.0,%,Crude Prevalence,Leisure-Time - Physical - Activity
Spencer,38.01412885,-87.00810471,Indiana,20327.0,18147,27.7,24.8,30.9,%,Crude Prevalence,Leisure-Time - Physical - Activity
Starke,41.28096496,-86.64777783,Indiana,22935.0,18149,31.3,28.3,34.5,%,Crude Prevalence,Leisure-Time - Physical - Activity
Steuben,41.64408329,-85.00106921,Indiana,34586.0,18151,28.2,25.0,31.4,%,Crude Prevalence,Leisure-Time - Physical - Activity
Sullivan,39.0890832,-87.4140086,Indiana,20690.0,18153,29.5,26.7,32.2,%,Crude Prevalence,Leisure-Time - Physical - Activity
Switzerland,38.82629425,-85.03664271,Indiana,10717.0,18155,32.7,29.7,35.8,%,Crude Prevalence,Leisure-Time - Physical - Activity
Tippecanoe,40.38870976,-86.8940701,Indiana,193048.0,18157,27.6,24.9,30.6,%,Crude Prevalence,Leisure-Time - Physical - Activity
Tipton,40.31110579,-86.05218508,Indiana,15128.0,18159,26.5,23.5,29.6,%,Crude Prevalence,Leisure-Time - Physical - Activity
Union,39.62555022,-84.92480221,Indiana,7037.0,18161,28.3,25.0,31.4,%,Crude Prevalence,Leisure-Time - Physical - Activity
Vanderburgh,38.02515742,-87.58610192,Indiana,180974.0,18163,27.9,24.9,30.8,%,Crude Prevalence,Leisure-Time - Physical - Activity
Vermillion,39.85408373,-87.46414168,Indiana,15479.0,18165,28.6,25.6,31.6,%,Crude Prevalence,Leisure-Time - Physical - Activity
Vigo,39.4307138,-87.38970625,Indiana,107386.0,18167,30.2,27.2,33.3,%,Crude Prevalence,Leisure-Time - Physical - Activity
Wabash,40.84586409,-85.79403759,Indiana,31280.0,18169,27.9,24.9,30.9,%,Crude Prevalence,Leisure-Time - Physical - Activity
Warren,40.3466672,-87.35353232,Indiana,8263.0,18171,26.6,23.7,29.5,%,Crude Prevalence,Leisure-Time - Physical - Activity
Warrick,38.09221599,-87.27220106,Indiana,62567.0,18173,23.9,20.8,27.0,%,Crude Prevalence,Leisure-Time - Physical - Activity
Washington,38.59984583,-86.1051501,Indiana,27943.0,18175,30.5,27.3,33.7,%,Crude Prevalence,Leisure-Time - Physical - Activity
Wayne,39.86428776,-85.00999792,Indiana,65936.0,18177,31.2,27.8,34.2,%,Crude Prevalence,Leisure-Time - Physical - Activity
Wells,40.72910808,-85.22138963,Indiana,28206.0,18179,27.7,24.6,30.6,%,Crude Prevalence,Leisure-Time - Physical - Activity
White,40.74992374,-86.86541019,Indiana,24133.0,18181,27.3,24.2,30.1,%,Crude Prevalence,Leisure-Time - Physical - Activity
Whitley,41.13930903,-85.50505034,Indiana,34074.0,18183,27.1,24.1,30.2,%,Crude Prevalence,Leisure-Time - Physical - Activity
Adair,41.33075609,-94.47105874,Iowa,7063.0,19001,23.7,21.2,26.3,%,Crude Prevalence,Leisure-Time - Physical - Activity
Adams,41.02901204,-94.6993121,Iowa,3645.0,19003,23.4,20.8,26.2,%,Crude Prevalence,Leisure-Time - Physical - Activity
Allamakee,43.2841423,-91.37807715,Iowa,13832.0,19005,24.4,21.6,26.9,%,Crude Prevalence,Leisure-Time - Physical - Activity
Appanoose,40.74324681,-92.86864604,Iowa,12437.0,19007,25.6,23.0,28.7,%,Crude Prevalence,Leisure-Time - Physical - Activity
Audubon,41.6844628,-94.90581859,Iowa,5506.0,19009,22.9,20.3,25.6,%,Crude Prevalence,Leisure-Time - Physical - Activity
Benton,42.0802159,-92.06460929,Iowa,25642.0,19011,22.4,19.7,25.3,%,Crude Prevalence,Leisure-Time - Physical - Activity
Black Hawk,42.47010183,-92.30869072,Iowa,132408.0,19013,23.0,20.7,25.5,%,Crude Prevalence,Leisure-Time - Physical - Activity
Boone,42.03667226,-93.93138861,Iowa,26346.0,19015,21.0,18.4,23.8,%,Crude Prevalence,Leisure-Time - Physical - Activity
Bremer,42.77458494,-92.31797633,Iowa,24947.0,19017,20.1,17.5,22.7,%,Crude Prevalence,Leisure-Time - Physical - Activity
Buchanan,42.47108587,-91.83755723,Iowa,21199.0,19019,23.0,20.3,25.6,%,Crude Prevalence,Leisure-Time - Physical - Activity
Buena Vista,42.73545875,-95.15100162,Iowa,19874.0,19021,28.0,25.5,30.7,%,Crude Prevalence,Leisure-Time - Physical - Activity
Butler,42.73173816,-92.79017341,Iowa,14539.0,19023,22.5,19.9,25.2,%,Crude Prevalence,Leisure-Time - Physical - Activity
Calhoun,42.38521126,-94.64046395,Iowa,9699.0,19025,24.7,21.9,27.5,%,Crude Prevalence,Leisure-Time - Physical - Activity
Carroll,42.03617207,-94.86032705,Iowa,20154.0,19027,23.0,20.2,25.7,%,Crude Prevalence,Leisure-Time - Physical - Activity
Cass,41.33146007,-94.92791359,Iowa,12930.0,19029,25.4,22.1,28.4,%,Crude Prevalence,Leisure-Time - Physical - Activity
Cedar,41.77233777,-91.13246684,Iowa,18627.0,19031,21.9,19.5,24.6,%,Crude Prevalence,Leisure-Time - Physical - Activity
Cerro Gordo,43.08177563,-93.2612239,Iowa,42647.0,19033,21.6,19.1,24.1,%,Crude Prevalence,Leisure-Time - Physical - Activity
Cherokee,42.73538914,-95.62389402,Iowa,11321.0,19035,23.2,20.4,25.9,%,Crude Prevalence,Leisure-Time - Physical - Activity
Chickasaw,43.06006651,-92.31765448,Iowa,11964.0,19037,23.2,20.7,25.9,%,Crude Prevalence,Leisure-Time - Physical - Activity
