LocationName,lat,lng,StateDesc,TotalPopulation,measure_count
Abercrombie,46.44809467,-96.726889,North Dakota,263,56
Aberdeen,38.67113125,-83.77026826,Ohio,"1,638",56
Ada,40.76812756,-83.82532637,Ohio,"5,951",56
Adams,48.42014997,-98.07366434,North Dakota,127,56
Adamsville,40.0688929,-81.88263654,Ohio,117,56
Addyston,39.13708333,-84.71045475,Ohio,938,56
Adelphi,39.46462658,-82.74563263,Ohio,380,56
Adena,40.2179403,-80.8721345,Ohio,759,56
Akron,41.07976342,-81.52188826,Ohio,"199,138",56
Alamo,48.58245176,-103.4675579,North Dakota,57,56
Albany,39.22443019,-82.1976928,Ohio,836,56
Alexander,47.83931867,-103.642574,North Dakota,223,56
Alexandria,40.09002589,-82.61196361,Ohio,517,56
Alger,40.70979654,-83.84403455,Ohio,860,56
Alliance,40.91192708,-81.10244225,Ohio,"22,347",56
Almont,46.72833545,-101.502652,North Dakota,122,56
Alvordton,41.66466749,-84.4346788,Ohio,217,56
Amanda,39.65016269,-82.74215291,Ohio,737,56
Amberley,39.20348968,-84.42828746,Ohio,"3,585",56
Amelia,39.02014824,-84.216987,Ohio,"4,801",56
Amenia,47.00648449,-97.22410433,North Dakota,97,56
Amesville,39.40148696,-81.95495692,Ohio,154,56
Amherst,41.4023276,-82.226035,Ohio,"12,021",56
Amsterdam,40.4717335,-80.92168822,Ohio,511,56
Anamoose,47.88180261,-100.241051,North Dakota,227,56
Andersonville,39.43389796,-83.01896126,Ohio,779,56
Andover,41.60655055,-80.56868635,Ohio,"1,145",56
Aneta,47.67953453,-97.98972314,North Dakota,222,56
Anna,40.39579438,-84.17590139,Ohio,"1,567",56
Ansonia,40.21169919,-84.632481,Ohio,"1,174",56
Antioch,39.6610655,-81.06699497,Ohio,86,56
Antwerp,41.17978074,-84.73775806,Ohio,"1,736",56
Apple Creek,40.74860952,-81.83334442,Ohio,"1,173",56
Apple Valley,40.4388742,-82.34811627,Ohio,"5,058",56
Aquilla,41.54682307,-81.1724145,Ohio,340,56
Arcadia,41.10538343,-83.5163465,Ohio,590,56
Arcanum,39.99235021,-84.55436004,Ohio,"2,122",56
Archbold,41.51654751,-84.30359956,Ohio,"4,346",56
Ardoch,48.20544631,-97.33803299,North Dakota,67,54
Argusville,47.05006843,-96.94314069,North Dakota,475,56
Arlington,40.89388373,-83.65295363,Ohio,"1,455",56
Arlington Heights,39.2153449,-84.45554224,Ohio,745,56
Arnegard,47.80841863,-103.4387722,North Dakota,115,56
Arthur,47.10426814,-97.21835466,North Dakota,337,56
Ashland,40.86701431,-82.31567247,Ohio,"20,391",56
Ashley,40.40980543,-82.95165269,Ohio,"1,330",56
Ashley,46.03474398,-99.37367706,North Dakota,749,56
Ashtabula,41.88046993,-80.7984409,Ohio,"19,124",56
Ashville,39.71833986,-82.948327,Ohio,"4,101",56
Athalia,38.51270122,-82.30955551,Ohio,373,56
Athens,39.32516076,-82.1114475,Ohio,"23,832",56
Attica,41.06347656,-82.88714187,Ohio,899,56
Atwater,41.02656304,-81.16220235,Ohio,758,56
Aurora,41.31185007,-81.34501389,Ohio,"15,548",56
Austinburg,41.76916878,-80.85560411,Ohio,516,56
Austintown,41.09321295,-80.7404759,Ohio,"29,677",56
Avon,41.44852344,-82.01873952,Ohio,"21,193",56
Avon Lake,41.49446693,-82.0160434,Ohio,"22,581",56
Bailey Lakes,40.94899568,-82.35696625,Ohio,371,56
Bainbridge,39.22646381,-83.26956169,Ohio,860,56
Bainbridge,41.38909549,-81.33090425,Ohio,"3,267",56
Bairdstown,41.1711843,-83.60728881,Ohio,130,56
Ballville,41.32694997,-83.13672159,Ohio,"2,976",56
Balta,48.16659152,-100.0368886,North Dakota,65,56
Baltic,40.44367709,-81.7016263,Ohio,795,56
Baltimore,39.84603913,-82.60468722,Ohio,"2,989",56
Bannock,40.10425907,-80.97555915,Ohio,211,56
Barberton,41.00945511,-81.60370361,Ohio,"26,537",56
Barnesville,39.98881911,-81.17268437,Ohio,"4,193",56
Barney,46.26584371,-96.99883424,North Dakota,52,56
Barnhill,40.44966261,-81.36790749,Ohio,396,56
Bascom,41.12904209,-83.28692521,Ohio,390,56
Batavia,39.07804006,-84.1802945,Ohio,"1,622",56
Batesville,39.91560935,-81.28236335,Ohio,71,56
Bay View,41.46831385,-82.82491692,Ohio,632,56
Bay Village,41.48505952,-81.93165905,Ohio,"15,651",56
Bayfield,46.81536935,-90.82549,Wisconsin,487,2
Beach,46.91524579,-104.007687,North Dakota,"1,019",56
Beach City,40.65312342,-81.57955281,Ohio,"1,047",56
Beachwood,41.4758604,-81.50296591,Ohio,"11,953",56
Beallsville,39.84954552,-81.0361625,Ohio,409,56
Beaver,39.03192209,-82.82525406,Ohio,449,56
Beavercreek,39.73099857,-84.06236262,Ohio,"45,192",56
Beaverdam,40.83279967,-83.97378831,Ohio,382,56
Beckett Ridge,39.34576364,-84.44901375,Ohio,"9,187",56
Bedford,41.3973252,-81.539274,Ohio,"13,074",56
Bedford Heights,41.40413552,-81.50531815,Ohio,"10,751",56
Beechwood Trails,40.02519084,-82.64615072,Ohio,"2,762",56
Belcourt,48.8416961,-99.7447128,North Dakota,"2,078",56
Belfield,46.88588362,-103.1989405,North Dakota,798,56
Bellaire,40.01356612,-80.7482005,Ohio,"4,278",56
Bellbrook,39.63835098,-84.08628801,Ohio,"6,943",56
Belle Center,40.50888601,-83.74533964,Ohio,813,56
Belle Valley,39.788819,-81.55653155,Ohio,223,56
Bellefontaine,40.36270719,-83.7625268,Ohio,"13,374",56
Bellevue,41.27432942,-82.83972939,Ohio,"8,280",56
Bellevue,44.45925519,-87.95535802,Wisconsin,"14,629",14
Bellville,40.64158405,-82.541019,Ohio,"1,918",56
Belmont,40.02797941,-81.04093287,Ohio,453,56
Belmont,42.73788147,-90.33453024,Wisconsin,986,32
Belmore,41.1548383,-83.94169727,Ohio,143,56
Beloit,40.91953845,-80.99633832,Ohio,978,56
Beloit,42.51084158,-89.04688775,Wisconsin,"36,981",26
Belpre,39.28142785,-81.59704737,Ohio,"6,441",56
Benedict,47.83013237,-101.084323,North Dakota,66,56
Bentleyville,41.41217634,-81.41208409,Ohio,864,56
Benton Ridge,41.00423584,-83.79266439,Ohio,299,56
Bentonville,38.74551852,-83.61026691,Ohio,287,56
Berea,41.36964093,-81.86421251,Ohio,"19,093",56
Bergholz,40.52079604,-80.88505689,Ohio,664,56
Berkey,41.70834676,-83.83836404,Ohio,237,56
Berlin,40.56273285,-81.80114138,Ohio,898,56
Berlin Heights,41.32043146,-82.49041991,Ohio,714,56
Berthold,48.3164841,-101.7590223,North Dakota,458,56
Bethel,38.96271314,-84.08465641,Ohio,"2,749",56
Bethesda,40.01640887,-81.07276238,Ohio,"1,256",56
Bettsville,41.24405496,-83.23387248,Ohio,661,56
Beulah,47.24871694,-101.7782665,North Dakota,"3,119",56
Beulah Beach,41.39184955,-82.44301296,Ohio,53,56
Beverly,39.54998465,-81.63620135,Ohio,"1,313",56
Bexley,39.96502334,-82.93424408,Ohio,"13,057",56
Big Falls,44.61743495,-89.01661213,Wisconsin,61,1
Binford,47.56042433,-98.34562804,North Dakota,183,56
Bisbee,48.62720991,-99.37877317,North Dakota,126,56
Bismarck,46.81489112,-100.7695502,North Dakota,"61,382",56
Blacklick Estates,39.90489847,-82.86548687,Ohio,"8,682",56
Bladensburg,40.28520943,-82.28365518,Ohio,191,56
Blakeslee,41.52421271,-84.73084577,Ohio,96,56
Blanchester,39.2881024,-83.97713,Ohio,"4,243",56
Bloomdale,41.17157105,-83.55343654,Ohio,678,56
Bloomingburg,39.60792935,-83.39528634,Ohio,938,56
Bloomingdale,40.34222795,-80.81785031,Ohio,202,56
Bloomville,41.05137324,-83.01366839,Ohio,956,56
Blue Ash,39.24802578,-84.38267326,Ohio,"12,112",56
Blue Jay,39.23085212,-84.74429528,Ohio,959,56
Bluffton,40.89123847,-83.88861764,Ohio,"4,178",56
Boardman,41.03336097,-80.66707186,Ohio,"35,376",56
Bolindale,41.20884717,-80.77843573,Ohio,"2,059",56
Bolivar,40.6505905,-81.455453,Ohio,994,56
Boston Heights,41.2538591,-81.50895635,Ohio,"1,300",56
Botkins,40.46777373,-84.1858515,Ohio,"1,155",56
Bottineau,48.82479918,-100.4425225,North Dakota,"2,211",56
Bourneville,39.28285575,-83.15961059,Ohio,199,56
Bowbells,48.80363924,-102.2471411,North Dakota,336,56
Bowdon,47.46851437,-99.7088678,North Dakota,131,56
Bowerston,40.42726194,-81.18738689,Ohio,398,56
Bowersville,39.58078679,-83.72332569,Ohio,327,56
Bowling Green,41.37718627,-83.65017082,Ohio,"30,028",56
Bowman,46.1840267,-103.3992033,North Dakota,"1,650",56
Bradford,40.13181978,-84.42927352,Ohio,"1,842",56
Bradner,41.32367223,-83.43631584,Ohio,985,56
Brady Lake,41.16230127,-81.31420255,Ohio,464,56
Bratenahl,41.55427516,-81.60495238,Ohio,"1,197",56
Brecksville,41.30793599,-81.61932766,Ohio,"13,656",56
Brecon,39.27971054,-84.35210417,Ohio,244,56
Bremen,39.70608076,-82.42955198,Ohio,"1,425",56
Brewster,40.71353514,-81.59924377,Ohio,"2,132",56
Briarwood,46.78700196,-96.79477064,North Dakota,73,56
Brice,39.91765077,-82.830926,Ohio,114,56
Bridgeport,40.06707901,-80.74761569,Ohio,"1,831",56
Bridgetown,39.15514215,-84.63592875,Ohio,"14,407",56
Brilliant,40.27016169,-80.63193126,Ohio,"1,482",56
Brimfield,41.09413757,-81.34824024,Ohio,"3,343",56
Broadview Heights,41.31403761,-81.689214,Ohio,"19,400",56
Brocket,48.2094955,-98.35190125,North Dakota,57,56
Brook Park,41.40366634,-81.82175901,Ohio,"19,212",56
Brookfield Center,41.23836093,-80.55480711,Ohio,"1,207",56
Brooklyn,41.43486604,-81.74979397,Ohio,"11,169",56
Brooklyn Heights,41.41780178,-81.667995,Ohio,"1,543",56
Brookside,40.07082942,-80.76061163,Ohio,632,56
Brooktree Park,47.00388427,-96.89569305,North Dakota,80,56
Brookville,39.83483067,-84.4123595,Ohio,"5,884",56
Broughton,41.08800981,-84.53498365,Ohio,120,56
Brownsville,39.94371553,-82.2516559,Ohio,220,56
Brunswick,41.24685987,-81.81987953,Ohio,"34,259",56
Bryan,41.47065552,-84.54839558,Ohio,"8,500",56
Buchanan,47.06259909,-98.82901775,North Dakota,90,56
Buchtel,39.46337507,-82.18105632,Ohio,558,56
Buckeye Lake,39.93658622,-82.483404,Ohio,"2,746",56
Buckland,40.62343332,-84.25999509,Ohio,233,56
Bucyrus,40.80537257,-82.97185581,Ohio,"12,362",56
Buffalo,39.91686151,-81.52041815,Ohio,401,56
Buffalo,46.91925972,-97.55061915,North Dakota,188,56
Buford,39.07198807,-83.83926629,Ohio,352,56
Burbank,40.98716902,-81.9946865,Ohio,207,56
Burgoon,41.26741363,-83.25074334,Ohio,172,56
Burkettsville,40.35305906,-84.64251491,Ohio,244,56
Burlington,38.4093929,-82.527727,Ohio,"2,676",56
Burlington,42.6736957,-88.27053066,Wisconsin,"10,527",26
Burlington,48.24413884,-101.411796,North Dakota,"1,071",56
Burnett,43.50649623,-88.70844056,Wisconsin,256,9
Burton,41.47076385,-81.14558815,Ohio,"1,455",56
Butler,40.58959029,-82.4211524,Ohio,933,56
Butlerville,39.30161809,-84.09037442,Ohio,163,56
Butte,47.83696845,-100.6658412,North Dakota,68,56
Buxton,47.60229088,-97.097949,North Dakota,323,56
Byesville,39.97332364,-81.54581325,Ohio,"2,438",56
Cadiz,40.26442617,-80.99803335,Ohio,"3,353",56
Cairo,40.83075249,-84.08448874,Ohio,524,56
Calcutta,40.68470909,-80.56239158,Ohio,"3,742",56
Caldwell,39.74601963,-81.5148655,Ohio,"1,748",56
Caledonia,40.63631091,-82.96939143,Ohio,577,56
Cambridge,40.02222194,-81.58654918,Ohio,"10,635",56
Camden,39.63731022,-84.64460655,Ohio,"2,046",56
Camp Dennison,39.19396632,-84.29242875,Ohio,376,56
Campbell,41.07769437,-80.59031575,Ohio,"8,235",56
Canal Fulton,40.88952063,-81.58822106,Ohio,"5,507",56
Canal Lewisville,40.29894747,-81.84023197,Ohio,320,56
Canal Winchester,39.84319974,-82.81214417,Ohio,"7,101",56
Candlewood Lake,40.62142606,-82.77638365,Ohio,"1,147",56
Cando,48.48697109,-99.20542825,North Dakota,"1,115",56
Canfield,41.03144821,-80.76714026,Ohio,"7,509",56
Cannon Ball,46.31728378,-100.6357403,North Dakota,875,56
Canton,40.80760748,-81.36811,Ohio,"73,557",56
Carbon Hill,39.50206104,-82.24256163,Ohio,233,56
Cardington,40.49798661,-82.89364933,Ohio,"2,047",56
Carey,40.95094603,-83.3778535,Ohio,"3,674",56
Carlisle,39.58072421,-84.32002804,Ohio,"4,915",56
Carpio,48.44311896,-101.7152803,North Dakota,157,56
Carrington,47.45202962,-99.13038511,North Dakota,"2,067",56
Carroll,39.8025849,-82.70617887,Ohio,525,56
Carrollton,40.58045234,-81.0899639,Ohio,"3,241",56
Carson,46.42230786,-101.5706178,North Dakota,293,56
Cashton,43.74326748,-90.78182636,Wisconsin,"1,106",7
Casselton,46.89723547,-97.21289356,North Dakota,"2,329",56
Casstown,40.0527674,-84.12851326,Ohio,267,56
Cassville,42.7154575,-90.988077,Wisconsin,947,10
Castalia,41.40098777,-82.80805899,Ohio,852,56
Castine,39.93104255,-84.62471774,Ohio,130,56
Cataract,44.08673557,-90.83841415,Wisconsin,186,10
Catawba,39.99962657,-83.62190302,Ohio,272,56
Catawba,45.53710486,-90.53351619,Wisconsin,110,3
Cavalier,48.79356332,-97.62293673,North Dakota,"1,303",56
Cecil,41.21907852,-84.60173994,Ohio,188,56
Cedarville,39.74747331,-83.81127727,Ohio,"4,023",56
Celeryville,41.02873362,-82.72733169,Ohio,210,56
Celina,40.55522426,-84.5582875,Ohio,"10,400",56
Center,47.11493124,-101.2976762,North Dakota,571,56
Centerburg,40.30393979,-82.69769111,Ohio,"1,773",56
Centerville,39.63388075,-84.14494825,Ohio,"24,233",56
Centerville (Thurman),38.89787403,-82.44577499,Ohio,103,56
Chagrin Falls,41.43199274,-81.3886839,Ohio,"4,113",56
Champion Heights,41.30310903,-80.85138007,Ohio,"6,498",56
Chardon,41.58025302,-81.20812578,Ohio,"5,148",56
Chatfield,40.95120555,-82.94195948,Ohio,189,56
Chauncey,39.40052314,-82.12605215,Ohio,"1,049",56
Cherry Fork,38.88715422,-83.61255106,Ohio,155,56
Cherry Grove,39.08022809,-84.32196794,Ohio,"4,378",56
Chesapeake,38.42796678,-82.4564095,Ohio,745,56
Cheshire,38.9504092,-82.11301024,Ohio,132,56
Chesterhill,39.49071942,-81.86671406,Ohio,289,56
Chesterland,41.52125895,-81.33629133,Ohio,"2,521",56
Chesterville,40.477695,-82.68176017,Ohio,228,56
Cheviot,39.15765491,-84.61390761,Ohio,"8,379",56
Chickasaw,40.43658988,-84.49363751,Ohio,290,56
Chillicothe,39.33483911,-82.9993695,Ohio,"21,901",56
Chilo,38.79339811,-84.13731886,Ohio,63,56
Chippewa Lake,41.07354164,-81.905375,Ohio,711,56
Chippewa Park,40.51603664,-83.88752528,Ohio,891,56
Choctaw Lake,39.96086257,-83.48745777,Ohio,"1,897",56
Christiansburg,40.05674727,-84.02553551,Ohio,526,56
Christine,46.57514932,-96.80663697,North Dakota,150,56
Churchill,41.16918318,-80.66597612,Ohio,"2,149",56
Cincinnati,39.15580142,-84.5404575,Ohio,"297,050",56
Cinnamon Lake,40.98350876,-82.19134498,Ohio,"1,243",56
Circleville,39.60619231,-82.9334331,Ohio,"13,544",56
Clarington,39.78198671,-80.8612525,Ohio,385,56
Clarksburg,39.50589832,-83.1540809,Ohio,455,56
Clarksville,39.40164631,-83.98282797,Ohio,548,56
Clarktown,38.85381725,-82.9055715,Ohio,958,56
Clay Center,41.57320046,-83.36429774,Ohio,276,56
Clayton,39.87648723,-84.3526315,Ohio,"13,209",56
Cleveland,41.47652781,-81.68056915,Ohio,"396,815",56
Cleveland,46.89102703,-99.11956159,North Dakota,83,56
Cleveland Heights,41.51123762,-81.5635743,Ohio,"46,121",56
Cleves,39.16350385,-84.74680939,Ohio,"3,234",56
Clifton,39.7971755,-83.8257149,Ohio,152,56
Clinton,40.92837904,-81.63042264,Ohio,"1,214",56
Cloverdale,41.01929018,-84.30340685,Ohio,168,56
Clyde,41.3044963,-82.97821718,Ohio,"6,349",56
Coal Grove,38.49762006,-82.64231919,Ohio,"2,165",56
Coalton,39.11175673,-82.61081107,Ohio,479,56
Cogswell,46.10696746,-97.78423043,North Dakota,100,56
Coldstream,39.04798712,-84.34735006,Ohio,"1,173",56
Coldwater,40.48330044,-84.63166961,Ohio,"4,427",56
Coleharbor,47.5425331,-101.2213654,North Dakota,79,56
Colfax,46.47094414,-96.87245663,North Dakota,121,56
College Corner,39.5669548,-84.81248175,Ohio,407,56
Collins,41.25083153,-82.49147937,Ohio,631,56
Columbiana,40.88951849,-80.69139025,Ohio,"6,392",56
Columbus,39.98859063,-82.98861541,Ohio,"788,675",56
Columbus,48.90498186,-102.7811759,North Dakota,133,56
Columbus Grove,40.92046507,-84.05978638,Ohio,"2,158",56
Commercial Point,39.76841382,-83.0627405,Ohio,"1,608",56
Concorde Hills,39.21076827,-84.35733242,Ohio,663,56
Conesville,40.18513562,-81.89202896,Ohio,339,56
Congress,40.92532247,-82.05592481,Ohio,185,56
Conneaut,41.9275638,-80.56857993,Ohio,"12,841",56
Connorville,40.19370187,-80.71760644,Ohio,50,48
Continental,41.10054466,-84.27189752,Ohio,"1,178",56
Convoy,40.91773523,-84.70526928,Ohio,"1,085",56
Coolville,39.22013725,-81.79780876,Ohio,496,56
Cooperstown,47.44510215,-98.12584877,North Dakota,984,56
Corning,39.60167148,-82.08756657,Ohio,583,56
Cortland,41.3319413,-80.7195123,Ohio,"7,131",56
Corwin,39.52524479,-84.0641385,Ohio,421,56
Coshocton,40.26176972,-81.84810844,Ohio,"11,221",56
Covedale,39.1267038,-84.63695107,Ohio,"6,451",56
Covington,40.11738081,-84.35102651,Ohio,"2,584",56
Craig Beach,41.11598984,-80.98271963,Ohio,"1,180",56
Crary,48.07163768,-98.6384295,North Dakota,142,56
Crestline,40.78395409,-82.73567925,Ohio,"4,625",56
Creston,40.97684284,-81.89979328,Ohio,"2,171",56
Cridersville,40.65374485,-84.1445435,Ohio,"1,852",56
Crooksville,39.76916304,-82.0955426,Ohio,"2,534",56
Crosby,48.91121289,-103.2915275,North Dakota,"1,070",56
Crown City,38.58996467,-82.29112334,Ohio,413,56
Crystal,48.5980942,-97.6685742,North Dakota,138,56
Crystal Lakes,39.88617363,-84.0242189,Ohio,"1,483",56
Crystal Rock,41.44778678,-82.84192371,Ohio,176,56
Cumberland,39.85254341,-81.658697,Ohio,367,56
Curtice,41.61131129,-83.381855,Ohio,"1,536",56
Custar,41.2845959,-83.8438097,Ohio,179,56
Cuyahoga Falls,41.14025127,-81.48426425,Ohio,"49,659",56
Cuyahoga Heights,41.43501415,-81.65621438,Ohio,638,56
Cygnet,41.2406825,-83.64374372,Ohio,597,56
Cynthiana,39.17362233,-83.34845287,Ohio,68,56
Dalton,40.79855469,-81.70333505,Ohio,"1,830",56
Damascus,40.90423237,-80.95234614,Ohio,443,56
Danville,40.4470923,-82.26071046,Ohio,"1,046",56
Darbydale,39.85447073,-83.1794731,Ohio,793,56
Darbyville,39.69572306,-83.1138383,Ohio,222,56
Darrtown,39.49747389,-84.66902917,Ohio,516,56
Davenport,46.7148107,-97.06568209,North Dakota,252,56
Dawson,46.86645306,-99.755174,North Dakota,61,56
Day Heights,39.17383783,-84.2313695,Ohio,"2,620",56
Dayton,39.76874312,-84.19876061,Ohio,"141,542",56
Dazey,47.18835092,-98.2007022,North Dakota,104,56
De Graff,40.31140682,-83.9170505,Ohio,"1,285",56
Deer Park,39.20386484,-84.39776958,Ohio,"5,736",56
Deering,48.39620966,-101.051998,North Dakota,98,56
Deersville,40.30826071,-81.18802064,Ohio,79,56
Defiance,41.28148957,-84.36544191,Ohio,"16,959",56
Delaware,40.28616457,-83.07459126,Ohio,"34,813",56
Delhi Hills,39.08864838,-84.618047,Ohio,"5,259",56
Dellroy,40.55503301,-81.19921895,Ohio,356,56
Delphos,40.84374798,-84.3397275,Ohio,"7,108",56
Delshire,39.08844752,-84.59497665,Ohio,"3,180",56
Delta,41.57529951,-84.00827524,Ohio,"3,130",56
Dennison,40.39435654,-81.32796253,Ohio,"2,655",56
Dent,39.19219203,-84.65930063,Ohio,"10,497",56
Derby,39.76398305,-83.20680301,Ohio,408,56
Des Lacs,48.25639087,-101.5636043,North Dakota,204,56
Deshler,41.20744911,-83.9055478,Ohio,"1,799",56
Devils Lake,48.11210632,-98.8738858,North Dakota,"7,153",56
Devola,39.47391298,-81.46798575,Ohio,"2,652",56
Dexter City,39.65878042,-81.47279025,Ohio,129,56
Dickinson,46.89174338,-102.7924219,North Dakota,"17,878",56
Dillonvale,39.21730076,-84.4030036,Ohio,"3,474",56
Dillonvale,40.19853202,-80.77565941,Ohio,665,56
Dodge,47.30567239,-102.2029358,North Dakota,87,56
Dola,40.78476969,-83.69893247,Ohio,140,56
Donnelsville,39.91399236,-83.9403515,Ohio,292,56
Donnybrook,48.50773104,-101.8870544,North Dakota,59,56
Douglas,47.85800907,-101.5018634,North Dakota,64,56
Dover,40.53056665,-81.48077171,Ohio,"12,826",56
Doylestown,40.96711823,-81.694988,Ohio,"3,051",56
Drake,47.9225732,-100.3745433,North Dakota,275,56
Drayton,48.56206085,-97.17949571,North Dakota,824,56
Dresden,40.12155984,-82.008946,Ohio,"1,543",56
Drexel,39.73816154,-84.29303371,Ohio,"2,076",56
Driscoll,46.8426826,-100.1439053,North Dakota,82,56
Dry Ridge,39.25872631,-84.63386953,Ohio,"2,782",56
Dry Run,39.10491838,-84.33122078,Ohio,"7,281",56
Dublin,40.11091206,-83.14595493,Ohio,"41,613",56
Duncan Falls,39.87772491,-81.91120022,Ohio,880,56
Dundee,40.58681495,-81.6069406,Ohio,297,56
Dunkirk,40.78800003,-83.64294164,Ohio,875,56
Dunlap,39.29079759,-84.63026468,Ohio,"1,719",56
Dunn Center,47.35390729,-102.6270133,North Dakota,146,56
Dunseith,48.81303295,-100.062233,North Dakota,773,56
Dupont,41.05467725,-84.30104348,Ohio,318,56
Dwight,46.3038325,-96.73993342,North Dakota,82,56
Eagleview,40.05981388,-75.67896083,Pennsylvania,"1,644",9
East Canton,40.78894632,-81.28502858,Ohio,"1,591",56
East Cleveland,41.53178014,-81.57950041,Ohio,"17,843",56
East Dunseith,48.86353932,-100.0351545,North Dakota,500,56
East Fairview,47.8554611,-104.0374402,North Dakota,76,56
East Fultonham,39.84951995,-82.119161,Ohio,335,56
East Liberty,40.33393776,-83.58501862,Ohio,366,56
East Liverpool,40.62674568,-80.5788205,Ohio,"11,300",56
East Palestine,40.83906719,-80.5466077,Ohio,"4,721",56
East Rochester,40.74948539,-81.03993743,Ohio,231,56
East Sparta,40.65977733,-81.3644105,Ohio,819,56
East Springfield,40.44738812,-80.85992397,Ohio,118,48
Eastlake,41.65819727,-81.43225802,Ohio,"18,577",56
Eaton,39.75053799,-84.63414251,Ohio,"8,410",56
Eaton Estates,41.30607849,-82.01143188,Ohio,"1,222",56
Edgeley,46.36255884,-98.7142685,North Dakota,563,56
Edgerton,41.44930224,-84.7499931,Ohio,"2,011",56
Edgewood,41.8783952,-80.74604541,Ohio,"4,432",56
Edinburg,48.49550161,-97.86296776,North Dakota,196,56
Edison,40.55825578,-82.86322045,Ohio,437,56
Edmore,48.4124377,-98.45364553,North Dakota,182,56
Edon,41.55615888,-84.76940079,Ohio,834,56
Eldorado,39.90425637,-84.67533083,Ohio,509,56
Elgin,40.74256427,-84.47600183,Ohio,57,56
Elgin,46.4003218,-101.8516215,North Dakota,642,56
Elida,40.78349053,-84.19255225,Ohio,"1,908",56
Elizabethtown,39.16214472,-84.80377669,Ohio,350,56
Ellendale,46.00435482,-98.52535394,North Dakota,"1,394",56
Elmore,41.47054165,-83.29121068,Ohio,"1,423",56
Elmwood Place,39.18554922,-84.48900028,Ohio,"2,188",56
Elyria,41.376057,-82.10684123,Ohio,"54,533",56
Embden,46.80356894,-97.440446,North Dakota,59,54
Emerado,47.93020115,-97.36162875,North Dakota,430,56
Empire,40.51168532,-80.62611774,Ohio,299,56
Enderlin,46.62398213,-97.60267166,North Dakota,886,56
Englewood,39.86950683,-84.3055315,Ohio,"13,465",56
Enon,39.8650355,-83.93304049,Ohio,"2,415",56
Epping,48.28107542,-103.3614488,North Dakota,100,56
Erie,47.11534607,-97.38791756,North Dakota,50,56
Esmond,48.03309576,-99.76475984,North Dakota,100,56
Etna,39.95421766,-82.68781832,Ohio,"1,215",56
Euclid,41.59039922,-81.51884713,Ohio,"48,920",56
Evendale,39.25087111,-84.42673963,Ohio,"2,767",56
Fairborn,39.80110658,-84.00930063,Ohio,"32,506",56
Fairfax,39.14315993,-84.39717839,Ohio,"1,699",56
Fairfield,39.33012119,-84.54103883,Ohio,"42,510",56
Fairfield Beach,39.91826321,-82.47911676,Ohio,"1,292",56
Fairlawn,41.12705803,-81.62159047,Ohio,"7,529",56
Fairmount,46.05469498,-96.60290733,North Dakota,367,56
Fairport Harbor,41.74757537,-81.27309635,Ohio,"3,109",56
Fairview,40.05734878,-81.23493907,Ohio,83,56
Fairview Park,41.4419815,-81.85296485,Ohio,"16,829",56
Fargo,46.86518187,-96.82915871,North Dakota,"105,604",56
Farmersville,39.67870297,-84.42743114,Ohio,"1,009",56
Fayette,41.67275496,-84.32842802,Ohio,"1,286",56
Fayetteville,39.18483573,-83.93174909,Ohio,330,56
Felicity,38.83894235,-84.0984806,Ohio,818,56
Fessenden,47.64930762,-99.62700799,North Dakota,479,56
Findlay,41.04669678,-83.63792347,Ohio,"41,213",56
Fingal,46.76228709,-97.79299691,North Dakota,97,56
Finley,47.51017061,-97.8357485,North Dakota,445,56
Finneytown,39.21589189,-84.51451445,Ohio,"12,481",56
Five Points,39.55948613,-84.18678154,Ohio,"1,824",56
Flasher,46.45213752,-101.2324518,North Dakota,232,56
Flat Rock,41.23546674,-82.85919711,Ohio,233,56
Flaxton,48.8974422,-102.3932294,North Dakota,66,56
Fletcher,40.14178806,-84.11187391,Ohio,473,56
Florida,41.32378725,-84.20020942,Ohio,232,56
Flushing,40.14816214,-81.06437367,Ohio,879,56
Forbes,45.94251056,-98.78201886,North Dakota,53,56
Fordville,48.2165923,-97.7953756,North Dakota,212,56
Forest,40.8051119,-83.51160916,Ohio,"1,461",56
Forest Park,39.28608763,-84.5258255,Ohio,"18,720",56
Forest River,48.2165537,-97.47031903,North Dakota,125,56
Forestville,39.07112664,-84.33887702,Ohio,"10,532",56
Forman,46.10401289,-97.63691547,North Dakota,495,56
Fort Jennings,40.90680541,-84.29967241,Ohio,485,56
Fort Loramie,40.34428314,-84.36954364,Ohio,"1,478",56
Fort Ransom,46.52272747,-97.92841475,North Dakota,77,56
Fort Recovery,40.41102491,-84.77581762,Ohio,"1,443",56
Fort Seneca,41.20362261,-83.1688525,Ohio,254,56
Fort Shawnee,40.68143167,-84.14869754,Ohio,"6,368",56
Fort Totten,47.97160901,-98.99718606,North Dakota,"1,243",56
Fort Yates,46.08659414,-100.630078,North Dakota,184,56
Fostoria,41.16018982,-83.41191328,Ohio,"13,441",56
Four Bears Village,47.98552489,-102.5926915,North Dakota,517,56
Four Bridges,39.38280718,-84.35423713,Ohio,"2,919",56
Foxholm,48.36541457,-101.5721207,North Dakota,75,56
Frankfort,39.40466582,-83.17817875,Ohio,"1,064",56
Franklin,39.55441368,-84.2944135,Ohio,"11,771",56
Franklin Furnace,38.61318285,-82.84526625,Ohio,"1,660",56
Frazeysburg,40.11668044,-82.1151485,Ohio,"1,335",56
Fredericksburg,40.67715924,-81.86977436,Ohio,423,56
Fredericktown,40.47848257,-82.54869769,Ohio,"2,493",56
Freeport,40.210983,-81.26872489,Ohio,369,56
Fremont,41.35330327,-83.11346187,Ohio,"16,757",56
Fresno,40.33080186,-81.7386274,Ohio,140,56
Friendship,38.69797725,-83.10048579,Ohio,351,56
Frontier,46.80027526,-96.83329425,North Dakota,223,56
Fruit Hill,39.06981062,-84.36700475,Ohio,"3,755",56
Fullerton,46.16322776,-98.42731279,North Dakota,54,56
Fulton,40.46265785,-82.82729,Ohio,258,56
Fultonham,39.85570193,-82.14078164,Ohio,176,56
Gackle,46.62655021,-99.13657325,North Dakota,310,56
Gahanna,40.03170964,-82.8806585,Ohio,"33,250",56
Galena,40.22184911,-82.88124916,Ohio,653,56
Galesburg,47.27009818,-97.40876051,North Dakota,108,56
Galion,40.73859439,-82.77894711,Ohio,"10,512",56
Gallipolis,38.82213472,-82.189037,Ohio,"3,641",56
Gambier,40.37636343,-82.39482876,Ohio,"2,391",56
Gann (Brinkhaven),40.4691945,-82.19133828,Ohio,125,56
Gardner,47.14451118,-96.96861718,North Dakota,74,56
Garfield Heights,41.41993737,-81.60375643,Ohio,"28,849",56
Garrettsville,41.28430936,-81.09324216,Ohio,"2,329",56
Garrison,47.65331528,-101.4222094,North Dakota,"1,453",56
Gates Mills,41.53152821,-81.40995518,Ohio,"2,270",56
Geneva,41.80066854,-80.94618645,Ohio,"6,215",56
Geneva-on-the-Lake,41.85757691,-80.950441,Ohio,"1,288",56
Genoa,41.5203798,-83.36188984,Ohio,"2,346",56
Georgetown,38.86824558,-83.89921048,Ohio,"4,331",56
Germantown,39.62828532,-84.365214,Ohio,"5,547",56
Gettysburg,40.11559329,-84.49637102,Ohio,513,56
Gibsonburg,41.38752153,-83.32165801,Ohio,"2,581",56
Gilboa,41.01879875,-83.92167481,Ohio,184,56
Gilby,48.08350242,-97.4677231,North Dakota,237,56
Girard,41.16665945,-80.69627243,Ohio,"9,954",56
Gladstone,46.86045511,-102.570678,North Dakota,239,56
Glandorf,41.02783116,-84.07904666,Ohio,"1,001",56
Glen Ullin,46.81198707,-101.8332291,North Dakota,807,56
Glenburn,48.51349602,-101.2208916,North Dakota,382,56
Glencoe,40.01052573,-80.88141848,Ohio,310,56
Glendale,39.27065787,-84.45853739,Ohio,"2,155",56
Glenfield,47.45507153,-98.56620281,North Dakota,91,56
Glenford,39.88507745,-82.32173575,Ohio,173,56
Glenmont,40.51984489,-82.09736775,Ohio,272,56
Glenmoor,40.66392377,-80.61329735,Ohio,"1,987",56
Glenwillow,41.3606233,-81.47280003,Ohio,923,56
Gloria Glens Park,41.0578038,-81.9010325,Ohio,425,56
Glouster,39.50229587,-82.0842303,Ohio,"1,791",56
Gnadenhutten,40.35947082,-81.42929372,Ohio,"1,288",56
Golden Valley,47.29015198,-102.0652262,North Dakota,182,56
Golf Manor,39.18776767,-84.44690825,Ohio,"3,611",56
Golva,46.73468278,-103.9829088,North Dakota,61,56
Good Hope,39.44708213,-83.3585295,Ohio,234,56
Goodrich,47.47592133,-100.124721,North Dakota,98,56
Gordon,39.93026723,-84.50906745,Ohio,212,56
Goshen,39.2325264,-84.15328323,Ohio,627,48
Grace City,47.55130448,-98.80387045,North Dakota,63,56
Grafton,41.2807498,-82.03685031,Ohio,"6,636",56
Grafton,48.41423623,-97.40552468,North Dakota,"4,288",56
Grand Forks,47.9218609,-97.09048847,North Dakota,"52,934",56
Grand Forks AFB,47.95568269,-97.39127998,North Dakota,"2,367",54
Grand Rapids,41.40928891,-83.8611905,Ohio,965,56
Grand River,41.74180602,-81.28463267,Ohio,399,56
Grandin,47.23671952,-97.00321905,North Dakota,173,56
Grandview,39.1900227,-84.73939275,Ohio,"1,466",56
Grandview Heights,39.97936188,-83.04083291,Ohio,"6,536",56
Granville,40.07003146,-82.52187,Ohio,"6,066",56
Granville,48.2662828,-100.8451629,North Dakota,241,56
Granville South,40.05208607,-82.54153357,Ohio,"1,410",56
Gratiot,39.95149543,-82.2167798,Ohio,221,56
Gratis,39.64841463,-84.52861127,Ohio,881,56
Graysville,39.66334553,-81.17458429,Ohio,76,56
Great Bend,46.15463788,-96.80099493,North Dakota,60,56
Green,40.94833942,-81.47564514,Ohio,"25,699",56
Green Acres,48.83813287,-99.69009236,North Dakota,575,56
Green Camp,40.5320164,-83.20761298,Ohio,374,56
Green Meadows,39.8671933,-83.94533408,Ohio,"2,327",56
Green Springs,41.25689583,-83.05297344,Ohio,"1,368",56
Greenfield,39.35223195,-83.387973,Ohio,"4,639",56
Greenhills,39.26695973,-84.51935773,Ohio,"3,615",56
Greentown,40.92738102,-81.40204589,Ohio,"3,804",56
Greenville,40.10449261,-84.63112625,Ohio,"13,238",56
Greenwich,41.03176843,-82.51985058,Ohio,"1,476",56
Grenora,48.61985897,-103.9366891,North Dakota,244,56
Groesbeck,39.22793151,-84.599097,Ohio,"6,784",56
Grove City,39.84782923,-83.065334,Ohio,"35,669",56
Groveport,39.84358902,-82.91530975,Ohio,"5,399",56
Grover Hill,41.01896194,-84.4776336,Ohio,402,56
Gwinner,46.22564905,-97.6691375,North Dakota,753,56
Hague,46.02889132,-99.9991059,North Dakota,71,56
Halliday,47.35222849,-102.3387558,North Dakota,188,56
Hamden,39.16107579,-82.51939325,Ohio,879,56
Hamersville,38.91905954,-83.98544772,Ohio,546,56
Hamilton,39.39474801,-84.559477,Ohio,"62,371",56
Hamilton,48.80798189,-97.45173487,North Dakota,61,56
Hamler,41.22808325,-84.03550995,Ohio,576,56
Hanging Rock,38.55907207,-82.721091,Ohio,221,56
Hankinson,46.07342606,-96.89179057,North Dakota,919,56
Hannaford,47.3141807,-98.18894062,North Dakota,131,56
Hannibal,39.67176939,-80.87410553,Ohio,411,56
Hanover,40.08188124,-82.27619964,Ohio,927,56
Hanoverton,40.75469449,-80.93548758,Ohio,408,56
Harbor Hills,39.93660174,-82.43431258,Ohio,"1,509",56
Harbor View,41.69323434,-83.4447495,Ohio,101,56
Harmon,46.95519228,-100.956967,North Dakota,145,56
Harpster,40.73842986,-83.25017833,Ohio,204,56
Harrisburg,39.81101261,-83.171412,Ohio,320,56
Harrison,39.24477708,-84.7861785,Ohio,"10,206",56
Harrisville,40.18150422,-80.88694354,Ohio,235,56
Harrod,40.70749268,-83.92134484,Ohio,417,56
Hartford (Croton),40.23954467,-82.68838203,Ohio,397,56
Hartville,40.96176423,-81.33474033,Ohio,"3,014",56
Harvey,47.76851453,-99.9312235,North Dakota,"1,791",56
Harveysburg,39.50219616,-83.99842858,Ohio,546,56
Harwood,46.98081711,-96.8885995,North Dakota,718,56
Haskins,41.46480512,-83.70430452,Ohio,"1,188",56
Hatton,47.63696722,-97.45828913,North Dakota,770,56
Havana,45.95170386,-97.61844229,North Dakota,71,56
Haviland,41.01862164,-84.583516,Ohio,215,56
Haydenville,39.48080891,-82.32380503,Ohio,381,56
Hayesville,40.77521443,-82.25961752,Ohio,448,56
Hazelton,46.48572431,-100.2810888,North Dakota,235,56
Hazen,47.29904432,-101.6259624,North Dakota,"2,411",56
Heath,40.02415215,-82.44112673,Ohio,"10,332",56
Hebron,39.96440267,-82.48983029,Ohio,"2,336",56
Hebron,46.90230728,-102.0443899,North Dakota,747,56
Helena,41.34032718,-83.29189628,Ohio,224,56
Hemlock,39.59046115,-82.15447393,Ohio,155,56
Hessville,41.4030574,-83.24306939,Ohio,214,56
Hettinger,46.00338389,-102.634942,North Dakota,"1,226",56
Hicksville,41.29438679,-84.76473661,Ohio,"3,576",56
Hide-A-Way Hills,39.65512226,-82.46596992,Ohio,794,56
Higginsport,38.79002375,-83.96730276,Ohio,251,56
Highland,39.34394575,-83.60007881,Ohio,254,56
Highland Heights,41.55178413,-81.46912605,Ohio,"8,345",56
Highland Hills,41.45355684,-81.52655325,Ohio,"1,130",56
Highland Holiday,39.19491824,-83.4703275,Ohio,550,56
Highpoint,39.28917612,-84.34713149,Ohio,"1,503",56
Hilliard,40.03523533,-83.15976231,Ohio,"28,522",56
Hills and Dales,40.8291178,-81.44401165,Ohio,221,56
Hillsboro,39.20105859,-83.62673675,Ohio,"6,605",56
Hillsboro,47.4036532,-97.0574465,North Dakota,"1,603",56
Hilltop,41.16423155,-80.7431585,Ohio,705,56
Hiram,41.31020386,-81.1435715,Ohio,"1,430",56
Hockingport,39.19083754,-81.7491711,Ohio,212,56
Holgate,41.24928884,-84.12924577,Ohio,"1,109",56
Holiday City,41.60923452,-84.54950775,Ohio,52,56
Holiday Lakes,41.09235896,-82.72911017,Ohio,749,56
Holiday Valley,39.85359654,-83.96200529,Ohio,"1,510",56
Holland,41.61923935,-83.70822312,Ohio,"1,702",56
Hollansburg,39.9984929,-84.79300901,Ohio,227,56
Holloway,40.16357637,-81.1355205,Ohio,338,56
Holmesville,40.62899278,-81.92332629,Ohio,372,56
Homeworth,40.83574658,-81.06494267,Ohio,481,56
Hoople,48.53578325,-97.63899247,North Dakota,247,56
Hooven,39.18637757,-84.76318486,Ohio,534,56
Hope,47.32437724,-97.71920314,North Dakota,258,56
Hopedale,40.32268902,-80.8970115,Ohio,950,56
Horace,46.76338872,-96.89115525,North Dakota,"2,469",56
Howard,40.40931992,-82.32741463,Ohio,242,56
Howland Center,41.24832885,-80.74436786,Ohio,"6,351",56
Hoytville,41.19000343,-83.78436939,Ohio,303,56
Hubbard,41.15951814,-80.56729096,Ohio,"7,879",56
Huber Heights,39.85949256,-84.11302378,Ohio,"38,103",56
Huber Ridge,40.09097167,-82.91725322,Ohio,"4,604",56
Hudson,41.23988117,-81.44082512,Ohio,"22,262",56
Hunter,39.49163901,-84.282639,Ohio,"2,100",56
Hunter,47.18794086,-97.20510525,North Dakota,261,56
Hunting Valley,41.4802275,-81.41076686,Ohio,705,56
Huntsville,40.44229962,-83.80450335,Ohio,431,56
Hurdsfield,47.44678671,-99.93100166,North Dakota,84,56
Huron,41.39132581,-82.56347468,Ohio,"7,160",56
Iberia,40.67471925,-82.84022899,Ohio,452,56
Independence,41.37799621,-81.63848402,Ohio,"7,133",56
Inkster,48.15125144,-97.64415021,North Dakota,50,56
Irondale,40.57280082,-80.7259521,Ohio,387,56
Ironton,38.51712528,-82.666798,Ohio,"11,129",56
Ithaca,39.9377367,-84.55333204,Ohio,136,56
Jackson,39.05375787,-82.650868,Ohio,"6,397",56
Jackson Center,40.43847874,-84.04124752,Ohio,"1,462",56
Jacksonburg,39.53838492,-84.5033152,Ohio,63,56
Jacksonville,39.47540463,-82.080497,Ohio,481,56
Jamestown,39.65701446,-83.744047,Ohio,"2,009",56
Jamestown,46.90629556,-98.69366093,North Dakota,"15,422",56
Jefferson,41.73835999,-80.76894644,Ohio,"3,120",56
Jeffersonville,39.6469895,-83.54195725,Ohio,"1,203",56
Jenera,40.89950006,-83.72706328,Ohio,221,56
Jeromesville,40.80374576,-82.19640844,Ohio,562,56
Jerry City,41.2536865,-83.60230859,Ohio,427,56
Jerusalem,39.85322348,-81.092068,Ohio,161,56
Jewett,40.36806009,-81.00300253,Ohio,692,56
Johnstown,40.1546483,-82.689321,Ohio,"4,635",56
Jud,46.52577234,-98.89755163,North Dakota,72,56
Junction City,39.72167524,-82.29977985,Ohio,819,56
Kalida,40.98357537,-84.194381,Ohio,"1,548",56
Kanauga,38.8412093,-82.14946379,Ohio,175,56
Kansas,41.24514999,-83.28391586,Ohio,179,56
Karlsruhe,48.09104453,-100.6162077,North Dakota,82,56
Kathryn,46.68128477,-97.97183525,North Dakota,52,56
Kelleys Island,41.60329181,-82.70291201,Ohio,312,56
Kenmare,48.67513209,-102.0798425,North Dakota,"1,096",56
Kensal,47.30003339,-98.73210665,North Dakota,163,56
Kent,41.14904627,-81.36100531,Ohio,"28,904",56
Kenton,40.64479421,-83.60953239,Ohio,"8,345",56
Kenwood,39.20671987,-84.37460831,Ohio,"6,981",56
Kettering,39.695675,-84.14953509,Ohio,"56,163",56
Kettlersville,40.4389451,-84.25976326,Ohio,179,56
Kidron,40.74399627,-81.74672616,Ohio,944,56
Kilbourne,40.3323043,-82.95923785,Ohio,139,56
Killbuck,40.4954098,-81.984255,Ohio,807,56
Killdeer,47.36729644,-102.7535309,North Dakota,751,56
Kimbolton,40.1508571,-81.57583499,Ohio,144,56
Kindred,46.64937892,-97.01694064,North Dakota,692,56
Kings Mills,39.35855838,-84.2505757,Ohio,"1,050",56
Kingston,39.47225085,-82.91201807,Ohio,"1,032",56
Kinsman Center,41.45128852,-80.586577,Ohio,616,56
Kipton,41.26649802,-82.30391012,Ohio,243,56
Kirby,40.81349279,-83.41940794,Ohio,118,56
Kirkersville,39.9500212,-82.59851683,Ohio,525,56
Kirtland,41.59689507,-81.34062375,Ohio,"6,866",56
Kirtland Hills,41.63648695,-81.310831,Ohio,646,56
Kulm,46.30194674,-98.94660716,North Dakota,354,56
Kunkle,41.63669925,-84.493756,Ohio,246,56
La Croft,40.64682999,-80.5997844,Ohio,"1,144",56
La Rue,40.57514962,-83.37948475,Ohio,747,56
LaGrange,41.24003626,-82.11813786,Ohio,"2,103",56
LaMoure,46.35878654,-98.29531,North Dakota,889,56
Lafayette,39.94078763,-83.40552684,Ohio,202,56
Lafayette,40.75891139,-83.94992154,Ohio,445,56
Lafferty,40.11424896,-81.01893043,Ohio,304,56
Lake Buckhorn,40.47442828,-81.90816137,Ohio,601,56
Lake Darby,39.96050153,-83.2243465,Ohio,"4,592",56
Lake Lakengren,39.6893738,-84.68997048,Ohio,"3,383",56
Lake Lorelei,39.18753414,-83.9715044,Ohio,"1,170",56
Lake Milton,41.09607334,-80.98119039,Ohio,639,48
Lake Mohawk,40.66072753,-81.19283103,Ohio,"1,652",56
Lake Seneca,41.66694071,-84.6505275,Ohio,465,56
Lake Tomahawk,40.76382354,-80.59517787,Ohio,485,56
Lake Waynoka,38.9401286,-83.77865111,Ohio,"1,173",56
Lakeline,41.6570717,-81.45667528,Ohio,226,56
Lakemore,41.02146021,-81.42635966,Ohio,"3,068",56
Lakeside,41.5407676,-82.75347682,Ohio,694,56
Lakeview,40.48746136,-83.92660758,Ohio,"1,072",56
Lakewood,41.48233545,-81.80084552,Ohio,"52,131",56
Lakota,48.04286827,-98.34676671,North Dakota,672,56
Lancaster,39.72505452,-82.60460235,Ohio,"38,780",56
Landen,39.3154488,-84.27668408,Ohio,"6,782",56
Langdon,48.76235442,-98.37474058,North Dakota,"1,878",56
Lankin,48.31466989,-97.92025847,North Dakota,98,56
Lansford,48.62695246,-101.3758912,North Dakota,245,56
Lansing,40.07648378,-80.792604,Ohio,634,56
Larimore,47.90910757,-97.62694251,North Dakota,"1,346",56
Latty,41.08787354,-84.58317422,Ohio,193,56
Laura,39.99515321,-84.40844822,Ohio,474,56
Laurelville,39.47196085,-82.73735504,Ohio,527,56
Leavittsburg,41.24522375,-80.87884221,Ohio,"1,971",56
Lebanon,39.42562076,-84.21310702,Ohio,"20,033",56
Leeds,48.28806147,-99.43629694,North Dakota,449,56
Leesburg,39.3452324,-83.5546855,Ohio,"1,314",56
Leesville,40.45205657,-81.2095804,Ohio,158,56
Leetonia,40.87853651,-80.76235622,Ohio,"1,959",56
Lehr,46.28239502,-99.35292947,North Dakota,80,56
Leipsic,41.11655295,-83.95360775,Ohio,"2,093",56
Leonard,46.6510917,-97.24643575,North Dakota,223,56
Lewisburg,39.84836293,-84.53869,Ohio,"1,820",56
Lewiston Woodville,36.11412017,-77.18117408,North Carolina,549,48
Lewistown,40.42375224,-83.88462743,Ohio,222,56
Lewisville,36.10325933,-80.41646983,North Carolina,"12,721",56
Lewisville,39.76707784,-81.21824367,Ohio,176,56
Lexington,35.80125773,-80.26807423,North Carolina,"18,931",56
Lexington,40.67967911,-82.58989025,Ohio,"4,822",56
Liberty,35.85555888,-79.56783031,North Carolina,"2,656",56
Liberty Center,41.44357999,-84.00778389,Ohio,"1,180",56
Lidgerwood,46.07531612,-97.142252,North Dakota,652,56
Light Oak,35.28669225,-81.47738572,North Carolina,691,56
Lignite,48.87716882,-102.5644281,North Dakota,155,56
Lilesville,34.96749454,-79.98453352,North Carolina,536,56
Lillington,35.39977456,-78.8241215,North Carolina,"3,194",56
Lima,40.74094009,-84.11207739,Ohio,"38,777",56
Limaville,40.9841696,-81.14833917,Ohio,151,56
Lincoln,46.76558309,-100.697743,North Dakota,"2,456",56
Lincoln Heights,39.24350473,-84.45700425,Ohio,"3,286",56
Lincoln Village,39.95317055,-83.13147824,Ohio,"9,032",56
Lincolnton,35.46641754,-81.2370775,North Carolina,"10,486",56
Linden,35.25460199,-78.74837214,North Carolina,130,56
Lindsey,41.42168109,-83.22099305,Ohio,446,56
Linndale,41.44499642,-81.7667845,Ohio,179,56
Linton,46.26851165,-100.2336044,North Dakota,"1,097",56
Lisbon,40.77713309,-80.7683895,Ohio,"2,821",56
Lisbon,46.43852415,-97.68407672,North Dakota,"2,154",56
Litchville,46.65656314,-98.19170151,North Dakota,172,56
Lithopolis,39.81111835,-82.81573119,Ohio,"1,127",56
Little Hocking,39.2606852,-81.70188686,Ohio,263,56
Littleton,36.43431626,-77.91100227,North Carolina,665,56
Lockbourne,39.80785363,-82.98371167,Ohio,237,56
Lockington,40.20809354,-84.2374735,Ohio,141,56
Lockland,39.22786119,-84.45644989,Ohio,"3,449",56
Locust,35.25932725,-80.4348585,North Carolina,"2,930",56
Lodi,41.03322508,-82.0113125,Ohio,"2,746",56
Logan,39.53857268,-82.40625521,Ohio,"7,152",56
Logan,48.15572139,-101.1663755,North Dakota,194,56
Logan Elm Village,39.57040602,-82.94711142,Ohio,"1,118",56
London,39.8936244,-83.43755578,Ohio,"9,901",56
Long View,35.72153576,-81.38587239,North Carolina,"4,871",56
Lorain,41.44089574,-82.18389656,Ohio,"64,097",56
Lordstown,41.16838147,-80.85902088,Ohio,"3,417",56
Lore City,39.98320304,-81.46007683,Ohio,325,56
Loudonville,40.63664392,-82.232011,Ohio,"2,647",56
Louisburg,36.09785896,-78.30102099,North Carolina,"3,403",56
Louisville,40.83684514,-81.26420297,Ohio,"9,260",56
Love Valley,35.98773998,-80.97375475,North Carolina,243,56
Loveland,39.26784222,-84.27289467,Ohio,"13,029",56
Loveland Park,39.29423098,-84.26356715,Ohio,"1,523",56
Lowell,35.26886044,-81.10127461,North Carolina,"3,562",56
Lowell,39.52928246,-81.5068197,Ohio,549,56
Lowellville,41.04065009,-80.5467365,Ohio,"1,155",56
Lower Salem,39.56119104,-81.39645625,Ohio,86,56
Lowesville,35.41933237,-80.99983677,North Carolina,"2,945",56
Lowgap,36.52509076,-80.8670895,North Carolina,324,56
Lucama,35.64466345,-78.00718586,North Carolina,"1,108",56
Lucas,40.70105031,-82.422224,Ohio,616,56
Lucasville,38.87832185,-82.99338547,Ohio,"2,757",56
Luckey,41.45244951,-83.48386763,Ohio,"1,012",56
Ludlow Falls,39.99808492,-84.33919679,Ohio,208,56
Lumber Bridge,34.88986272,-79.07237844,North Carolina,94,56
Lumberton,34.63096574,-79.01912268,North Carolina,"21,543",56
Lynchburg,39.24338332,-83.7901105,Ohio,"1,499",56
Lyndhurst,41.51724818,-81.49223312,Ohio,"14,001",56
Lyons,41.70037189,-84.07180073,Ohio,562,56
Macclesfield,35.75221308,-77.67034648,North Carolina,471,56
Macedonia,41.31475767,-81.49889271,Ohio,"11,188",56
Mack,39.15024862,-84.67926588,Ohio,"11,581",56
Macksburg,39.63144934,-81.45621588,Ohio,186,56
Macon,36.43958959,-78.08393527,North Carolina,119,56
Maddock,47.96238681,-99.52929431,North Dakota,382,56
Madeira,39.18562506,-84.37325343,Ohio,"8,741",56
Madison,36.38649978,-79.97318233,North Carolina,"2,246",56
Madison,41.77224044,-81.05297561,Ohio,"3,184",56
Maggie Valley,35.5210628,-83.0464685,North Carolina,"1,148",56
Magnetic Springs,40.35336654,-83.26265161,Ohio,268,56
Magnolia,34.89521946,-78.05513829,North Carolina,939,56
Magnolia,40.65306215,-81.29275825,Ohio,978,56
Maiden,35.58531589,-81.22026366,North Carolina,"3,325",56
Maineville,39.30666696,-84.1996815,Ohio,"1,082",56
Makoti,47.96333049,-101.8029076,North Dakota,154,56
Malinta,41.31959278,-84.03536006,Ohio,265,56
Malta,39.65160995,-81.86416615,Ohio,671,56
Malvern,40.68949412,-81.1804088,Ohio,"1,220",56
Mamers,35.41601017,-78.93905764,North Carolina,826,56
Manchester,38.69003265,-83.60556989,Ohio,"2,023",56
Mandan,46.82885829,-100.8871196,North Dakota,"18,651",56
Mandaree,47.73582821,-102.6756486,North Dakota,596,56
Manning,47.23103504,-102.7703749,North Dakota,74,56
Manns Harbor,35.89363346,-75.77371623,North Carolina,821,56
Mansfield,40.7655554,-82.52750875,Ohio,"47,865",56
Mantador,46.16549455,-96.97785129,North Dakota,64,56
Manteo,35.89763497,-75.65038879,North Carolina,"1,321",56
Mantua,41.28192907,-81.22227572,Ohio,"1,043",56
Manvel,48.0727824,-97.17792888,North Dakota,360,56
Maple Heights,41.40586399,-81.57047025,Ohio,"23,138",56
Maple Ridge,40.91428616,-81.04681272,Ohio,761,56
Mapleton,46.89153121,-97.05325702,North Dakota,762,56
Maplewood Park,41.13925843,-80.57976199,Ohio,280,56
Mar-Mac,35.33444993,-78.05410318,North Carolina,"3,615",56
Marble,35.17701754,-83.92650623,North Carolina,321,56
Marble Cliff,39.98678872,-83.0626125,Ohio,573,56
Marblehead,41.52327438,-82.72831536,Ohio,903,56
Marengo,40.40081965,-82.81099392,Ohio,342,56
Mariemont,39.14292105,-84.37832145,Ohio,"3,407",56
Marietta,34.36819841,-79.12485786,North Carolina,175,56
Marietta,39.42412648,-81.44653227,Ohio,"14,085",56
Marion,35.68492636,-82.0008455,North Carolina,"8,153",56
Marion,40.58576988,-83.127905,Ohio,"36,837",56
Marion,46.60907181,-98.33751486,North Dakota,133,56
Marlboro,40.95048139,-81.21651718,Ohio,84,48
Marmarth,46.29596276,-103.9330346,North Dakota,136,56
Marne,40.07251779,-82.30904776,Ohio,783,56
Mars Hill,35.82827923,-82.54902999,North Carolina,"1,869",56
Marseilles,40.7009735,-83.39234185,Ohio,112,56
Marshall,35.79956292,-82.685521,North Carolina,872,56
Marshallberg,34.72657904,-76.51512631,North Carolina,403,56
Marshallville,40.89962882,-81.7329292,Ohio,750,56
Marshville,34.9868638,-80.3693232,North Carolina,"2,415",56
Martin,47.8267696,-100.1153022,North Dakota,78,56
Martins Ferry,40.09607321,-80.7288545,Ohio,"6,915",56
Martinsburg,40.26959197,-82.3543399,Ohio,237,56
Martinsville,39.32242382,-83.81085106,Ohio,463,56
Marvin,35.00177501,-80.81871973,North Carolina,"5,690",56
Marysville,40.22797194,-83.35948807,Ohio,"22,094",56
Mason,39.35715762,-84.30257867,Ohio,"30,718",56
Massillon,40.78341557,-81.52622319,Ohio,"32,228",56
Masury,41.20833593,-80.53780673,Ohio,"2,064",56
Matamoras,39.5203306,-81.0685195,Ohio,896,56
Matthews,35.11951556,-80.7100998,North Carolina,"27,198",56
Maumee,41.56962444,-83.66356347,Ohio,"14,286",56
Maury,35.47920188,-77.59022365,North Carolina,"1,685",56
Max,47.81928203,-101.289285,North Dakota,334,56
Maxbass,48.72244741,-101.1423648,North Dakota,84,56
Maxton,34.73654736,-79.35299438,North Carolina,"2,426",56
Mayfield,41.55010538,-81.43679007,Ohio,"3,460",56
Mayfield Heights,41.51744984,-81.4534104,Ohio,"19,155",56
Mayodan,36.41392296,-79.97281341,North Carolina,"2,478",56
Maysville,34.90423345,-77.2309877,North Carolina,"1,019",56
Mayville,47.49818391,-97.32635557,North Dakota,"1,858",56
McAdenville,35.25847997,-81.07340125,North Carolina,651,56
McArthur,39.24659169,-82.47867853,Ohio,"1,701",56
McClure,41.37097397,-83.94136926,Ohio,725,56
McClusky,47.4839895,-100.4425332,North Dakota,380,56
McComb,41.10790242,-83.791446,Ohio,"1,656",56
McConnelsville,39.65680884,-81.84686887,Ohio,"1,784",56
McCutchenville,40.99728455,-83.256396,Ohio,400,56
McDermott,38.83356021,-83.057692,Ohio,434,56
McDonald,34.55374516,-79.17625255,North Carolina,113,56
McDonald,41.16350431,-80.72306876,Ohio,"3,263",56
McFarlan,34.81481781,-79.97663165,North Carolina,117,56
McGuffey,40.69279428,-83.78592144,Ohio,501,56
McHenry,47.57640552,-98.59099608,North Dakota,56,56
McKinley Heights,41.18593557,-80.7171815,Ohio,"1,103",56
McLeansville,36.10406867,-79.65576762,North Carolina,"1,011",56
McVille,47.765268,-98.17552862,North Dakota,349,56
Mebane,36.08865926,-79.27488047,North Carolina,"11,662",56
Mechanicsburg,40.07350837,-83.55657101,Ohio,"1,644",56
Medina,41.13583691,-81.86964917,Ohio,"26,678",56
Medina,46.89383992,-99.29988531,North Dakota,308,56
Medora,46.91278015,-103.5250339,North Dakota,112,56
Melmore,41.02615545,-83.10497765,Ohio,153,56
Melrose,41.08871907,-84.42003464,Ohio,275,56
Mendon,40.67331105,-84.5175654,Ohio,662,56
Menoken,46.8148672,-100.5340928,North Dakota,70,56
Mentor,41.68938822,-81.33616271,Ohio,"47,159",56
Mentor-on-the-Lake,41.71333013,-81.36486588,Ohio,"7,443",56
Mercer,47.49046014,-100.7104271,North Dakota,94,56
Mesic,35.19847177,-76.64295304,North Carolina,220,56
Metamora,41.71268093,-83.904246,Ohio,632,56
Meyers Lake,40.81586427,-81.41648595,Ohio,569,56
Miami Heights,39.16876695,-84.71519967,Ohio,"4,731",56
Miamisburg,39.64132341,-84.2713685,Ohio,"20,181",56
Miamitown,39.21705822,-84.70955916,Ohio,"1,259",56
Miamiville,39.21230564,-84.30008185,Ohio,242,56
Michigan City,48.02474569,-98.11973769,North Dakota,294,56
Micro,35.56227839,-78.20373355,North Carolina,441,56
Middle Point,40.85586283,-84.44626029,Ohio,576,56
Middleburg,36.39894135,-78.32343602,North Carolina,133,56
Middleburg Heights,41.36952018,-81.8151187,Ohio,"15,946",56
Middlefield,41.46045474,-81.07317915,Ohio,"2,711",56
Middleport,38.99484844,-82.0642956,Ohio,"2,530",56
Middlesex,35.78847042,-78.20299303,North Carolina,822,56
Middletown,39.50323461,-84.36588966,Ohio,"48,694",56
Midland,35.24395842,-80.52134329,North Carolina,"3,188",56
Midland,39.30676083,-83.91040256,Ohio,315,56
Midvale,40.43584084,-81.37010903,Ohio,754,56
Midway,35.97513654,-80.22045921,North Carolina,"4,809",56
Midway,39.73295195,-83.47642355,Ohio,322,56
Mifflin,40.77346138,-82.36385819,Ohio,137,56
Milan,41.29241876,-82.60493475,Ohio,"1,367",56
Milford,39.16995646,-84.28105152,Ohio,"6,709",56
Milford Center,40.17907992,-83.43814331,Ohio,792,56
Millbury,41.56473131,-83.4255161,Ohio,"1,200",56
Milledgeville,39.59335829,-83.5878321,Ohio,112,56
Miller City,41.1041036,-84.131272,Ohio,143,56
Millers Creek,36.19086731,-81.23555252,North Carolina,"2,112",56
Millersburg,40.55338217,-81.91701262,Ohio,"3,091",56
Millersport,39.89911184,-82.539767,Ohio,"1,044",56
Millfield,39.43296774,-82.093457,Ohio,341,56
Millingport,35.37635498,-80.31134096,North Carolina,599,56
Mills River,35.38529992,-82.5854149,North Carolina,"6,788",56
Millville,39.389727,-84.6552195,Ohio,708,56
Milnor,46.2604405,-97.45715364,North Dakota,653,56
Milton,36.5381181,-79.207778,North Carolina,166,56
Milton,48.62600626,-98.04596409,North Dakota,61,56
Milton Center,41.3007393,-83.82966105,Ohio,144,56
Mineral City,40.60258925,-81.3632225,Ohio,727,56
Mineral Ridge,41.13793833,-80.76526867,Ohio,"3,887",56
Mineral Springs,34.94083004,-80.68519896,North Carolina,"2,650",56
Minerva,40.73058462,-81.10223421,Ohio,"3,727",56
Minerva Park,40.07701368,-82.940633,Ohio,"1,272",56
Minford,38.86187489,-82.85519212,Ohio,693,56
Mingo Junction,40.31745539,-80.6097175,Ohio,"3,454",56
Minnesott Beach,34.99529714,-76.83748147,North Carolina,440,56
Minnewaukan,48.06982781,-99.25004482,North Dakota,224,56
Minot,48.23297089,-101.3059728,North Dakota,"41,164",56
Minot AFB,48.41518827,-101.3224525,North Dakota,"5,521",56
Minster,40.39468402,-84.37894951,Ohio,"2,813",56
Mint Hill,35.17817926,-80.65313572,North Carolina,"22,790",56
Minto,48.29241077,-97.37304585,North Dakota,604,56
Misenheimer,35.48248267,-80.28548906,North Carolina,728,56
Mitiwanga,41.38116316,-82.46589143,Ohio,299,48
Mocksville,35.89780434,-80.55763004,North Carolina,"5,060",56
Mogadore,41.05229373,-81.39931356,Ohio,"3,853",56
Mohall,48.76652136,-101.5083955,North Dakota,783,56
Momeyer,35.95919167,-78.05110169,North Carolina,224,56
Moncure,35.62390012,-79.07682948,North Carolina,711,56
Monfort Heights,39.18227812,-84.60749712,Ohio,"11,948",56
Monroe,35.00428368,-80.5590709,North Carolina,"32,846",56
Monroe,39.44607302,-84.36656174,Ohio,"12,442",56
Monroeville,41.24405298,-82.70194609,Ohio,"1,400",56
Montezuma,40.4891163,-84.5496004,Ohio,165,56
Montgomery,39.24953084,-84.34582565,Ohio,"10,368",56
Montpelier,41.58435615,-84.6063625,Ohio,"4,072",56
Montpelier,46.69896587,-98.5884641,North Dakota,87,56
Montreat,35.64780956,-82.30005435,North Carolina,723,56
Montrose-Ghent,41.15245639,-81.6620455,Ohio,"5,091",56
Mooresboro,35.29920515,-81.69858646,North Carolina,311,56
Mooresville,35.58453891,-80.82356225,North Carolina,"35,833",56
Mooreton,46.26893099,-96.87577725,North Dakota,197,56
Moraine,39.69603285,-84.25853,Ohio,"6,307",56
Moravian Falls,36.10686623,-81.18080818,North Carolina,"1,901",56
Morehead City,34.73179598,-76.79286725,North Carolina,"8,877",56
Moreland Hills,41.4422317,-81.42931115,Ohio,"3,320",56
Morgandale,41.26699051,-80.79576476,Ohio,"1,224",56
Morganton,35.74237369,-81.68422875,North Carolina,"16,927",56
Morral,40.69135195,-83.20978541,Ohio,399,56
Morristown,40.06443086,-81.065464,Ohio,303,56
Morrisville,35.81591155,-78.839175,North Carolina,"18,596",56
Morrow,39.34773926,-84.1239995,Ohio,"1,199",56
Morven,34.86379832,-79.9996781,North Carolina,511,56
Moscow,38.86017026,-84.22808617,Ohio,185,56
Mott,46.37420633,-102.3253136,North Dakota,719,56
Mount Airy,36.5108369,-80.61395046,North Carolina,"10,390",56
Mount Blanchard,40.89852029,-83.55684468,Ohio,492,56
Mount Carmel,39.09786536,-84.29948191,Ohio,"4,741",56
Mount Cory,40.93479836,-83.82346732,Ohio,204,56
Mount Eaton,40.69480497,-81.70216397,Ohio,241,56
Mount Gilead,35.21496357,-80.00289722,North Carolina,"1,181",56
Mount Gilead,40.54842841,-82.830082,Ohio,"3,660",56
Mount Healthy,39.23381477,-84.5468182,Ohio,"6,883",56
Mount Healthy Heights,39.27017232,-84.56930132,Ohio,"3,264",56
Mount Holly,35.28526623,-81.016856,North Carolina,"13,732",56
Mount Olive,35.19815585,-78.06800735,North Carolina,"4,603",56
Mount Orab,39.03985561,-83.935717,Ohio,"3,893",56
Mount Pleasant,35.39481047,-80.43419807,North Carolina,"1,761",56
Mount Pleasant,40.17548911,-80.7993655,Ohio,478,56
Mount Repose,39.1906873,-84.21974324,Ohio,"4,672",56
Mount Sterling,39.71935094,-83.26774879,Ohio,"1,782",56
Mount Vernon,40.38553582,-82.47324779,Ohio,"16,990",56
Mount Victory,40.53371666,-83.52107383,Ohio,627,56
Mountain,48.684305,-97.86480666,North Dakota,92,56
Mountain Home,35.37075689,-82.50211696,North Carolina,"3,622",56
Mountain View,35.66942763,-81.378226,North Carolina,"3,554",56
Mowrystown,39.04055985,-83.75181757,Ohio,360,56
Moyock,36.51650049,-76.17279374,North Carolina,"3,759",56
Mulberry,36.22572294,-81.16523741,North Carolina,"2,332",56
Mulberry,39.19754432,-84.25109553,Ohio,"3,323",56
Munich,48.67285545,-98.83843415,North Dakota,210,56
Munroe Falls,41.1439603,-81.433603,Ohio,"5,012",56
Murfreesboro,36.44030405,-77.09834807,North Carolina,"2,835",56
Murphy,35.08835522,-84.03412825,North Carolina,"1,627",56
Murray City,39.50964757,-82.16780644,Ohio,449,56
Murraysville,34.29192728,-77.84289736,North Carolina,"14,215",56
Mutual,40.0801939,-83.6360695,Ohio,104,56
Myrtle Grove,34.12375175,-77.8841195,North Carolina,"8,875",56
Nags Head,35.97843265,-75.6433611,North Carolina,"2,757",56
Napoleon,41.39786444,-84.12445168,Ohio,"8,764",56
Napoleon,46.50392987,-99.76833215,North Dakota,792,56
Nashville,35.96668011,-77.9536512,North Carolina,"5,464",56
Nashville,40.59584818,-82.11296751,Ohio,176,56
Navarre,40.7232771,-81.52234075,Ohio,"1,957",56
Navassa,34.28187117,-78.02319324,North Carolina,"1,505",56
Neapolis,41.49061517,-83.87470851,Ohio,423,56
Neche,48.98304306,-97.55169872,North Dakota,371,56
Neffs,40.03203212,-80.81709583,Ohio,993,56
Negley,40.79274482,-80.53587998,Ohio,281,56
Nekoma,48.5762579,-98.37553338,North Dakota,50,56
Nellie,40.33847117,-82.07137898,Ohio,131,56
Nelsonville,39.45597648,-82.22185219,Ohio,"5,392",56
Nettle Lake,41.6785935,-84.72704498,Ohio,143,48
Neuse Forest,34.96361725,-76.938859,North Carolina,"2,005",56
Nevada,40.81877728,-83.13118891,Ohio,760,56
Neville,38.81226315,-84.21154053,Ohio,100,56
New Albany,40.08025178,-82.78830641,Ohio,"7,869",56
New Alexandria,40.29158676,-80.67512844,Ohio,272,56
New Athens,40.18453884,-80.99483451,Ohio,320,56
New Baltimore,39.27430497,-84.67046254,Ohio,661,56
New Bavaria,41.2036454,-84.16720648,Ohio,99,56
New Bern,35.11776778,-77.075092,North Carolina,"29,526",56
New Bloomington,40.58369626,-83.31252385,Ohio,515,56
New Boston,38.75171074,-82.93511874,Ohio,"2,272",56
New Bremen,40.43564188,-84.37771611,Ohio,"3,017",56
New Burlington,39.26235335,-84.55190774,Ohio,"5,069",56
New California,40.14817452,-83.235715,Ohio,"1,411",56
New Carlisle,39.94189104,-84.03548025,Ohio,"5,788",56
New Concord,39.99366311,-81.73808383,Ohio,"2,503",56
New England,46.54081746,-102.8669619,North Dakota,600,56
New Franklin,40.95248873,-81.58381581,Ohio,"14,227",56
New Hampshire,40.5539685,-83.95318396,Ohio,174,56
New Haven,39.27714477,-84.74403045,Ohio,583,56
New Haven,41.03059397,-82.68141089,Ohio,399,56
New Holland,39.55445673,-83.25949891,Ohio,801,56
New Knoxville,40.49428138,-84.31576406,Ohio,879,56
New Lebanon,39.74404111,-84.39424927,Ohio,"3,995",56
New Leipzig,46.37576809,-101.9515986,North Dakota,221,56
New Lexington,39.716014,-82.20799313,Ohio,"4,731",56
New London,35.42232138,-80.2205975,North Carolina,619,56
New London,41.08340783,-82.39955925,Ohio,"2,461",56
New Madison,39.96764605,-84.70793945,Ohio,892,56
New Marshfield,39.32679235,-82.214457,Ohio,326,56
New Miami,39.43185532,-84.53989743,Ohio,"2,249",56
New Middletown,40.96475022,-80.55972315,Ohio,"1,621",56
New Paris,39.85650066,-84.79220397,Ohio,"1,629",56
New Philadelphia,40.48609196,-81.43991073,Ohio,"17,288",56
New Pittsburg,40.84160774,-82.09894043,Ohio,388,56
New Richmond,38.95069811,-84.2748915,Ohio,"2,582",56
New Riegel,41.05316834,-83.3195825,Ohio,249,56
New Rockford,47.67975049,-99.13768617,North Dakota,"1,391",56
New Salem,46.84063551,-101.417355,North Dakota,944,56
New Straitsville,39.5792836,-82.23430826,Ohio,722,56
New Town,47.98478583,-102.4812395,North Dakota,"1,925",56
New Vienna,39.32397702,-83.692132,Ohio,"1,224",56
New Washington,40.96040603,-82.8546433,Ohio,967,56
New Waterford,40.84782913,-80.61882592,Ohio,"1,243",56
New Weston,40.33702417,-84.64360953,Ohio,136,56
Newark,40.06408035,-82.4184555,Ohio,"47,161",56
Newburg,48.71387805,-100.9126396,North Dakota,110,56
Newburgh Heights,41.45094753,-81.66271409,Ohio,"2,167",56
Newcomerstown,40.27196447,-81.6051945,Ohio,"3,822",56
Newland,36.08797044,-81.92735483,North Carolina,698,56
Newport,34.7650289,-76.86430475,North Carolina,"4,409",56
Newport,39.39654879,-81.22476651,Ohio,"1,003",56
Newport,40.29503676,-84.36917754,Ohio,198,56
Newton,35.66499366,-81.23020141,North Carolina,"12,968",56
Newton Falls,41.18890212,-80.97112595,Ohio,"4,789",56
Newton Grove,35.25226869,-78.35494532,North Carolina,569,56
Newtonsville,39.18106662,-84.08959137,Ohio,392,56
Newtown,39.12432702,-84.35157353,Ohio,"2,672",56
Ney,41.38061959,-84.52115742,Ohio,354,56
Niagara,47.99830212,-97.87166676,North Dakota,53,56
Nichols,44.56720186,-88.46779859,Wisconsin,273,4
Niles,41.18781647,-80.75292669,Ohio,"19,233",56
Nome,46.67580081,-97.81622542,North Dakota,62,56
Noonan,48.8898613,-103.0099513,North Dakota,121,56
Norlina,36.44516426,-78.1951801,North Carolina,"1,118",56
Norman,35.16976112,-79.72315905,North Carolina,138,56
North Baltimore,41.17986494,-83.67022553,Ohio,"3,432",56
North Bay,42.7644402,-87.78103185,Wisconsin,241,2
North Bend,39.15071816,-84.7337745,Ohio,857,56
North Canton,40.87417402,-81.39701701,Ohio,"17,492",56
North College Hill,39.21746135,-84.55206851,Ohio,"9,397",56
North Fairfield,41.10447849,-82.6137379,Ohio,560,56
North Hampton,39.98856677,-83.948411,Ohio,478,56
North Kingsville,41.91882512,-80.6722773,Ohio,"2,923",56
North Lawrence,40.84198475,-81.633503,Ohio,268,56
North Lewisburg,40.22442031,-83.557387,Ohio,"1,490",56
North Madison,41.82979429,-81.0507691,Ohio,"8,547",56
North Olmsted,41.41498347,-81.91903058,Ohio,"32,718",56
North Perry,41.8000997,-81.12409138,Ohio,893,56
North Randall,41.43264293,-81.5289761,Ohio,"1,027",56
North Ridgeville,41.38515709,-82.01944518,Ohio,"29,465",56
North River,46.95029629,-96.80211874,North Dakota,56,56
North Robinson,40.79238221,-82.85679609,Ohio,205,56
North Royalton,41.31383459,-81.74515785,Ohio,"30,450",56
North Star,40.32430754,-84.56893265,Ohio,236,56
North Topsail Beach,34.48855788,-77.43080777,North Carolina,743,56
North Wilkesboro,36.16724988,-81.15303175,North Carolina,"4,269",56
North Zanesville,39.9906003,-81.99817525,Ohio,"2,816",56
Northbrook,39.24668562,-84.57962414,Ohio,"10,668",56
Northchase,34.30486588,-77.87540402,North Carolina,"3,747",56
Northfield,41.34264721,-81.52857245,Ohio,"3,677",56
Northgate,39.26286478,-84.5852065,Ohio,"7,377",56
Northlakes,35.77674342,-81.365803,North Carolina,"1,534",56
Northridge,39.99401931,-83.7712095,Ohio,"7,572",56
Northwest,34.31488549,-78.14532741,North Carolina,735,56
Northwood,41.60890821,-83.48362017,Ohio,"5,265",56
Northwood,47.73659724,-97.5652265,North Dakota,945,56
Norton,41.02540239,-81.66357675,Ohio,"12,092",56
Norwalk,41.2443481,-82.61043786,Ohio,"17,012",56
Norwalk,43.83417423,-90.62685393,Wisconsin,638,1
Norwich,39.98676118,-81.7896835,Ohio,102,56
Norwood,35.22885078,-80.116739,North Carolina,"2,379",56
Norwood,39.16049172,-84.45354186,Ohio,"19,207",56
Oak City,35.9616816,-77.3040442,North Carolina,317,56
Oak Creek,42.88026483,-87.90079552,Wisconsin,"34,451",7
Oak Harbor,41.51516069,-83.15076075,Ohio,"2,759",56
Oak Hill,38.89619925,-82.56909687,Ohio,"1,551",56
Oak Island,33.96160236,-78.1455265,North Carolina,"6,828",56
Oak Ridge,36.173762,-79.9905983,North Carolina,"6,430",56
Oakboro,35.22642618,-80.33205354,North Carolina,"1,859",56
Oakdale,43.96067877,-90.3800375,Wisconsin,297,2
Oakes,46.13970462,-98.08712211,North Dakota,"1,870",56
Oakfield,43.68425771,-88.54762726,Wisconsin,"1,075",1
Oakwood,39.72021636,-84.17332538,Ohio,"9,202",56
Oakwood,41.09275726,-84.37473122,Ohio,608,56
Oakwood,41.36138103,-81.507848,Ohio,"3,667",56
Oberlin,41.28571363,-82.2197452,Ohio,"8,286",56
Oberon,47.92420837,-99.20591152,North Dakota,105,56
Obetz,39.84933335,-82.9497935,Ohio,"4,532",56
Ocean Isle Beach,33.8919183,-78.4273181,North Carolina,551,56
Oceola,40.84334013,-83.0979965,Ohio,190,56
Oconomowoc,43.09956845,-88.49502094,Wisconsin,"15,802",4
Oconto,44.89201804,-87.86965897,Wisconsin,"4,513",1
Oconto Falls,44.87379973,-88.14441473,Wisconsin,"2,891",1
Ocracoke,35.11298653,-75.95151522,North Carolina,948,56
Octa,39.61342248,-83.61057264,Ohio,59,56
Ogden,34.26584467,-77.7978296,North Carolina,"6,698",56
Ogema,45.45105837,-90.2926847,Wisconsin,186,1
Ohio City,40.77029529,-84.61623106,Ohio,705,56
Okauchee Lake,43.12479729,-88.44077362,Wisconsin,"4,466",3
Old Fort,35.63042395,-82.17773226,North Carolina,908,56
Old Fort,41.24187713,-83.1514168,Ohio,186,56
Old Hundred,34.82449107,-79.59214713,North Carolina,287,56
Old Washington,40.03761771,-81.44421807,Ohio,279,56
Olde West Chester,39.33521542,-84.40347508,Ohio,240,56
Olmsted Falls,41.35822363,-81.9068925,Ohio,"9,024",56
Omro,44.0391057,-88.73780614,Wisconsin,"3,522",2
Onalaska,43.88680607,-91.22503575,Wisconsin,"17,848",8
Ontario,40.77098397,-82.61047585,Ohio,"6,225",56
Ontario,43.72220608,-90.59406618,Wisconsin,554,2
Oostburg,43.62375005,-87.78885563,Wisconsin,"2,887",1
Orange,41.44144733,-81.47426608,Ohio,"3,323",56
Orangeville,41.34210872,-80.52761775,Ohio,194,56
Oregon,41.65259166,-83.43213163,Ohio,"20,317",56
Oregon,42.92535044,-89.3942135,Wisconsin,"9,241",1
Orient,39.80558264,-83.15277579,Ohio,270,56
Oriental,35.03123137,-76.69124187,North Carolina,900,56
Oriska,46.93129801,-97.79066876,North Dakota,118,56
Orrum,34.46672691,-79.00894512,North Carolina,91,56
Orrville,40.84802411,-81.77428423,Ohio,"8,380",56
Orwell,41.5363903,-80.85966382,Ohio,"1,660",56
Osgood,40.33939235,-84.49563155,Ohio,302,56
Oshkosh,44.02295248,-88.56188955,Wisconsin,"66,333",6
Osnabrock,48.66989973,-98.14887708,North Dakota,134,56
Osseo,44.57852561,-91.224373,Wisconsin,"1,701",1
Ossipee,36.16793517,-79.51368107,North Carolina,547,56
Ostrander,40.26487785,-83.2156485,Ohio,643,56
Ottawa,41.02024371,-84.03543096,Ohio,"4,445",56
Ottawa Hills,41.66472976,-83.63322575,Ohio,"4,558",56
Ottoville,40.9376428,-84.3345895,Ohio,976,56
Otway,38.86502023,-83.18862657,Ohio,87,56
Owensville,39.12417941,-84.13666684,Ohio,794,56
Oxbow,46.66285992,-96.81097,North Dakota,323,56
Oxford,36.31081577,-78.58842629,North Carolina,"8,470",56
Oxford,39.50626451,-84.74362137,Ohio,"21,428",56
Oxford,43.77958532,-89.5730305,Wisconsin,607,1
Packwaukee,43.76530231,-89.45978956,Wisconsin,262,2
Page,47.1591898,-97.56813135,North Dakota,240,56
Painesville,41.72398282,-81.25367746,Ohio,"19,563",56
Palermo,48.33796799,-102.2297441,North Dakota,74,56
Palestine,40.0501517,-84.7443205,Ohio,200,56
Palmyra,42.88061567,-88.58255,Wisconsin,"1,792",3
Pancoastburg,39.62396239,-83.26422077,Ohio,87,56
Pandora,40.947366,-83.95660073,Ohio,"1,169",56
Pantego,35.58737292,-76.65939659,North Carolina,179,56
Pardeeville,43.53583544,-89.3010229,Wisconsin,"2,115",2
Park Falls,45.93481127,-90.44630444,Wisconsin,"2,462",1
Park Layne,39.88813744,-84.03938604,Ohio,"4,343",56
Park Ridge,44.51999506,-89.54627929,Wisconsin,491,2
Park River,48.39220098,-97.74157083,North Dakota,"1,403",56
Parkman,41.3722106,-81.05922999,Ohio,196,48
Parkton,34.90284386,-79.00975497,North Carolina,436,56
Parma,41.38492426,-81.7096955,Ohio,"81,595",56
Parma Heights,41.3865099,-81.7636535,Ohio,"20,718",56
Parmele,35.81895008,-77.31460169,North Carolina,278,56
Parral,40.56094461,-81.49497069,Ohio,218,56
Parshall,47.95575925,-102.1341949,North Dakota,903,56
Pataskala,40.0110741,-82.71526252,Ohio,"15,240",56
Patch Grove,42.94028781,-90.97234314,Wisconsin,198,2
Patterson,40.78217068,-83.52613156,Ohio,139,56
Patterson Springs,35.23299719,-81.51618625,North Carolina,622,56
Paulding,41.14237791,-84.58239172,Ohio,"3,605",56
Payne,41.07972444,-84.725359,Ohio,"1,194",56
Peachland,34.99312175,-80.26596476,North Carolina,437,56
Peebles,38.94629078,-83.40937827,Ohio,"1,782",56
Pekin,47.79191102,-98.32776952,North Dakota,70,56
Peletier,34.72192496,-77.0739605,North Carolina,715,56
Pella,44.73937368,-88.820292,Wisconsin,185,1
Pemberville,41.40959178,-83.45876154,Ohio,"1,377",56
Pembina,48.96693116,-97.24760926,North Dakota,595,56
Pembine,45.6368426,-87.99165551,Wisconsin,193,2
Pembroke,34.67974045,-79.19704911,North Carolina,"3,087",56
Pence,46.41032337,-90.2694999,Wisconsin,131,1
Peninsula,41.23794273,-81.55185994,Ohio,565,56
Pepin,44.44241713,-92.14823261,Wisconsin,837,1
Pepper Pike,41.48005387,-81.46193484,Ohio,"5,979",56
Perry,41.76367378,-81.14301284,Ohio,"1,738",56
Perry Heights,40.79773993,-81.46805024,Ohio,"8,441",56
Perrysburg,41.5375729,-83.6410795,Ohio,"20,818",56
Perrysville,40.65840647,-82.31445463,Ohio,735,56
Peshtigo,45.05556263,-87.7475916,Wisconsin,"3,502",2
Petersburg,48.01318353,-98.00038377,North Dakota,192,56
Pettibone,47.11951422,-99.52046499,North Dakota,70,56
Pettisville,41.53235147,-84.22308989,Ohio,498,56
Pewaukee,43.06615911,-88.21533025,Wisconsin,"13,190",2
Pewaukee,43.08543004,-88.25239402,Wisconsin,"8,166",1
Pheasant Run,41.20720959,-82.14808714,Ohio,"1,397",56
Phillips,45.69581737,-90.40179663,Wisconsin,"1,478",2
Phillipsburg,39.90395673,-84.40097968,Ohio,557,56
Philo,39.86131249,-81.90879567,Ohio,733,56
Pick City,47.51138064,-101.4570926,North Dakota,123,56
Pickerington,39.88866725,-82.76789388,Ohio,"18,301",56
Pigeon Creek,41.11031053,-81.67929525,Ohio,882,56
Pigeon Falls,44.42604382,-91.208217,Wisconsin,411,2
Piketon,39.06537171,-83.012491,Ohio,"2,181",56
Pikeville,35.49821388,-77.98565901,North Carolina,679,56
Pilot Mountain,36.38752224,-80.4708035,North Carolina,"1,609",56
Pine Knoll Shores,34.69816269,-76.8241906,North Carolina,"1,339",56
Pine Level,35.50894445,-78.24486518,North Carolina,"1,711",56
Pinebluff,35.10890349,-79.47144711,North Carolina,"1,334",56
Pinehurst,35.19180055,-79.46826406,North Carolina,"14,775",56
Pinetops,35.79125588,-77.63781445,North Carolina,"1,374",56
Pinetown,35.6111005,-76.85578899,North Carolina,155,56
Pineville,35.08638087,-80.89148877,North Carolina,"7,488",56
Piney Green,34.75005893,-77.32084583,North Carolina,"13,293",56
Pingree,47.16382301,-98.9085628,North Dakota,60,56
Pink Hill,35.05621327,-77.74363158,North Carolina,552,56
Pinnacle,36.32297846,-80.4241343,North Carolina,894,56
Pioneer,41.67732645,-84.5524268,Ohio,"1,393",56
Piqua,40.15056234,-84.24402968,Ohio,"20,524",56
Pisek,48.31064394,-97.71028044,North Dakota,106,56
Pitsburg,39.98715557,-84.48782959,Ohio,388,56
Pittsboro,35.72535506,-79.17237031,North Carolina,"3,871",56
Pittsville,44.43898769,-90.13011425,Wisconsin,874,4
Plain,43.27788954,-90.04227533,Wisconsin,773,1
Plain City,40.10664868,-83.26935522,Ohio,"4,230",56
Plain View,35.24569982,-78.56334082,North Carolina,"1,961",56
Plainfield,40.20509673,-81.71817468,Ohio,157,56
Plainville,39.14383698,-84.35929896,Ohio,87,56
Platteville,42.73663406,-90.4674975,Wisconsin,"11,244",4
Plaza,48.02598984,-101.9594223,North Dakota,171,56
Pleasant City,39.90327419,-81.54380764,Ohio,447,56
Pleasant Garden,35.95949744,-79.75997173,North Carolina,"4,490",56
Pleasant Grove,39.9512409,-81.95930515,Ohio,"1,742",56
Pleasant Hill,36.2580072,-80.89041135,North Carolina,878,56
Pleasant Hill,40.05062382,-84.34618439,Ohio,"1,200",56
Pleasant Hills,39.23647439,-84.52289029,Ohio,606,56
Pleasant Plain,39.27843337,-84.11211492,Ohio,154,56
Pleasant Run,39.29269411,-84.57572368,Ohio,"4,953",56
Pleasant Run Farm,39.30166739,-84.54930149,Ohio,"4,654",56
Pleasantville,39.80977798,-82.52228071,Ohio,960,56
Plumwood,40.00879188,-83.414812,Ohio,319,56
Plymouth,35.85994122,-76.74806925,North Carolina,"3,878",56
Plymouth,40.99657335,-82.66721799,Ohio,"1,857",56
Poland,41.02612802,-80.614024,Ohio,"2,555",56
Polk,40.94488784,-82.21467176,Ohio,336,56
Polkton,35.00803056,-80.20518825,North Carolina,"3,361",56
Polkville,35.41631912,-81.64402034,North Carolina,545,56
Pollocksville,35.00628079,-77.2205005,North Carolina,311,56
Pomeroy,39.03091138,-82.03977025,Ohio,"1,852",56
Porcupine,46.22183801,-101.100104,North Dakota,146,54
Port Clinton,41.50948944,-82.93847286,Ohio,"6,066",56
Port Jefferson,40.33007002,-84.092248,Ohio,371,56
Port Washington,40.32677206,-81.51911417,Ohio,569,56
Port William,39.55226159,-83.78545922,Ohio,254,56
Portage,41.32605781,-83.6526865,Ohio,438,56
Portage Lakes,41.00343316,-81.53472122,Ohio,"6,968",56
Portal,48.99463873,-102.5478922,North Dakota,126,56
Porters Neck,34.29521782,-77.76992025,North Carolina,"6,207",56
Portland,47.4995109,-97.36930556,North Dakota,606,56
Portsmouth,38.74703735,-82.9762495,Ohio,"20,226",56
Potsdam,39.96371239,-84.41482069,Ohio,288,56
Potters Hill,34.96447053,-77.69832278,North Carolina,481,56
Pottery Addition,40.40279239,-80.62453999,Ohio,293,56
Powell,40.15311573,-83.080692,Ohio,"11,810",56
Powellsville,36.22525092,-76.93157321,North Carolina,276,56
Powers Lake,48.56370902,-102.6451713,North Dakota,280,56
Powhatan Point,39.8607157,-80.8096335,Ohio,"1,592",56
Prairie Rose,46.81712053,-96.83539474,North Dakota,74,56
Princeton,35.46691579,-78.16038873,North Carolina,"1,255",56
Princeville,35.88849371,-77.52890125,North Carolina,"2,082",56
Proctorville,34.4751789,-79.03703899,North Carolina,117,56
Proctorville,38.43760689,-82.38177392,Ohio,574,56
Prospect,34.73581229,-79.22515602,North Carolina,981,56
Prospect,40.45391732,-83.18480422,Ohio,"1,112",56
Pulaski,41.51083189,-84.50788894,Ohio,132,56
Pumpkin Center,34.78606326,-77.36417572,North Carolina,"2,222",56
Put-in-Bay,41.65164251,-82.81785648,Ohio,138,56
Quaker City,39.96965623,-81.29735698,Ohio,502,56
Quincy,40.29556747,-83.96866339,Ohio,706,56
Racine,38.96840443,-81.91110367,Ohio,732,56
Racine,42.73352072,-87.79871675,Wisconsin,"78,817",1
Radisson,45.76831201,-91.2179047,Wisconsin,241,4
Radnor,40.38657625,-83.14105475,Ohio,201,56
Raeford,34.98089536,-79.22899479,North Carolina,"4,609",56
Raemon,34.62294993,-79.34908514,North Carolina,282,56
Raleigh,35.83418887,-78.64679197,North Carolina,"404,692",56
Ramseur,35.73325276,-79.65160434,North Carolina,"1,692",56
Randleman,35.8154793,-79.80866486,North Carolina,"4,113",56
Ranlo,35.28819389,-81.12944338,North Carolina,"3,499",56
Rarden,38.92331512,-83.2424136,Ohio,159,56
Ravenna,41.15957458,-81.2295815,Ohio,"11,724",56
Rawson,40.95688588,-83.78496693,Ohio,570,56
Ray,48.34163703,-103.1635155,North Dakota,592,56
Rayland,40.18425222,-80.69102177,Ohio,417,56
Raymond,40.33501447,-83.46347496,Ohio,257,56
Raynham,34.57608879,-79.19085615,North Carolina,72,56
Reading,39.22422838,-84.43334219,Ohio,"10,385",56
Red Cross,35.26605442,-80.3635784,North Carolina,742,56
Red Oak,36.03402239,-77.9067595,North Carolina,"3,430",56
Red Springs,34.81558102,-79.18299747,North Carolina,"3,428",56
Reeder,46.10806289,-102.9490213,North Dakota,162,56
Regent,46.42219703,-102.5580519,North Dakota,160,56
Reidsville,36.34244625,-79.66887968,North Carolina,"14,520",56
Reile's Acres,46.92696429,-96.86663863,North Dakota,513,56
Reminderville,41.34031167,-81.41215175,Ohio,"3,404",56
Remington,39.2284231,-84.32307161,Ohio,328,56
Rennert,34.81409289,-79.07911559,North Carolina,383,56
Reno,39.37681747,-81.39330522,Ohio,"1,293",56
Republic,41.12501726,-83.01665683,Ohio,549,56
Rex,34.85079417,-79.04685256,North Carolina,55,56
Reynolds,47.66852954,-97.10596794,North Dakota,301,56
Reynoldsburg,39.95505549,-82.81255175,Ohio,"35,887",56
Rhame,46.23464909,-103.6549824,North Dakota,169,56
Rhodhiss,35.76871701,-81.4313044,North Carolina,"1,070",56
Rich Square,36.27394232,-77.28390643,North Carolina,958,56
Richardton,46.88222222,-102.3410862,North Dakota,530,56
Richfield,35.47044517,-80.25756295,North Carolina,613,56
Richfield,41.23542492,-81.6420914,Ohio,"3,648",56
Richlands,34.9003487,-77.54268824,North Carolina,"1,520",56
Richmond,40.43284969,-80.77189042,Ohio,481,56
Richmond Dale,39.20419145,-82.81214975,Ohio,377,56
Richmond Heights,41.55892589,-81.50286638,Ohio,"10,546",56
Richville,40.75288268,-81.46834425,Ohio,"3,321",56
Richwood,40.4276499,-83.29553514,Ohio,"2,229",56
Ridgeville Corners,41.43875349,-84.25536369,Ohio,435,56
Ridgeway,40.51210929,-83.56911304,Ohio,338,56
Riegelwood,34.34440889,-78.21972664,North Carolina,579,56
Rio Grande,38.87959183,-82.37899363,Ohio,830,56
Ripley,38.73926808,-83.8424805,Ohio,"1,750",56
Risingsun,41.26705334,-83.42691117,Ohio,606,56
Rittman,40.97360256,-81.78496747,Ohio,"6,485",56
River Bend,35.07168822,-77.15038534,North Carolina,"3,119",56
River Road,35.51079349,-76.98957339,North Carolina,"4,394",56
Riverdale,47.49753462,-101.3661367,North Dakota,205,56
Riverlea,40.0811717,-83.024974,Ohio,545,56
Riverside,39.76477542,-84.11406839,Ohio,"25,201",56
Roaming Shores,41.64302322,-80.827571,Ohio,"1,508",56
Roanoke Rapids,36.45107003,-77.6511132,North Carolina,"15,754",56
Robbins,35.43205661,-79.58532063,North Carolina,"1,111",56
Robbinsville,35.32345939,-83.80543625,North Carolina,643,56
Robersonville,35.8247887,-77.25294738,North Carolina,"1,488",56
Robertsville,40.76197992,-81.19377783,Ohio,331,56
Rochester,41.12454398,-82.30584633,Ohio,182,56
Rock Creek,41.66043106,-80.85432832,Ohio,529,56
Rockbridge,39.58840558,-82.5285415,Ohio,182,56
Rockfish,34.99803723,-79.0722685,North Carolina,"3,298",56
Rockford,40.69151658,-84.65022925,Ohio,"1,120",56
Rockingham,34.93846456,-79.76038987,North Carolina,"9,555",56
Rocklake,48.79015967,-99.24589819,North Dakota,101,56
Rockwell,35.55417876,-80.40664284,North Carolina,"2,110",56
Rocky Fork Point,39.1878454,-83.4901063,Ohio,639,56
Rocky Mount,35.96745938,-77.80360384,North Carolina,"57,593",56
Rocky Point,34.44405077,-77.89090777,North Carolina,"1,602",56
Rocky Ridge,41.53098769,-83.21259162,Ohio,417,56
Rocky River,41.47028388,-81.85252743,Ohio,"20,210",56
Rodanthe,35.59018657,-75.46549581,North Carolina,261,56
Rogers,40.78966709,-80.62746232,Ohio,237,56
Rolesville,35.92322915,-78.46168712,North Carolina,"3,788",56
Rolette,48.66089744,-99.84167522,North Dakota,594,56
Rolla,48.86094453,-99.618075,North Dakota,"1,272",56
Rome (Stout),38.66567299,-83.37932189,Ohio,94,56
Ronda,36.2217178,-80.94323674,North Carolina,417,56
Roper,35.87864004,-76.61705817,North Carolina,611,56
Rose Farm,39.73581182,-82.0778245,Ohio,110,48
Rose Hill,34.82580616,-78.02721424,North Carolina,"1,626",56
Roseboro,34.95388059,-78.51180017,North Carolina,"1,191",56
Rosemount,38.78123711,-82.96639507,Ohio,"2,112",56
Roseville,39.8077665,-82.07442475,Ohio,"1,852",56
Rosewood,40.21490396,-83.965148,Ohio,257,56
Rosman,35.14409838,-82.82250065,North Carolina,576,56
Ross,39.31464484,-84.65993007,Ohio,"3,417",56
Ross,48.31277515,-102.5435091,North Dakota,97,56
Rossburg,40.28020259,-84.63828025,Ohio,201,56
Rossford,41.59768923,-83.55516325,Ohio,"6,293",56
Rossmoyne,39.21445852,-84.38865072,Ohio,"2,232",56
Roswell,40.475462,-81.34362225,Ohio,219,56
Rougemont,36.2208232,-78.92060137,North Carolina,978,56
Rowland,34.53725172,-79.29252464,North Carolina,"1,037",56
Roxboro,36.37411145,-78.983414,North Carolina,"8,371",56
Roxobel,36.20152796,-77.23980443,North Carolina,240,56
Royal Pines,35.47829657,-82.50380989,North Carolina,"4,272",56
Rudolph,41.29656233,-83.66404167,Ohio,458,56
Ruffin,36.44275879,-79.54328936,North Carolina,368,56
Rugby,48.36556994,-99.99038424,North Dakota,"2,881",56
Rural Hall,36.22346253,-80.300867,North Carolina,"2,937",56
Rushsylvania,40.46131272,-83.6711708,Ohio,516,56
Rushville,39.76434813,-82.43033337,Ohio,302,56
Russells Point,40.46814807,-83.89388067,Ohio,"1,391",56
Russellville,38.8672732,-83.78778332,Ohio,561,56
Russia,40.23411867,-84.40773396,Ohio,640,56
Ruth,35.38236863,-81.94484742,North Carolina,440,56
Rutherford College,35.75067812,-81.52682658,North Carolina,"1,341",56
Rutherfordton,35.36156574,-81.96085738,North Carolina,"4,230",56
Ruthville,48.37081385,-101.3002341,North Dakota,191,56
Rutland,39.04102007,-82.12792826,Ohio,393,56
Rutland,46.05434331,-97.50680123,North Dakota,163,56
Ryder,47.92387803,-101.6629338,North Dakota,85,56
Sabina,39.49017019,-83.63366281,Ohio,"2,564",56
Salem,35.68891206,-81.701045,North Carolina,"2,218",56
Salem,40.90494476,-80.8491762,Ohio,"12,303",56
Salem Heights,39.06579864,-84.38401571,Ohio,"3,839",56
Salemburg,35.0151581,-78.50279909,North Carolina,435,56
Salesville,39.97408919,-81.33656772,Ohio,138,56
Salineville,40.62331245,-80.8370675,Ohio,"1,311",56
Salisbury,35.66593915,-80.49030549,North Carolina,"33,611",56
Saluda,35.23631662,-82.350839,North Carolina,713,56
Salvo,35.54895512,-75.46897907,North Carolina,229,56
Sanborn,46.94206314,-98.2248055,North Dakota,192,56
Sandusky,41.44361938,-82.71576487,Ohio,"25,793",56
Sandy Creek,34.28540539,-78.1587095,North Carolina,260,56
Sandyfield,34.37265659,-78.3023835,North Carolina,464,56
Sandyville,40.64672324,-81.36705493,Ohio,368,56
Sanford,35.47759523,-79.17829406,North Carolina,"28,405",56
Sarahsville,39.80749385,-81.46935408,Ohio,170,56
Saratoga,35.65368246,-77.77533465,North Carolina,408,56
Sardinia,39.00705096,-83.80325877,Ohio,"1,215",56
Sardis,39.62692132,-80.90584525,Ohio,559,56
Savannah,40.96727352,-82.364266,Ohio,413,56
Sawmills,35.81671843,-81.47780096,North Carolina,"5,240",56
Sawyer,48.08945757,-101.0533135,North Dakota,357,56
Sawyerwood,41.0344429,-81.44125166,Ohio,"1,540",56
Saxapahaw,35.95113042,-79.3218745,North Carolina,"1,648",56
Scio,40.39657632,-81.0876165,Ohio,763,56
Sciotodale,38.75386686,-82.8604944,Ohio,"1,081",56
Scotch Meadows,34.68894827,-79.51771617,North Carolina,580,56
Scotland Neck,36.13079972,-77.42138353,North Carolina,"2,059",56
Scott,40.98895854,-84.58368978,Ohio,286,56
Scranton,46.14947949,-103.1429774,North Dakota,279,56
Sea Breeze,34.0698953,-77.89730376,North Carolina,"1,969",56
Seaboard,36.49068977,-77.4419658,North Carolina,632,56
Seagrove,35.53914238,-79.77830943,North Carolina,228,56
Seaman,38.93313658,-83.5677125,Ohio,944,56
Sebring,40.92064093,-81.02309767,Ohio,"4,420",56
Sedalia,36.07595211,-79.62072447,North Carolina,645,56
Selfridge,46.04168223,-100.9243572,North Dakota,160,56
Selma,35.51695093,-78.299458,North Carolina,"6,124",56
Senecaville,39.9347643,-81.45946215,Ohio,457,56
Sentinel Butte,46.91951292,-103.8399725,North Dakota,56,56
Seven Devils,36.15018403,-81.8118065,North Carolina,192,56
Seven Hills,41.38043658,-81.67366318,Ohio,"11,804",56
Seven Lakes,35.26471504,-79.58647825,North Carolina,"4,888",56
Seven Mile,39.48037934,-84.5552515,Ohio,751,56
Seven Springs,35.22483154,-77.84513617,North Carolina,110,56
Severn,36.51420346,-77.18928774,North Carolina,276,56
Seville,41.02077963,-81.86713937,Ohio,"2,296",56
Shadyside,39.971746,-80.75115428,Ohio,"3,785",56
Shaker Heights,41.47164768,-81.5503355,Ohio,"28,448",56
Shallotte,33.9781238,-78.38829389,North Carolina,"3,683",56
Shannon,34.84766823,-79.1395868,North Carolina,263,56
Sharon,47.59739662,-97.89941299,North Dakota,96,56
Sharonville,39.28251464,-84.40713426,Ohio,"13,560",56
Sharpsburg,35.86504743,-77.8304255,North Carolina,"2,024",56
Shawnee,39.13664594,-84.78869979,Ohio,724,56
Shawnee,39.60928352,-82.2065855,Ohio,655,56
Shawnee Hills,39.65146851,-83.78215616,Ohio,"2,171",56
Shawnee Hills,40.16026762,-83.13578588,Ohio,681,56
Sheffield,41.45588408,-82.09117015,Ohio,"3,982",56
Sheffield Lake,41.48836673,-82.09763248,Ohio,"9,137",56
Shelby,35.28984935,-81.53918994,North Carolina,"20,495",56
Shelby,40.88462554,-82.65773792,Ohio,"9,317",56
Sheldon,46.5884915,-97.49438242,North Dakota,116,56
Shell Valley,48.81080133,-99.82727988,North Dakota,"1,197",56
Sherrodsville,40.49443766,-81.24231025,Ohio,304,56
Sherwood,39.08528682,-84.36083435,Ohio,"3,719",56
Sherwood,41.28895427,-84.55301484,Ohio,830,56
Sherwood,48.96186693,-101.6328017,North Dakota,242,56
Sheyenne,47.82759496,-99.11692454,North Dakota,204,56
Shiloh,40.96947061,-82.60154752,Ohio,649,56
Shreve,40.68126459,-82.02178666,Ohio,"1,514",56
Sidney,40.28907936,-84.16678931,Ohio,"21,234",56
Siler City,35.72380372,-79.46109751,North Carolina,"7,853",56
Silver City,34.99797546,-79.236322,North Carolina,882,56
Silver Lake,34.14092079,-77.9089437,North Carolina,"5,598",56
Silver Lake,41.15934187,-81.46055327,Ohio,"2,519",56
Silverton,39.18102245,-84.395558,Ohio,"4,788",56
Simpson,35.5751759,-77.27887167,North Carolina,416,56
Sims,35.7597623,-78.05902448,North Carolina,282,56
Sinking Spring,39.07472192,-83.38713546,Ohio,133,56
Sixteen Mile Stand,39.27667255,-84.3249,Ohio,"2,824",56
Skippers Corner,34.3292088,-77.91404192,North Carolina,"2,785",56
Skyline Acres,39.2276549,-84.56646391,Ohio,"1,717",56
Smithfield,35.51414744,-78.34860538,North Carolina,"10,966",56
Smithfield,40.27155691,-80.7772688,Ohio,869,56
Smithville,40.86249705,-81.86035034,Ohio,"1,252",56
Sneads Ferry,34.55365542,-77.38672119,North Carolina,"2,646",56
Snow Hill,35.45159586,-77.67795332,North Carolina,"1,595",56
Solen,46.38731249,-100.7956474,North Dakota,83,56
Solon,41.38643829,-81.44011026,Ohio,"23,348",56
Somerset,39.80637798,-82.29958979,Ohio,"1,481",56
Somerville,39.56385964,-84.63898503,Ohio,281,56
Souris,48.90995884,-100.6826475,North Dakota,54,56
South Amherst,41.34773824,-82.2324335,Ohio,"1,688",56
South Bloomfield,39.71700449,-82.99312981,Ohio,"1,744",56
South Canal,41.17592353,-80.98638939,Ohio,"1,103",56
South Charleston,39.82428292,-83.64159988,Ohio,"1,708",56
South Euclid,41.5239388,-81.52449053,Ohio,"22,295",56
South Heart,46.86796242,-102.9894643,North Dakota,301,56
South Henderson,36.30416498,-78.404076,North Carolina,"1,216",56
South Lebanon,39.36790943,-84.2131095,Ohio,"4,410",56
South Mills,36.4378665,-76.33074011,North Carolina,454,56
South Point,38.42155406,-82.57826563,Ohio,"3,958",56
South Rosemary,36.44628503,-77.7064482,North Carolina,"2,836",56
South Russell,41.43181457,-81.33506771,Ohio,"3,810",56
South Salem,39.33737394,-83.30696144,Ohio,204,56
South Solon,39.73742744,-83.61272036,Ohio,355,56
South Vienna,39.92916236,-83.6144795,Ohio,384,56
South Webster,38.81701643,-82.7282108,Ohio,866,56
South Weldon,36.41355268,-77.60242442,North Carolina,705,56
South Zanesville,39.90361748,-82.0178631,Ohio,"1,989",56
Southern Pines,35.19001216,-79.40507155,North Carolina,"12,562",56
Southern Shores,36.12030247,-75.73244497,North Carolina,"2,714",56
Southmont,35.65358202,-80.27016518,North Carolina,"1,470",56
Southport,33.92538493,-78.0193145,North Carolina,"2,833",56
Sparta,36.5033865,-81.12174932,North Carolina,"1,770",56
Sparta,40.39443321,-82.69964751,Ohio,161,56
Speed,35.96846495,-77.44426898,North Carolina,80,56
Spencer,35.69586718,-80.43033871,North Carolina,"3,267",56
Spencer,41.09915857,-82.12306096,Ohio,753,56
Spencerville,40.70791915,-84.35267931,Ohio,"2,223",56
Spindale,35.3599265,-81.92327454,North Carolina,"4,321",56
Spiritwood Lake,47.07430647,-98.58661349,North Dakota,90,56
Spivey's Corner,35.19822437,-78.48256135,North Carolina,506,56
Spring Hope,35.94412591,-78.10896556,North Carolina,"1,320",56
Spring Lake,35.17447819,-79.002244,North Carolina,"12,117",56
Spring Valley,39.6101687,-84.00689121,Ohio,479,56
Springboro,39.56111738,-84.23491786,Ohio,"17,409",56
Springdale,39.29090065,-84.47595182,Ohio,"11,223",56
Springfield,39.92977886,-83.79594498,Ohio,"60,947",56
Spruce Pine,35.91522018,-82.07047703,North Carolina,"2,201",56
St. Bernard,39.17111839,-84.49549058,Ohio,"4,368",56
St. Clairsville,40.07920901,-80.89964515,Ohio,"5,184",56
St. Helena,34.5166234,-77.91739369,North Carolina,389,56
St. Henry,40.4204455,-84.6346295,Ohio,"2,427",56
St. James,33.94720884,-78.11201711,North Carolina,"3,167",56
St. John,48.94376658,-99.71309647,North Dakota,341,56
St. Johns,40.55577868,-84.08391675,Ohio,185,56
St. Louisville,40.17110888,-82.41805268,Ohio,373,56
St. Martin,39.21177351,-83.88440531,Ohio,147,56
St. Marys,40.54253899,-84.3942135,Ohio,"8,332",56
St. Paris,40.12694361,-83.96435207,Ohio,"2,086",56
St. Pauls,34.80751348,-78.9720143,North Carolina,"2,368",56
St. Stephens,35.76420844,-81.2748359,North Carolina,"8,735",56
St. Thomas,48.61923594,-97.44710701,North Dakota,331,56
Stafford,39.71241199,-81.27657756,Ohio,81,56
Staley,35.7979362,-79.55175157,North Carolina,393,56
Stallings,35.11111041,-80.65649729,North Carolina,"13,944",56
Stanfield,35.23361914,-80.43069699,North Carolina,"1,486",56
Stanley,35.35805694,-81.0955085,North Carolina,"3,556",56
Stanley,48.31631142,-102.3872658,North Dakota,"1,458",56
Stanton,47.31868147,-101.3822165,North Dakota,366,56
Stantonsburg,35.60552333,-77.81991857,North Carolina,784,56
Star,35.39906772,-79.78331146,North Carolina,876,56
Starkweather,48.45208396,-98.87844092,North Dakota,117,56
Statesville,35.78670104,-80.87035825,North Carolina,"24,554",56
Stedman,35.01174684,-78.69840053,North Carolina,"1,028",56
Steele,46.85680091,-99.91812531,North Dakota,709,56
Stem,36.20015272,-78.7226796,North Carolina,463,56
Sterling,40.96093357,-81.83788675,Ohio,457,56
Steubenville,40.36542448,-80.6300665,Ohio,"18,659",56
Stewart,39.30802853,-81.89749003,Ohio,247,56
Stockdale,38.95784018,-82.85732501,Ohio,135,56
Stockport,39.54887023,-81.79439673,Ohio,503,56
Stokes,35.71054195,-77.26759824,North Carolina,376,56
Stokesdale,36.23177746,-79.98337057,North Carolina,"5,050",56
Stone Creek,40.3997533,-81.55808249,Ohio,177,56
Stoneville,36.46531455,-79.90634299,North Carolina,"1,181",56
Stonewall,35.13638818,-76.7423078,North Carolina,281,56
Stony Point,35.86698295,-81.04699102,North Carolina,"1,317",56
Stony Prairie,41.3457071,-83.152128,Ohio,"1,280",56
Stony Ridge,41.50149589,-83.50176125,Ohio,411,56
Stoutsville,39.6052815,-82.81849775,Ohio,560,56
Stovall,36.44754645,-78.56889168,North Carolina,418,56
Stow,41.17649412,-81.43440371,Ohio,"34,837",56
Strasburg,40.59990657,-81.52572575,Ohio,"2,608",56
Strasburg,46.13377245,-100.1610573,North Dakota,404,56
Stratton,40.52543653,-80.63143377,Ohio,294,56
Streeter,46.65697796,-99.35994,North Dakota,170,56
Streetsboro,41.23959597,-81.34557067,Ohio,"16,028",56
Strongsville,41.31278591,-81.83132003,Ohio,"44,750",56
Struthers,41.05097539,-80.59202076,Ohio,"10,713",56
Stryker,41.50259473,-84.41830874,Ohio,"1,332",56
Sugar Bush Knolls,41.20364696,-81.34707336,Ohio,177,56
Sugar Grove,39.62799557,-82.54551552,Ohio,426,56
Sugar Mountain,36.1269796,-81.86493884,North Carolina,198,56
Sugarcreek,40.50761839,-81.64089828,Ohio,"2,220",56
Sulphur Springs,40.87221983,-82.87642972,Ohio,194,56
Summerfield,36.19736787,-79.8997549,North Carolina,"10,244",56
Summerfield,39.79690865,-81.3355048,Ohio,254,56
Summerside,39.11877464,-84.2861118,Ohio,"5,083",56
Summitville,40.67589611,-80.88753006,Ohio,135,56
Sunbury,36.44689449,-76.61273238,North Carolina,289,56
Sunbury,40.24093371,-82.8906155,Ohio,"4,653",56
Sunset Beach,33.89953236,-78.51362059,North Carolina,"3,572",56
Surf City,34.43956189,-77.5312641,North Carolina,"1,855",56
Surrey,48.24351499,-101.1339192,North Dakota,952,56
Swan Quarter,35.41085859,-76.32507962,North Carolina,324,56
Swannanoa,35.60089562,-82.39173768,North Carolina,"4,576",56
Swansboro,34.69441622,-77.137551,North Carolina,"2,662",56
Swanton,41.5836652,-83.88825489,Ohio,"3,733",56
Swepsonville,36.03049056,-79.33927325,North Carolina,"1,159",56
Sycamore,40.95167264,-83.17096976,Ohio,861,56
Sykeston,47.46607113,-99.39931518,North Dakota,117,56
Sylva,35.37361132,-83.2200145,North Carolina,"2,588",56
Sylvania,41.70756647,-83.707658,Ohio,"19,180",56
Syracuse,38.99927652,-81.9737985,Ohio,826,56
Tabor City,34.15209105,-78.87184557,North Carolina,"2,508",56
Tallmadge,41.10229622,-81.42165204,Ohio,"17,541",56
Tappen,46.87160316,-99.62709591,North Dakota,197,56
Tar Heel,34.73072385,-78.7897595,North Carolina,117,56
Tarboro,35.90408763,-77.55636147,North Carolina,"11,415",56
Tarlton,39.55500959,-82.778132,Ohio,282,56
Taylor,46.90179849,-102.422192,North Dakota,148,56
Taylor Creek,39.23640959,-84.67963984,Ohio,"3,062",56
Taylorsville,35.9176724,-81.1831355,North Carolina,"2,103",56
Taylortown,35.21415918,-79.48963624,North Carolina,758,56
Teachey,34.76898515,-78.00792175,North Carolina,376,56
Tedrow,41.60291237,-84.20427324,Ohio,173,56
Terrace Park,39.15836427,-84.31118686,Ohio,"2,251",56
The Plains,39.36545716,-82.13436043,Ohio,"3,080",56
The Village of Indian Hill,39.19158253,-84.33442785,Ohio,"5,770",56
Thomasville,35.88103173,-80.08082948,North Carolina,"26,757",56
Thompson,47.77537966,-97.10585552,North Dakota,986,56
Thornport,39.92263749,-82.430763,Ohio,"1,004",56
Thornville,39.89290832,-82.41409354,Ohio,991,56
Thurston,39.84107539,-82.5484155,Ohio,604,56
Tiffin,41.11646423,-83.18047426,Ohio,"17,963",56
Tiltonsville,40.17216989,-80.69717636,Ohio,"1,372",56
Timberlake,41.66552224,-81.44279834,Ohio,675,56
Tioga,48.39474692,-102.9431269,North Dakota,"1,248",56
Tipp City,39.96419882,-84.18519903,Ohio,"9,770",56
Tippecanoe,40.27375656,-81.28106575,Ohio,121,56
Tiro,40.90623461,-82.76900105,Ohio,280,56
Toast,36.49661392,-80.63466351,North Carolina,"1,450",56
Tobaccoville,36.22346687,-80.33544825,North Carolina,"2,441",56
Toledo,41.67164946,-83.57448752,Ohio,"287,165",56
Tolley,48.73080451,-101.8270425,North Dakota,52,56
Tolna,47.82452024,-98.43455825,North Dakota,166,56
Tontogany,41.41994784,-83.7399285,Ohio,367,56
Topsail Beach,34.36638046,-77.64753793,North Carolina,368,56
Toronto,40.45917935,-80.60389975,Ohio,"5,413",56
Tower City,46.92630886,-97.67603479,North Dakota,253,56
Towner,48.34712065,-100.4069835,North Dakota,533,56
Tremont City,40.01598397,-83.842553,Ohio,375,56
Trent Woods,35.08102937,-77.09438571,North Carolina,"4,158",56
Trenton,35.0639887,-77.35527601,North Carolina,296,56
Trenton,39.47628442,-84.4586245,Ohio,"11,869",56
Trimble,39.48629501,-82.08070823,Ohio,390,56
Trinity,35.88109499,-80.003884,North Carolina,"6,612",56
Trinway,40.13760416,-82.01189077,Ohio,350,56
Trotwood,39.78924484,-84.33885825,Ohio,"24,431",56
Troutman,35.69859686,-80.89004429,North Carolina,"2,393",56
Troy,35.3648754,-79.89226507,North Carolina,"3,189",56
Troy,40.04354571,-84.21904104,Ohio,"25,185",56
Tryon,35.20821606,-82.23752899,North Carolina,"1,637",56
Tuppers Plains,39.17262478,-81.84658192,Ohio,465,56
Turkey,34.99503475,-78.18415162,North Carolina,292,56
Turpin Hills,39.10635264,-84.37028965,Ohio,"5,099",56
Turtle Lake,47.52157978,-100.890729,North Dakota,581,56
Tuscarawas,40.39552715,-81.40104376,Ohio,"1,056",56
Tuttle,47.14449098,-99.99340388,North Dakota,80,56
Twinsburg,41.32205521,-81.44477498,Ohio,"18,796",56
Twinsburg Heights,41.30636665,-81.45790035,Ohio,925,56
Tyro,35.7997137,-80.37644796,North Carolina,"3,879",56
Uhrichsville,40.38875497,-81.33945925,Ohio,"5,413",56
Underwood,47.45513083,-101.1418891,North Dakota,778,56
Union,39.9135247,-84.3103145,Ohio,"6,507",56
Union City,40.2013031,-84.79839825,Ohio,"1,666",56
Uniontown,40.9735879,-81.40442229,Ohio,"3,309",56
Unionville,35.07155972,-80.51718235,North Carolina,"6,110",56
Unionville Center,40.13666146,-83.34159013,Ohio,233,56
Uniopolis,40.60232212,-84.08569236,Ohio,234,56
University Heights,41.49480477,-81.53482103,Ohio,"13,539",56
Upham,48.58155017,-100.7284324,North Dakota,130,56
Upper Arlington,40.02717103,-83.070386,Ohio,"33,752",56
Upper Sandusky,40.82966708,-83.27180377,Ohio,"6,596",56
Urbana,40.1085486,-83.75399352,Ohio,"11,809",56
Urbancrest,39.89944205,-83.089431,Ohio,948,56
Utica,40.23349631,-82.44104103,Ohio,"2,132",56
Valdese,35.74414065,-81.54841325,North Carolina,"4,508",56
Valle Crucis,36.20747824,-81.7860178,North Carolina,412,56
Valley City,41.23537024,-81.93571981,Ohio,556,2
Valley City,46.92232956,-98.00550251,North Dakota,"6,611",56
Valley Hill,35.29810871,-82.4911175,North Carolina,"2,071",56
Vanceboro,35.303057,-77.15669984,North Carolina,"1,005",56
Vandemere,35.18825502,-76.66595834,North Carolina,254,56
Vander,35.03463836,-78.78864203,North Carolina,"1,146",56
Vann Crossroads,35.1696062,-78.40263888,North Carolina,336,56
Varnamtown,33.94301055,-78.23653992,North Carolina,541,56
Vass,35.25603009,-79.28164171,North Carolina,720,56
Velva,48.05819294,-100.9328873,North Dakota,"1,102",56
Verona,46.35983582,-98.08192475,North Dakota,89,56
Waco,35.36166405,-81.42867482,North Carolina,321,56
Wade,35.16380545,-78.73699804,North Carolina,556,56
Wadesboro,34.96460418,-80.07466218,North Carolina,"5,861",56
Wagram,34.88909962,-79.36520781,North Carolina,840,56
Wahpeton,46.27214196,-96.61181166,North Dakota,"7,766",56
Wake Forest,35.93921625,-78.48678225,North Carolina,"30,313",56
Wakulla,34.796961,-79.25597046,North Carolina,105,56
Walcott,46.55047256,-96.93754975,North Dakota,235,56
Walhalla,48.92103902,-97.91751663,North Dakota,996,56
Walkertown,36.13483935,-80.15011625,North Carolina,"4,691",56
Wallace,34.73795329,-77.9922334,North Carolina,"3,880",56
Wallburg,35.98977898,-80.128284,North Carolina,"3,047",56
Walnut Cove,36.29633623,-80.1394465,North Carolina,"1,596",56
Walnut Creek,35.3066683,-77.874847,North Carolina,882,56
Walstonburg,35.59396816,-77.6984645,North Carolina,219,56
Wanchese,35.83998645,-75.63874591,North Carolina,"1,642",56
Warrenton,36.39970136,-78.15713626,North Carolina,862,56
Warsaw,34.99982351,-78.092199,North Carolina,"3,054",56
Warwick,47.8547305,-98.70564612,North Dakota,65,56
Washburn,47.29205123,-101.0278394,North Dakota,"1,248",56
Washington,35.55475954,-77.05063356,North Carolina,"9,744",56
Washington Park,35.53286065,-77.03157393,North Carolina,451,56
Watford City,47.80084228,-103.2672165,North Dakota,"1,822",56
Watha,34.64443656,-77.96290756,North Carolina,190,56
Waves,35.56779377,-75.46648001,North Carolina,134,56
Waxhaw,34.93854599,-80.75609127,North Carolina,"9,888",56
Waynesville,35.47322204,-83.0008605,North Carolina,"9,881",56
Weaverville,35.69581997,-82.56652675,North Carolina,"3,626",56
Webster,35.34997609,-83.21897819,North Carolina,363,56
Weddington,35.02281445,-80.73831183,North Carolina,"9,521",56
Welcome,35.90662656,-80.25477419,North Carolina,"4,162",56
Weldon,36.42293214,-77.61267037,North Carolina,"1,655",56
Wendell,35.78146792,-78.36864684,North Carolina,"5,852",56
Wentworth,36.39143467,-79.75101161,North Carolina,"2,807",56
Wesley Chapel,35.0054404,-80.6678365,North Carolina,"7,707",56
West Canton,35.53838875,-82.86708366,North Carolina,"1,248",56
West Fargo,46.85714676,-96.9056367,North Dakota,"25,837",56
West Jefferson,36.39710231,-81.49210936,North Carolina,"1,312",56
West Marion,35.65188152,-82.01803608,North Carolina,"1,187",56
Westhope,48.91117646,-101.0177099,North Dakota,429,56
Westport,35.5102977,-80.97828598,North Carolina,"4,026",56
Wheatland,46.90489732,-97.34548287,North Dakota,68,56
Whispering Pines,35.25374078,-79.37526064,North Carolina,"2,928",56
Whitakers,36.10574633,-77.71308725,North Carolina,744,56
White Earth,48.37986765,-102.7717554,North Dakota,80,56
White Lake,34.64173008,-78.4968821,North Carolina,802,56
White Oak,34.73966038,-78.71859052,North Carolina,338,56
White Plains,36.44309123,-80.6355,North Carolina,"1,074",56
White Shield,47.66015853,-101.8435613,North Dakota,336,56
Whiteville,34.33060293,-78.70134341,North Carolina,"5,390",56
Whitsett,36.07702326,-79.571027,North Carolina,593,56
Wildrose,48.62995184,-103.1836677,North Dakota,110,56
Wilkesboro,36.1419111,-81.17308027,North Carolina,"3,444",56
Williamston,35.85390213,-77.05297275,North Carolina,"5,571",56
Williston,48.18142635,-103.636336,North Dakota,"15,906",56
Willow City,48.60469144,-100.293311,North Dakota,163,56
Wilmington,34.21044451,-77.88771967,North Carolina,"106,757",56
Wilson,35.71585531,-77.91114325,North Carolina,"49,252",56
Wilson's Mills,35.58648899,-78.35773359,North Carolina,"2,286",56
Wilton,47.15809224,-100.7841706,North Dakota,711,56
Wimbledon,47.169067,-98.45862898,North Dakota,216,56
Windsor,36.00065535,-76.952235,North Carolina,"3,630",56
Winfall,36.21064141,-76.45496834,North Carolina,594,56
Wing,47.14313992,-100.2780638,North Dakota,152,56
Wingate,34.98411276,-80.45164672,North Carolina,"3,491",56
Winston-Salem,36.10310277,-80.26102719,North Carolina,"229,669",56
Winterville,35.52870433,-77.39902754,North Carolina,"9,277",56
Winton,36.38990902,-76.93493922,North Carolina,769,56
Wishek,46.25762495,-99.555445,North Dakota,"1,002",56
Woodfin,35.64644135,-82.59051774,North Carolina,"6,050",56
Woodland,36.33231027,-77.2120166,North Carolina,809,56
Woodlawn,36.11437526,-79.293247,North Carolina,884,56
Woodworth,47.14222633,-99.30422843,North Dakota,50,56
Wrightsboro,34.28953196,-77.92168667,North Carolina,"4,896",56
Wrightsville Beach,34.20886064,-77.7941967,North Carolina,"2,475",56
Wyndmere,46.26412863,-97.13118219,North Dakota,429,56
Yadkinville,36.13119625,-80.65918647,North Carolina,"2,960",56
Yanceyville,36.40970107,-79.34368153,North Carolina,"2,039",56
Youngsville,36.02419816,-78.48135007,North Carolina,"1,197",56
Ypsilanti,46.78335959,-98.56098846,North Dakota,104,56
Zap,47.28468135,-101.9232773,North Dakota,237,56
Zebulon,35.82766109,-78.31614977,North Carolina,"4,467",56
Zeeland,45.97294358,-99.83244201,North Dakota,86,56
