LocationName,lat,lng,StateDesc,TotalPopulation,measure_count
Aaronsburg,40.01086975,-80.00091937,Pennsylvania,259.0,56
Aaronsburg,40.90422832,-77.45128169,Pennsylvania,613.0,56
Abanda,33.09136893,-85.524638,Alabama,192.0,56
Abbeville,29.97509614,-92.12656801,Louisiana,12311.0,56
Abbeville,31.56640742,-85.25278085,Alabama,2688.0,56
Abbeville,31.99251573,-83.306781,Georgia,2908.0,56
Abbeville,34.17870921,-82.37741882,South Carolina,5279.0,56
Abbeville,34.50339215,-89.50251696,Mississippi,419.0,56
Abbotsford,44.94324206,-90.31692817,Wisconsin,2316.0,56
Abbott,31.88399573,-97.074058,Texas,356.0,56
Abbottstown,39.88252387,-76.99295225,Pennsylvania,1011.0,56
Abbyville,37.9705757,-98.20296133,Kansas,87.0,56
Abercrombie,46.44809467,-96.726889,North Dakota,263.0,56
Aberdeen,33.83325916,-88.5737465,Mississippi,5612.0,56
Aberdeen,35.09762669,-79.41611075,North Carolina,6368.0,56
Aberdeen,38.67113125,-83.77026826,Ohio,1638.0,56
Aberdeen,39.5146152,-76.17289066,Maryland,15024.0,56
Aberdeen,41.4417936,-87.11661827,Indiana,1875.0,56
Aberdeen,42.94409835,-112.8383809,Idaho,1994.0,56
Aberdeen,45.46478778,-98.46737669,South Dakota,26112.0,56
Aberdeen,46.97315708,-123.7987095,Washington,16896.0,56
Aberdeen Gardens,47.05861155,-123.7791592,Washington,279.0,56
Aberdeen Proving Ground,39.46756473,-76.13225781,Maryland,2093.0,54
Abernathy,33.82482415,-101.8544573,Texas,2816.0,56
Abeytas,34.46520214,-106.813755,New Mexico,56.0,56
Abie,41.33401597,-96.94951442,Nebraska,69.0,56
Abilene,32.45426921,-99.73839335,Texas,117063.0,56
Abilene,38.92446314,-97.21500825,Kansas,6844.0,56
Abingdon,36.70894006,-81.97124436,Virginia,8186.0,56
Abingdon,40.8037813,-90.40093509,Illinois,3319.0,56
Abington,42.11804521,-70.9590365,Massachusetts,15985.0,56
Abiquiu,36.20172614,-106.3238512,New Mexico,231.0,56
Abita Springs,30.47609632,-90.0292128,Louisiana,2358.0,56
Abram,26.21816984,-98.41802825,Texas,2067.0,56
Abrams,44.77962523,-88.06038202,Wisconsin,340.0,56
Absarokee,45.52742932,-109.4574055,Montana,1150.0,56
Absecon,39.42530987,-74.4989729,New Jersey,8450.0,56
Acacia Villas,26.64573536,-80.11044395,Florida,427.0,56
Acalanes Ridge,37.90739342,-122.0777214,California,1137.0,56
Acampo,38.17352869,-121.2798914,California,341.0,56
Accident,39.62568791,-79.31995828,Maryland,325.0,56
Accokeek,38.67356305,-77.00060579,Maryland,10573.0,56
Accomac,37.71963526,-75.66737154,Virginia,519.0,56
Accord,41.79714461,-74.2319527,New York,562.0,56
Accoville,37.75820407,-81.814647,West Virginia,574.0,56
Acequia,42.66882863,-113.596847,Idaho,126.0,56
Achille,33.83464135,-96.39006682,Oklahoma,492.0,56
Ackerly,32.52506254,-101.7158467,Texas,220.0,56
Ackerman,33.31100707,-89.17109402,Mississippi,1510.0,56
Ackermanville,40.83504924,-75.22266781,Pennsylvania,610.0,56
Ackley,42.55191343,-93.05267559,Iowa,1589.0,56
Ackworth,41.36422764,-93.47230349,Iowa,151.0,56
Acme,48.71455958,-122.2292888,Washington,246.0,56
Acomita Lake,35.0660093,-107.6173129,New Mexico,416.0,56
Acres Green,39.55573549,-104.8958209,Colorado,3007.0,56
Acton,34.49558912,-118.1857637,California,7596.0,56
Acushnet Center,41.68507114,-70.90642579,Massachusetts,3073.0,56
Acworth,34.05613744,-84.67238257,Georgia,20900.0,56
Ada,34.50638826,-96.661161,Oklahoma,16815.0,56
Ada,39.1622002,-97.88594787,Kansas,100.0,56
Ada,40.76812756,-83.82532637,Ohio,5951.0,56
Ada,47.29932119,-96.51608988,Minnesota,1707.0,56
Adair,36.43800293,-95.26913796,Oklahoma,790.0,56
Adair,40.41975711,-90.494876,Illinois,210.0,56
Adair,41.50038983,-94.6434132,Iowa,781.0,56
Adair Village,44.66736134,-123.2116145,Oregon,850.0,56
Adairsville,34.37921041,-84.918489,Georgia,4669.0,56
Adairville,36.67118127,-86.85646648,Kentucky,852.0,56
Adak,51.82086967,-176.6207795,Alaska,326.0,56
Adams,36.58263028,-87.06349676,Tennessee,633.0,56
Adams,40.45794301,-96.507363,Nebraska,573.0,56
Adams,42.62776159,-73.11862214,Massachusetts,5515.0,56
Adams,43.56536292,-92.71903978,Minnesota,787.0,56
Adams,43.81021831,-76.02297831,New York,1775.0,56
Adams,43.95537505,-89.81689988,Wisconsin,1967.0,56
Adams,45.76635274,-118.5640851,Oregon,350.0,56
Adams,48.42014997,-98.07366434,North Dakota,127.0,56
Adams Center,43.86162259,-76.00011965,New York,1568.0,56
Adamsburg,40.31325696,-79.6578615,Pennsylvania,172.0,56
Adamstown,39.30651938,-77.46677779,Maryland,2372.0,56
Adamstown,40.24171994,-76.0607446,Pennsylvania,1789.0,56
Adamsville,33.62019948,-87.007999,Alabama,4522.0,56
Adamsville,35.2393794,-88.387849,Tennessee,2207.0,56
Adamsville,40.0688929,-81.88263654,Ohio,117.0,56
Adamsville,41.50951532,-80.373513,Pennsylvania,67.0,56
Addieville,38.39129913,-89.48645466,Illinois,252.0,56
Addington,34.24303995,-97.96707025,Oklahoma,114.0,56
Addis,30.36519768,-91.26586917,Louisiana,3593.0,56
Addison,32.96915362,-96.8319215,Texas,12529.0,56
Addison,34.20163288,-87.17656313,Alabama,758.0,56
Addison,39.74524647,-79.33434979,Pennsylvania,207.0,56
Addison,41.92494087,-88.0059185,Illinois,37039.0,56
Addison,41.98621773,-84.34914249,Michigan,605.0,56
Addison,42.10632142,-77.23198909,New York,1763.0,56
Addison (Webster Springs),38.47819341,-80.40821662,West Virginia,776.0,56
Addy,48.35890884,-117.8371849,Washington,268.0,56
Addyston,39.13708333,-84.71045475,Ohio,938.0,56
Adel,31.12982071,-83.4254835,Georgia,5334.0,56
Adel,41.61299547,-94.02936325,Iowa,3715.0,56
Adelanto,34.58143992,-117.4397779,California,31760.0,56
Adeline,42.14055093,-89.49185891,Illinois,85.0,56
Adelino,34.7066204,-106.7302149,New Mexico,823.0,56
Adell,43.62140411,-87.94820719,Wisconsin,516.0,56
Adelphi,38.98992292,-76.96078,Maryland,15086.0,56
Adelphi,39.46462658,-82.74563263,Ohio,380.0,56
Adena,40.2179403,-80.8721345,Ohio,759.0,56
Adin,41.19452041,-120.958739,California,272.0,56
Admire,38.64099491,-96.10200873,Kansas,156.0,56
Adona,35.0399304,-92.89913181,Arkansas,209.0,56
Adrian,32.5305908,-82.59202592,Georgia,664.0,56
Adrian,35.27411881,-102.6672465,Texas,166.0,56
Adrian,38.39798897,-94.348649,Missouri,1677.0,56
Adrian,41.89934103,-84.04461773,Michigan,21191.0,56
Adrian,43.63316056,-95.93308387,Minnesota,1209.0,56
Adrian,43.74082604,-117.0708823,Oregon,177.0,56
Advance,35.94681202,-80.4044394,North Carolina,1138.0,56
Advance,37.10377951,-89.9119397,Missouri,1347.0,56
Advance,39.99555212,-86.61992182,Indiana,477.0,56
Advance,45.22121571,-85.09362025,Michigan,328.0,56
Adwolf,36.79293404,-81.59268055,Virginia,1530.0,56
Aetna Estates,39.73812747,-104.6732526,Colorado,834.0,56
Affton,38.54991011,-90.32642284,Missouri,20262.0,56
Afton,36.69339853,-94.970019,Oklahoma,1049.0,56
Afton,41.02761827,-94.19537292,Iowa,845.0,56
Afton,42.2290936,-75.52471265,New York,831.0,56
Afton,42.72742187,-110.9315281,Wyoming,1911.0,56
Afton,44.90417074,-92.81737636,Minnesota,2886.0,56
Agar,44.83973509,-100.0734499,South Dakota,76.0,56
Agawam Town,42.06573409,-72.65256268,Massachusetts,28438.0,56
Agency,39.65942299,-94.74763025,Missouri,684.0,56
Agency,40.99747503,-92.30722875,Iowa,638.0,56
Agency Village,45.58084272,-97.08311907,South Dakota,181.0,56
Agenda,39.70656732,-97.43223887,Kansas,68.0,56
Ages,36.85318866,-83.2414935,Kentucky,228.0,48
Agoura Hills,34.15362928,-118.760098,California,20330.0,56
Agra,35.89506714,-96.87018775,Oklahoma,339.0,56
Agra,39.76126219,-99.11942718,Kansas,267.0,56
Agua Dulce,27.78273021,-97.90984976,Texas,812.0,56
Agua Dulce,31.65485485,-106.1369022,Texas,3014.0,56
Agua Dulce,34.50442354,-118.3159957,California,3342.0,56
Agua Fria,35.66155783,-106.0147876,New Mexico,2794.0,56
Aguanga,33.45224707,-116.85547,California,1128.0,56
Aguila,33.9375159,-113.1664832,Arizona,798.0,56
Aguilar,37.40362581,-104.6550362,Colorado,538.0,56
Ahmeek,47.29844793,-88.397112,Michigan,146.0,56
Ahoskie,36.28616846,-76.98407747,North Carolina,5039.0,56
Ahtanum,46.55103608,-120.6397983,Washington,2930.0,56
Ahwahnee,37.36522717,-119.7193015,California,2246.0,56
Aiken,33.47520019,-81.7260715,South Carolina,29578.0,56
Ailey,32.18818755,-82.56978645,Georgia,448.0,56
Ainsworth,41.29008262,-91.55451424,Iowa,567.0,56
Ainsworth,42.54843893,-99.85752222,Nebraska,1728.0,56
Air Force Academy,38.9941875,-104.8639251,Colorado,6680.0,56
Airmont,41.09917526,-74.09894311,New York,8628.0,56
Airport,37.63234434,-120.9774714,California,1964.0,56
Airport Drive,37.14054511,-94.51619247,Missouri,698.0,56
Airport Heights,26.4088407,-98.8361275,Texas,161.0,56
Airport Road Addition,27.21898804,-98.09809276,Texas,93.0,56
Airway Heights,47.6401199,-117.5824505,Washington,7259.0,56
Aitkin,46.52914655,-93.7064919,Minnesota,2155.0,56
Ajo,32.39228555,-112.8838698,Arizona,3304.0,56
Ak-Chin Village,33.01965453,-112.0807576,Arizona,862.0,56
Akeley,47.00057365,-94.72799345,Minnesota,432.0,56
Akhiok,56.94813508,-154.2164038,Alaska,71.0,56
Akiachak,60.92084959,-161.4019684,Alaska,627.0,56
Akiak,60.90614112,-161.2122265,Alaska,346.0,56
Akins,35.50433012,-94.6699508,Oklahoma,493.0,56
Akron,32.87854106,-87.74285611,Alabama,356.0,56
Akron,40.15805498,-76.20320955,Pennsylvania,3876.0,56
Akron,40.16332818,-103.208394,Colorado,1702.0,56
Akron,41.03882855,-86.0249228,Indiana,1167.0,56
Akron,41.07976342,-81.52188826,Ohio,199138.0,56
Akron,42.8266997,-96.55701339,Iowa,1498.0,56
Akron,43.01795062,-78.49782302,New York,2868.0,56
Akron,43.56672333,-83.51429494,Michigan,402.0,56
Akutan,54.14262334,-165.8711609,Alaska,1027.0,56
Alabaster,33.19676585,-86.847219,Alabama,31367.0,56
Alachua,29.76609138,-82.473528,Florida,9149.0,56
Alafaya,28.52781827,-81.18654405,Florida,76768.0,56
Alakanuk,62.70230251,-164.6681917,Alaska,677.0,56
Alamance,36.02851408,-79.4890329,North Carolina,951.0,56
Alameda,37.77990577,-122.2782675,California,73812.0,56
Alamillo,34.25188359,-106.9157993,New Mexico,102.0,56
Alamo,26.18105269,-98.11769925,Texas,18729.0,56
Alamo,32.14693974,-82.77975097,Georgia,2797.0,56
Alamo,34.41841209,-107.5124864,New Mexico,1085.0,56
Alamo,35.78293647,-89.1168789,Tennessee,2370.0,56
Alamo,37.36482501,-115.1628974,Nevada,1080.0,56
Alamo,37.84998778,-122.030741,California,14570.0,56
Alamo,39.98342017,-87.05519136,Indiana,66.0,56
Alamo,48.58245176,-103.4675579,North Dakota,57.0,56
Alamo Heights,29.48280595,-98.46819049,Texas,7031.0,56
Alamogordo,32.89893508,-105.942173,New Mexico,30403.0,56
Alamosa,37.44795612,-105.8615053,Colorado,8811.0,56
Alamosa East,37.47668896,-105.8396765,Colorado,1453.0,56
Alanson,45.44252974,-84.78706669,Michigan,738.0,56
Alapaha,31.38313789,-83.22370642,Georgia,668.0,56
Alba,32.79056026,-95.63434137,Texas,504.0,56
Alba,37.23715484,-94.41761136,Missouri,555.0,56
Alba,41.70591139,-76.8276472,Pennsylvania,157.0,56
Alba,44.97860934,-84.96947909,Michigan,295.0,56
Albany,30.49954448,-90.58396219,Louisiana,1093.0,56
Albany,31.57755417,-84.17626556,Georgia,77434.0,56
Albany,32.72726561,-99.29566382,Texas,2034.0,56
Albany,33.87696405,-96.16003842,Oklahoma,143.0,56
Albany,36.69042573,-85.13533685,Kentucky,2052.0,56
Albany,37.88983854,-122.3002491,California,18539.0,56
Albany,39.22443019,-82.1976928,Ohio,836.0,56
Albany,40.24789308,-94.33345499,Missouri,1730.0,56
Albany,40.30320143,-85.235423,Indiana,2165.0,56
Albany,41.17813426,-106.098059,Wyoming,55.0,56
Albany,41.78613154,-90.21635002,Illinois,903.0,56
Albany,42.66639697,-73.79868281,New York,97856.0,56
Albany,42.70694895,-89.43665905,Wisconsin,1018.0,56
Albany,44.62256734,-123.089936,Oregon,50158.0,56
Albany,44.73014259,-72.38098915,Vermont,193.0,56
Albany,45.63365599,-94.569136,Minnesota,2567.0,56
Albemarle,35.36067589,-80.19360145,North Carolina,15903.0,56
Albers,38.54518382,-89.6142872,Illinois,1190.0,56
Albert,38.45395916,-99.01112899,Kansas,175.0,56
Albert City,42.78160259,-94.94913895,Iowa,699.0,56
Albert Lea,43.65509075,-93.36336673,Minnesota,18136.0,56
Alberta,36.86488885,-77.88162375,Virginia,298.0,56
Alberta,45.57492177,-96.05035751,Minnesota,103.0,56
Alberton,47.00374232,-114.4817671,Montana,420.0,56
Albertson,40.77158919,-73.64815451,New York,5182.0,56
Albertville,34.26441274,-86.21214093,Alabama,21282.0,56
Albertville,45.23637579,-93.66182391,Minnesota,7048.0,56
Albia,41.02723949,-92.80381936,Iowa,3766.0,56
Albin,41.41694079,-104.1015494,Wyoming,181.0,56
Albion,34.66229027,-95.09923419,Oklahoma,106.0,56
Albion,38.37667011,-88.05790758,Illinois,1988.0,56
Albion,39.22559647,-123.7563306,California,168.0,56
Albion,41.39659214,-85.4186943,Indiana,2349.0,56
Albion,41.68867659,-98.00285007,Nebraska,1650.0,56
Albion,41.89041819,-80.3640636,Pennsylvania,1516.0,56
Albion,42.11252573,-92.98874069,Iowa,505.0,56
Albion,42.24778114,-84.75720006,Michigan,8616.0,56
Albion,42.40980783,-113.5804381,Idaho,267.0,56
Albion,43.24602759,-78.19020115,New York,6056.0,56
Albion,46.79159976,-117.2512265,Washington,579.0,56
Albright,39.49370149,-79.63995832,West Virginia,299.0,56
Albrightsville,41.01167953,-75.6068316,Pennsylvania,202.0,56
Albuquerque,35.10621587,-106.646465,New Mexico,546193.0,56
Alburgh,44.97537426,-73.3060775,Vermont,497.0,48
Alburnett,42.14930119,-91.62091668,Iowa,673.0,56
Alburtis,40.50895364,-75.60015536,Pennsylvania,2361.0,56
Alcalde,36.08539291,-106.0575161,New Mexico,285.0,56
Alcester,43.02307927,-96.62817639,South Dakota,807.0,56
Alcoa,35.80190586,-83.970378,Tennessee,8471.0,56
Alcolu,33.75466133,-80.22213481,South Carolina,429.0,56
Alcorn State University,31.88045533,-91.14066897,Mississippi,1017.0,56
Alcova,42.55431281,-106.7263162,Wyoming,76.0,56
Alda,40.86602425,-98.469508,Nebraska,644.0,56
Aldan,39.92241031,-75.28811911,Pennsylvania,4152.0,56
Alden,38.24383891,-98.31172963,Kansas,148.0,56
Alden,42.51149883,-93.3798468,Iowa,787.0,56
Alden,42.89887896,-78.4946068,New York,2605.0,56
Alden,43.66951793,-93.57349921,Minnesota,661.0,56
Alden,44.87918691,-85.2729848,Michigan,125.0,56
Alder,45.32159342,-112.1092181,Montana,103.0,56
Alder,46.78723351,-122.2666633,Washington,227.0,56
Alderpoint,40.16134734,-123.6157287,California,186.0,56
Alderson,34.90278704,-95.69600675,Oklahoma,304.0,56
Alderson,37.7276865,-80.64364843,West Virginia,1184.0,56
Alderton,47.17170345,-122.2193178,Washington,2893.0,56
Alderwood Manor,47.81459845,-122.2672489,Washington,8431.0,56
Aldine,29.91219586,-95.37846277,Texas,15857.0,56
Aldora,33.04806686,-84.176597,Georgia,103.0,56
Aldrich,37.54914035,-93.5514076,Missouri,80.0,56
Aledo,32.68874213,-97.60097775,Texas,2716.0,56
Aledo,41.19843298,-90.74589543,Illinois,3638.0,56
Aleknagik,59.29461661,-158.6895827,Alaska,219.0,56
Alex,34.92274229,-97.77630462,Oklahoma,550.0,56
Alexander,34.61855176,-92.45122287,Arkansas,2901.0,56
Alexander,38.46941704,-99.55299812,Kansas,65.0,56
Alexander,42.80442009,-93.47864718,Iowa,175.0,56
Alexander,42.90202081,-78.25911372,New York,509.0,56
Alexander,47.83931867,-103.642574,North Dakota,223.0,56
Alexander City,32.93023222,-85.93972723,Alabama,14972.0,56
Alexandria,31.29330558,-92.47135196,Louisiana,47907.0,56
Alexandria,33.76747698,-85.87920682,Alabama,3917.0,56
Alexandria,36.07908075,-86.03808856,Tennessee,966.0,56
Alexandria,38.82083408,-77.064097,Virginia,139966.0,56
Alexandria,38.96329529,-84.38652783,Kentucky,8477.0,56
Alexandria,40.09002589,-82.61196361,Ohio,517.0,56
Alexandria,40.24512196,-97.390465,Nebraska,177.0,56
Alexandria,40.25838357,-85.67612508,Indiana,5145.0,56
Alexandria,40.35974116,-91.45950611,Missouri,159.0,56
Alexandria,40.55749998,-78.09705925,Pennsylvania,346.0,56
Alexandria,43.65403901,-97.77991748,South Dakota,615.0,56
Alexandria,45.8775984,-95.37665688,Minnesota,12474.0,56
Alexandria Bay,44.33572236,-75.91168416,New York,1078.0,56
Alexis,41.06290647,-90.55540188,Illinois,831.0,56
Alfarata,40.66186739,-77.45585118,Pennsylvania,149.0,56
Alford,30.69668123,-85.3952732,Florida,482.0,56
Alfordsville,38.56065432,-86.94821392,Indiana,101.0,56
Alfred,27.87414525,-97.97983953,Texas,91.0,56
Alfred,42.25433367,-77.78964604,New York,4174.0,56
Alfred,43.47674361,-70.71998917,Maine,777.0,48
Alger,40.70979654,-83.84403455,Ohio,860.0,56
Alger,48.61758187,-122.3369298,Washington,403.0,56
Algodones,35.38018721,-106.4731323,New Mexico,814.0,56
Algoma,34.17884553,-89.03356258,Mississippi,590.0,56
Algoma,44.60574842,-87.44652637,Wisconsin,3167.0,56
Algona,43.07393737,-94.2266726,Iowa,5560.0,56
Algona,47.28198775,-122.2504678,Washington,3014.0,56
Algonac,42.62164555,-82.53458984,Michigan,4110.0,56
Algonquin,38.58435328,-76.0960679,Maryland,1242.0,56
Algonquin,42.16267447,-88.31546235,Illinois,30041.0,56
Algood,36.19994989,-85.44674302,Tennessee,3495.0,56
Alhambra,34.08397346,-118.1355142,California,83089.0,56
Alhambra,38.88784141,-89.73614552,Illinois,681.0,56
Alhambra Valley,37.96614225,-122.1272725,California,673.0,56
Ali Chuk,31.8169187,-112.5583941,Arizona,161.0,56
Ali Chukson,31.91152764,-111.8016244,Arizona,132.0,56
Ali Molina,31.90254687,-111.7803874,Arizona,71.0,56
Alice,27.75559034,-98.06523292,Texas,19104.0,56
Alice Acres,27.71189299,-98.10797279,Texas,490.0,56
Aliceville,33.12955557,-88.15202475,Alabama,2486.0,56
Alicia,35.89290754,-91.08345014,Arkansas,128.0,56
Aline,36.50956899,-98.44868777,Oklahoma,207.0,56
Aliquippa,40.6154563,-80.25484495,Pennsylvania,9438.0,56
Aliso Viejo,33.57922074,-117.7289156,California,47823.0,56
Allakaket,66.55055536,-152.626952,Alaska,171.0,56
Allamuchy,40.9221594,-74.8114901,New Jersey,78.0,56
Allardt,36.38108726,-84.8813942,Tennessee,590.0,56
Allegan,42.52994181,-85.84620539,Michigan,4998.0,56
Allegany,42.08959834,-78.492645,New York,1816.0,56
Alleghany,39.46666071,-120.8411259,California,58.0,56
Alleghenyville,40.23266723,-75.97623492,Pennsylvania,1129.0,56
Alleman,41.81583113,-93.60943905,Iowa,432.0,56
Allen,33.10886237,-96.67266468,Texas,84290.0,56
Allen,34.87738277,-96.41298743,Oklahoma,932.0,56
Allen,37.61188866,-82.72917613,Kentucky,193.0,56
Allen,38.28859537,-75.69040725,Maryland,210.0,56
Allen,38.65512253,-96.16963552,Kansas,177.0,56
Allen,41.95642219,-84.769318,Michigan,191.0,56
Allen,42.41443364,-96.8432087,Nebraska,377.0,56
Allen,43.27913582,-101.9265109,South Dakota,420.0,56
Allen Park,42.25949333,-83.21070617,Michigan,28198.0,56
Allendale,33.00804698,-81.30916418,South Carolina,3482.0,56
Allendale,38.44265886,-121.9814112,California,1506.0,56
Allendale,38.52762724,-87.71034426,Illinois,475.0,56
Allendale,40.48534027,-94.28867946,Missouri,53.0,56
Allendale,41.03321332,-74.13329667,New Jersey,6505.0,56
Allendale,42.98506069,-85.95093341,Michigan,17579.0,56
Allenhurst,31.78386833,-81.60781051,Georgia,695.0,56
Allenhurst,40.23622658,-74.00191986,New Jersey,496.0,56
Allenport,40.09223216,-79.85658137,Pennsylvania,497.0,56
Allenport,40.36864078,-77.87076778,Pennsylvania,648.0,56
Allenspark,40.18858134,-105.5187398,Colorado,528.0,56
Allensville,36.7163019,-87.06841314,Kentucky,163.0,56
Allensville,40.53303658,-77.81423195,Pennsylvania,503.0,56
Allensworth,35.84987878,-119.3892099,California,471.0,56
Allenton,43.42106803,-88.3439365,Wisconsin,823.0,56
Allentown,30.77450258,-87.08213962,Florida,894.0,56
Allentown,32.58552169,-83.22726197,Georgia,171.0,56
Allentown,40.17779245,-74.58731295,New Jersey,1828.0,56
Allentown,40.5961643,-75.47208044,Pennsylvania,118032.0,56
Allenville,37.22183057,-89.7554655,Missouri,116.0,56
Allenville,39.55940753,-88.54243675,Illinois,148.0,56
Allenwood,40.13837137,-74.1032231,New Jersey,925.0,56
Allenwood,41.10809613,-76.89815706,Pennsylvania,321.0,56
Allerton,39.91609577,-87.932908,Illinois,291.0,56
Allerton,40.70769376,-93.36891509,Iowa,501.0,56
Allgood,33.90371694,-86.520708,Alabama,622.0,56
Alliance,35.14882454,-76.8078795,North Carolina,776.0,56
Alliance,40.91192708,-81.10244225,Ohio,22347.0,56
Alliance,42.10249022,-102.8766137,Nebraska,8491.0,56
Alligator,34.08992676,-90.7205751,Mississippi,208.0,56
Allison,39.98528772,-79.87311755,Pennsylvania,625.0,56
Allison,42.75198631,-92.79571885,Iowa,1029.0,56
Allison Park,40.57299338,-79.96030353,Pennsylvania,21552.0,56
Allisonia,36.93422768,-80.72550356,Virginia,117.0,56
Allouez,44.47209481,-88.02606374,Wisconsin,13975.0,56
Alloway,39.56139421,-75.354319,New Jersey,1402.0,56
Allport,34.539866,-91.78388612,Arkansas,115.0,56
Allport,40.96597559,-78.20656184,Pennsylvania,264.0,56
Allyn,47.38635988,-122.8386251,Washington,1963.0,56
Alma,31.54322989,-82.47449804,Georgia,3466.0,56
Alma,32.28132773,-96.55065781,Texas,280.0,56
Alma,35.49267529,-94.23208075,Arkansas,5458.0,56
Alma,38.72288821,-88.91169529,Illinois,320.0,56
Alma,39.01494217,-96.28800482,Kansas,832.0,56
Alma,39.09640926,-93.54780042,Missouri,402.0,56
Alma,39.28594587,-106.0670393,Colorado,270.0,56
Alma,40.10356564,-99.36569316,Nebraska,1149.0,56
Alma,43.37995805,-84.65563823,Michigan,9385.0,56
Alma,44.3552458,-91.9294835,Wisconsin,781.0,56
Alma Center,44.43702645,-90.91284784,Wisconsin,503.0,56
Almedia,41.01438682,-76.38509037,Pennsylvania,1133.0,56
Almena,39.89127388,-99.70961287,Kansas,408.0,56
Almena,45.41492708,-92.03836096,Wisconsin,677.0,56
Almira,47.71037264,-118.9397093,Washington,284.0,56
Almond,42.31932555,-77.73860824,New York,466.0,56
Almond,44.26076113,-89.40874588,Wisconsin,448.0,56
Almont,42.91877143,-83.0398725,Michigan,2674.0,56
Almont,46.72833545,-101.502652,North Dakota,122.0,56
Almyra,34.40568937,-91.41084714,Arkansas,283.0,56
Aloha,45.49201734,-122.872536,Oregon,49382.0,56
Alondra Park,33.88842811,-118.3349643,California,8592.0,56
Alorton,38.58495392,-90.11387577,Illinois,2049.0,56
Alpaugh,35.88764996,-119.4873215,California,1026.0,56
Alpena,36.28968243,-93.30372605,Arkansas,392.0,56
Alpena,44.18295906,-98.36833867,South Dakota,286.0,56
Alpena,45.07405281,-83.43996643,Michigan,10483.0,56
Alpha,40.66366497,-75.1542675,New Jersey,2369.0,56
Alpha,41.19167281,-90.3804313,Illinois,671.0,56
Alpha,43.63804164,-94.8709981,Minnesota,120.0,56
Alpha,46.04401315,-88.37760315,Michigan,145.0,56
Alpharetta,34.06993167,-84.27372989,Georgia,57500.0,56
Alpine,30.36396736,-103.6650531,Texas,6006.0,56
Alpine,32.84387348,-116.7585178,California,14236.0,56
Alpine,33.84610231,-109.1433536,Arizona,145.0,56
Alpine,37.68780519,-106.5860972,Colorado,174.0,56
Alpine,40.462944,-111.772433,Utah,9730.0,56
Alpine,40.96435288,-73.92403827,New Jersey,1818.0,56
Alpine,43.16017415,-111.0108173,Wyoming,889.0,56
Alpine,44.33064432,-123.3626096,Oregon,171.0,56
Alpine Northeast,43.19406186,-111.007323,Wyoming,196.0,56
Alpine Northwest,43.18155159,-111.0342879,Wyoming,183.0,56
Alpine Village,38.78553006,-119.8008871,California,114.0,56
Alsace Manor,40.39729308,-75.85459075,Pennsylvania,478.0,56
Alsea,44.38180482,-123.5957435,Oregon,164.0,56
Alsey,39.55926575,-90.43278073,Illinois,227.0,56
Alsip,41.6700721,-87.73678726,Illinois,19277.0,56
Alston,32.08096953,-82.47892488,Georgia,159.0,56
Alta,39.20951464,-120.803929,California,610.0,56
Alta,40.58181287,-111.6229193,Utah,383.0,56
Alta,42.67167954,-95.30451036,Iowa,1883.0,56
Alta,43.773632,-111.0312604,Wyoming,394.0,56
Alta Sierra,39.12369069,-121.052353,California,6911.0,56
Alta Vista,38.8629421,-96.48883764,Kansas,444.0,56
Alta Vista,43.19667892,-92.41693801,Iowa,266.0,56
Altadena,34.19272899,-118.1344834,California,42777.0,56
Altamahaw,36.18677131,-79.5050833,North Carolina,347.0,56
Altamont,35.43248864,-85.74330998,Tennessee,1045.0,56
Altamont,37.19034296,-95.29571281,Kansas,1080.0,56
Altamont,39.05704974,-88.74751858,Illinois,2319.0,56
Altamont,39.88837565,-94.08678319,Missouri,204.0,56
Altamont,40.35895287,-110.2880823,Utah,236.0,56
Altamont,40.7849654,-76.21693237,Pennsylvania,602.0,56
Altamont,42.19805754,-121.724849,Oregon,19269.0,56
Altamont,42.70559247,-74.03396019,New York,1724.0,56
Altamonte Springs,28.65956014,-81.41867,Florida,41688.0,56
Altavista,37.12320645,-79.28576138,Virginia,3452.0,56
Altenburg,37.63046607,-89.58587944,Missouri,352.0,56
Altha,30.57104171,-85.1255013,Florida,518.0,56
Altheimer,34.32415389,-91.84804047,Arkansas,984.0,56
Altmar,43.51109853,-76.00367104,New York,407.0,56
Alto,31.65098233,-95.07078488,Texas,1225.0,56
Alto,34.46779589,-83.5743145,Georgia,1167.0,56
Alto,37.90553536,-122.5180694,California,711.0,56
Alto Bonito Heights,26.31577733,-98.64132912,Texas,342.0,56
Alto Pass,37.5736802,-89.31914151,Illinois,391.0,56
Alton,26.29202354,-98.309194,Texas,13841.0,56
Alton,36.69219095,-91.4013315,Missouri,871.0,56
Alton,37.42870664,-112.5144055,Utah,119.0,56
Alton,38.12105716,-86.41930036,Indiana,55.0,56
Alton,38.90346191,-90.15243325,Illinois,27922.0,56
Alton,39.46780415,-98.948639,Kansas,103.0,56
Alton,42.98745188,-96.00957918,Iowa,1216.0,56
Alton,43.4549604,-71.219878,New Hampshire,501.0,56
Altona,40.12537825,-105.2923716,Colorado,501.0,56
Altona,41.11505179,-90.16481923,Illinois,531.0,56
Altona,41.35216,-85.15254975,Indiana,197.0,56
Altona,44.89009672,-73.65956466,New York,730.0,56
Altoona,28.96657231,-81.6442215,Florida,83.0,56
Altoona,34.03102613,-86.31804496,Alabama,933.0,56
Altoona,37.52505527,-95.6614648,Kansas,414.0,56
Altoona,40.50773297,-78.40065469,Pennsylvania,46042.0,56
Altoona,41.65307393,-93.4789545,Iowa,14605.0,56
Altoona,44.80279412,-91.43821584,Wisconsin,6720.0,56
Altura,44.06420825,-91.94358024,Minnesota,493.0,56
Alturas,27.84186836,-81.69518414,Florida,4185.0,56
Alturas,41.49027327,-120.5513623,California,2828.0,56
Altus,34.64667062,-99.32685225,Oklahoma,19813.0,56
Altus,35.44679009,-93.76449621,Arkansas,759.0,56
Alum Creek,38.28754083,-81.83300026,West Virginia,1749.0,56
Alum Rock,37.36278404,-121.8187828,California,10800.0,56
Alva,26.70634959,-81.6366785,Florida,2592.0,56
Alva,36.78679902,-98.6734665,Oklahoma,5062.0,56
Alvan,40.30702856,-87.60690298,Illinois,270.0,56
Alvarado,32.4051892,-97.21095,Texas,3799.0,56
Alvarado,48.19363013,-96.996631,Minnesota,363.0,56
Alvin,29.39898883,-95.18884318,Texas,24252.0,56
Alvo,40.87261706,-96.3868475,Nebraska,132.0,56
Alvord,33.35692512,-97.69613684,Texas,1334.0,56
Alvord,43.34178888,-96.30259374,Iowa,196.0,56
Alvordton,41.66466749,-84.4346788,Ohio,217.0,56
Ama,29.94402884,-90.29665518,Louisiana,1316.0,56
Amada Acres,26.34326454,-98.73925236,Texas,92.0,56
Amado,31.69873451,-111.0691175,Arizona,295.0,56
Amador City,38.41898951,-120.8232478,California,185.0,56
Amagansett,40.98432616,-72.13267384,New York,1165.0,56
Amagon,35.56317296,-91.10941507,Arkansas,98.0,56
Amalga,41.84170862,-111.898527,Utah,488.0,56
Amana,41.79838581,-91.8708845,Iowa,442.0,56
Amanda,39.65016269,-82.74215291,Ohio,737.0,56
Amanda Park,47.45316744,-123.9194326,Washington,252.0,56
Amargosa,27.89163549,-98.10863839,Texas,291.0,56
Amarillo,35.1831133,-101.8805973,Texas,190681.0,56
Amasa,46.22949664,-88.45795492,Michigan,283.0,56
Amaya,28.71206853,-99.83527984,Texas,93.0,56
Amazonia,39.88899344,-94.8926562,Missouri,312.0,56
Amber,35.16015665,-97.88206563,Oklahoma,419.0,56
Amberg,45.5062258,-87.98737297,Wisconsin,180.0,56
Amberley,39.20348968,-84.42828746,Ohio,3585.0,56
Ambia,40.48931075,-87.51627413,Indiana,239.0,56
Ambler,40.15638543,-75.22153179,Pennsylvania,6417.0,56
Ambler,67.08969912,-157.872542,Alaska,258.0,56
Amboy,40.60168893,-85.92718096,Indiana,384.0,56
Amboy,41.71863031,-89.393488,Illinois,2500.0,56
Amboy,43.88792667,-94.15818811,Minnesota,534.0,56
Amboy,45.91219576,-122.4795719,Washington,1608.0,56
Ambridge,40.59213245,-80.22649846,Pennsylvania,7050.0,56
Ambrose,31.59444225,-83.01371524,Georgia,380.0,56
Amelia,29.65422261,-91.1080925,Louisiana,2459.0,56
Amelia,39.02014824,-84.216987,Ohio,4801.0,56
Amelia Court House,37.33663505,-77.98823124,Virginia,1099.0,56
Amenia,41.84948027,-73.55387676,New York,955.0,56
Amenia,47.00648449,-97.22410433,North Dakota,97.0,56
American Canyon,38.17947135,-122.2584772,California,19541.0,56
American Falls,42.78284691,-112.85421,Idaho,4459.0,56
American Fork,40.37888046,-111.7944352,Utah,26574.0,56
Americus,32.07353672,-84.22486524,Georgia,17079.0,56
Americus,38.50656903,-96.26155122,Kansas,894.0,56
Americus,40.52539666,-86.74754009,Indiana,423.0,56
Amery,45.3042027,-92.36399423,Wisconsin,2911.0,56
Ames,30.04507883,-94.73731569,Texas,1003.0,56
Ames,36.24708902,-98.18670794,Oklahoma,239.0,56
Ames,42.02607385,-93.62159726,Iowa,59080.0,56
Ames,42.83746904,-74.60168099,New York,145.0,56
Ames Lake,47.6355647,-121.9597998,Washington,1486.0,56
Amesbury Town,42.85294806,-70.94463206,Massachusetts,16283.0,56
Amesti,36.95740694,-121.7823885,California,2631.0,56
Amesville,39.40148696,-81.95495692,Ohio,154.0,56
Amherst,34.01198213,-102.4147753,Texas,721.0,56
Amherst,37.58167595,-79.05080872,Virginia,2231.0,56
Amherst,40.68315795,-102.1726085,Colorado,58.0,56
Amherst,40.83837247,-99.26950951,Nebraska,248.0,56
Amherst,41.4023276,-82.226035,Ohio,12021.0,56
Amherst,42.86357634,-71.62382134,New Hampshire,613.0,56
Amherst,44.44740241,-89.28320801,Wisconsin,1035.0,56
Amherst Center,42.375687,-72.51884558,Massachusetts,19065.0,56
Amherst Junction,44.46869624,-89.31673881,Wisconsin,377.0,56
Amherstdale,37.77990336,-81.81827859,West Virginia,350.0,56
Amistad,29.52449689,-101.1530375,Texas,53.0,56
Amite City,30.73236345,-90.51324561,Louisiana,4141.0,56
Amity,34.26618732,-93.46340117,Arkansas,723.0,56
Amity,39.86825139,-94.43524411,Missouri,54.0,56
Amity,45.11542704,-123.2034227,Oregon,1614.0,56
Amity Gardens,40.27020302,-75.733053,Pennsylvania,3402.0,56
Amityville,40.67183511,-73.41556043,New York,9523.0,56
Ammon,43.47450893,-111.956704,Idaho,13818.0,56
Amo,39.68887823,-86.61269223,Indiana,401.0,56
Amoret,38.25492814,-94.58738081,Missouri,190.0,56
Amory,33.98131887,-88.4822999,Mississippi,7316.0,56
Amsterdam,38.34935133,-94.58904271,Missouri,242.0,56
Amsterdam,40.4717335,-80.92168822,Ohio,511.0,56
Amsterdam,42.94196087,-74.19060227,New York,18620.0,56
Amsterdam,45.74626998,-111.3301027,Montana,180.0,56
Anacoco,31.25446016,-93.34400858,Louisiana,869.0,56
Anaconda-Deer Lodge County,46.06077017,-113.067842,Montana,9298.0,56
Anacortes,48.49599535,-122.6592552,Washington,15778.0,56
Anadarko,35.07246527,-98.230553,Oklahoma,6762.0,56
Anaheim,33.82520914,-117.9317495,California,336310.0,56
Anahuac,29.76493212,-94.67867349,Texas,2243.0,56
Anaktuvuk Pass,68.15000089,-151.7161809,Alaska,324.0,56
Anamoose,47.88180261,-100.241051,North Dakota,227.0,56
Anamosa,42.10708634,-91.2876075,Iowa,5533.0,56
Anawalt,37.3331083,-81.4396395,West Virginia,226.0,56
Anchor,40.567567,-88.539159,Illinois,146.0,56
Anchor Bay,38.81272315,-123.5700846,California,340.0,56
Anchor Point,59.76038938,-151.663905,Alaska,1930.0,56
Anchorage,38.26891392,-85.53640515,Kentucky,2348.0,56
Anchorage,61.14965444,-149.1063668,Alaska,291826.0,56
Ancient Oaks,40.53598325,-75.58521356,Pennsylvania,6661.0,56
Andale,37.79166099,-97.628871,Kansas,928.0,56
Andalusia,31.31012814,-86.47806878,Alabama,9015.0,56
Andalusia,41.43485837,-90.70656025,Illinois,1178.0,56
Anderson,30.48710167,-95.98997036,Texas,222.0,56
Anderson,34.52114544,-82.64759637,South Carolina,26705.0,56
Anderson,34.91475064,-87.27159463,Alabama,282.0,56
Anderson,36.65526939,-94.447875,Missouri,1965.0,56
Anderson,40.08923107,-85.68945519,Indiana,56121.0,56
Anderson,40.44966307,-122.2950281,California,9967.0,56
Anderson,40.76168541,-74.93010817,New Jersey,342.0,56
Anderson,40.79830857,-95.60848992,Iowa,65.0,56
Anderson,43.52073017,-96.61318299,South Dakota,371.0,56
Anderson,64.30739484,-149.1561793,Alaska,246.0,56
Anderson Island,47.15838666,-122.703926,Washington,1037.0,56
Andersonville,32.19655903,-84.14546446,Georgia,255.0,56
Andersonville,36.19695649,-84.03306069,Tennessee,472.0,56
Andersonville,39.43389796,-83.01896126,Ohio,779.0,56
Andes,42.18953731,-74.78236355,New York,252.0,56
Andover,37.69522705,-97.1374152,Kansas,11806.0,56
Andover,40.98593585,-74.74286098,New Jersey,606.0,56
Andover,41.29490912,-90.29073673,Illinois,578.0,56
Andover,41.60655055,-80.56868635,Ohio,1145.0,56
Andover,41.97992334,-90.25298463,Iowa,103.0,56
Andover,42.15753949,-77.7954602,New York,1042.0,56
Andover,42.65539231,-71.14183483,Massachusetts,8762.0,56
Andover,45.25711618,-93.32648189,Minnesota,30587.0,56
Andover,45.41021724,-97.90370613,South Dakota,91.0,56
Andrew,42.15323832,-90.59230135,Iowa,434.0,56
Andrews,29.5495793,-82.88829316,Florida,798.0,56
Andrews,32.32891534,-102.5507543,Texas,11114.0,56
Andrews,33.44942679,-79.56596983,South Carolina,2861.0,56
Andrews,35.19924489,-83.82682729,North Carolina,1781.0,56
Andrews,40.86042996,-85.60213319,Indiana,1149.0,56
Andrews AFB,38.8053316,-76.87439366,Maryland,2973.0,56
Anegam,32.37419342,-112.0349624,Arizona,151.0,56
Aneta,47.67953453,-97.98972314,North Dakota,222.0,56
Aneth,37.20506098,-109.1623391,Utah,501.0,56
Angel Fire,36.37315845,-105.2662015,New Mexico,1216.0,56
Angelica,42.30550564,-78.020645,New York,869.0,56
Angelica,44.67502921,-88.32156678,Wisconsin,92.0,56
Angels,38.07068933,-120.5501372,California,3836.0,56
Angie,30.96325152,-89.81775422,Louisiana,251.0,56
Angier,35.50649918,-78.73692243,North Carolina,4415.0,56
Angle Inlet,49.34370113,-95.072061,Minnesota,60.0,56
Angleton,29.17183817,-95.42958653,Texas,18855.0,56
Angola,41.63328613,-85.0113815,Indiana,8614.0,56
Angola,42.63788559,-79.02951594,New York,2127.0,56
Angola on the Lake,42.65492611,-79.05218973,New York,1675.0,56
Angoon,57.43656021,-134.4836471,Alaska,459.0,56
Anguilla,32.97186917,-90.82825904,Mississippi,726.0,56
Angus,31.99762317,-96.4269653,Texas,414.0,56
Angwin,38.57760177,-122.4365543,California,3051.0,56
Aniak,61.58171383,-159.5450572,Alaska,501.0,56
Animas,31.93630745,-108.7994115,New Mexico,237.0,56
Anita,41.44374505,-94.76588266,Iowa,972.0,56
Aniwa,45.01167609,-89.20889356,Wisconsin,260.0,56
Ankeny,41.7284527,-93.60330534,Iowa,45740.0,56
Anmoore,39.25913271,-80.29397175,West Virginia,770.0,56
Ann Arbor,42.27583588,-83.73092642,Michigan,114113.0,56
Anna,33.34907709,-96.54608923,Texas,8287.0,56
Anna,37.46118292,-89.23873316,Illinois,4442.0,56
Anna,40.39579438,-84.17590139,Ohio,1567.0,56
Anna Maria,27.52738808,-82.73287702,Florida,1503.0,56
Annabella,38.70586249,-112.0586035,Utah,795.0,56
Annandale,38.83238748,-77.19600291,Virginia,41008.0,56
Annandale,40.64681799,-74.8881447,New Jersey,1695.0,56
Annandale,45.26214233,-94.1204515,Minnesota,3262.0,56
Annapolis,37.360507,-90.69762036,Missouri,350.0,56
Annapolis,38.96861181,-76.505955,Maryland,38375.0,56
Annapolis,39.14541627,-87.81566584,Illinois,55.0,56
Annapolis Neck,38.93752797,-76.49148099,Maryland,10969.0,56
Annawan,41.39549214,-89.8814865,Illinois,878.0,56
Annetta,32.68168054,-97.6607485,Texas,2547.0,56
Annetta North,32.72791187,-97.70989825,Texas,518.0,56
Annetta South,32.66863749,-97.642493,Texas,526.0,56
Annex,44.23424844,-116.9924083,Oregon,235.0,56
Anniston,33.68300103,-85.79933425,Alabama,23093.0,56
Anniston,36.82433896,-89.32665461,Missouri,232.0,56
Annona,33.58181088,-94.91307857,Texas,315.0,56
Annville,37.3254234,-83.96219679,Kentucky,1095.0,56
Annville,40.33250413,-76.50768355,Pennsylvania,4767.0,56
Anoka,45.20989909,-93.38932703,Minnesota,17153.0,56
Anselmo,41.61858134,-99.86457685,Nebraska,145.0,56
Ansley,41.2863387,-99.38254663,Nebraska,441.0,56
Anson,32.75493596,-99.89624144,Texas,2430.0,56
Anson,44.79829924,-69.89608992,Maine,752.0,56
Ansonia,40.21169919,-84.632481,Ohio,1174.0,56
Ansonia,41.34425066,-73.06892887,Connecticut,19249.0,56
Ansonville,35.1041818,-80.10969208,North Carolina,631.0,56
Ansted,38.13506306,-81.09229675,West Virginia,1404.0,56
Antares,35.42299125,-113.808288,Arizona,126.0,56
Antelope,38.71532823,-121.3609617,California,45770.0,56
Antelope,43.3086996,-100.6306651,South Dakota,826.0,56
Antelope,48.68971435,-104.4540172,Montana,51.0,56
Antelope Hills,43.08127489,-106.3117355,Wyoming,97.0,56
Anthem,33.85599304,-112.1167505,Arizona,21700.0,56
Anthon,42.38813406,-95.86563279,Iowa,565.0,56
Anthony,31.98753346,-106.5933687,Texas,5011.0,56
Anthony,32.01277563,-106.599458,New Mexico,9485.0,56
Anthony,37.15500942,-98.03048663,Kansas,2265.0,56
Anthonyville,35.03983064,-90.34032788,Arkansas,161.0,56
Anthoston,37.75530224,-87.53270647,Kentucky,160.0,48
Antietam,39.41530442,-77.7364845,Maryland,89.0,56
Antigo,45.14404702,-89.1563423,Wisconsin,8357.0,56
Antimony,38.10966803,-111.9889135,Utah,122.0,56
Antioch,37.9790537,-121.796046,California,102745.0,56
Antioch,39.6610655,-81.06699497,Ohio,86.0,56
Antioch,42.47837009,-88.09435575,Illinois,14475.0,56
Antlers,34.23251438,-95.62137881,Oklahoma,2453.0,56
Antoine,34.0343397,-93.42257279,Arkansas,117.0,56
Anton,33.81131923,-102.1621735,Texas,1126.0,56
Anton Chico,35.19486962,-105.1438964,New Mexico,188.0,56
Antonito,37.07624646,-106.0103317,Colorado,781.0,56
Antreville,34.29709895,-82.55404321,South Carolina,140.0,56
Antrim,43.03782311,-71.94601746,New Hampshire,1397.0,56
Antwerp,41.17978074,-84.73775806,Ohio,1736.0,56
Antwerp,44.19931479,-75.6075072,New York,686.0,56
Anvik,62.65409617,-160.2139404,Alaska,85.0,56
Anza,33.56784786,-116.696626,California,3014.0,56
Anzac Village,35.06126454,-107.7455154,New Mexico,54.0,56
Apache,34.8937586,-98.35809889,Oklahoma,1444.0,56
Apache Creek,33.84863112,-108.6141095,New Mexico,67.0,56
Apache Junction,33.401098,-111.557842,Arizona,35884.0,56
Apalachicola,29.72844696,-84.99471076,Florida,2231.0,56
Apalachin,42.07056546,-76.16263595,New York,1131.0,56
Apex,35.72500638,-78.86405128,North Carolina,38156.0,56
Apison,35.01053863,-85.00894202,Tennessee,2435.0,56
Aplington,42.58192438,-92.88352374,Iowa,1128.0,56
Apollo,40.58398007,-79.56729875,Pennsylvania,1647.0,56
Apollo Beach,27.75383983,-82.408286,Florida,14055.0,56
Apopka,28.69916488,-81.5296036,Florida,42714.0,56
Appalachia,36.90974888,-82.78817094,Virginia,1754.0,56
Apple Canyon Lake,42.43023715,-90.16419865,Illinois,558.0,56
Apple Creek,40.74860952,-81.83334442,Ohio,1173.0,56
Apple Grove,38.66627493,-82.17059329,West Virginia,204.0,56
Apple Mountain Lake,38.92311113,-78.10334619,Virginia,1396.0,56
Apple River,42.50226109,-90.09369903,Illinois,366.0,56
Apple Valley,34.53281127,-117.2103737,California,69144.0,56
Apple Valley,37.08094179,-113.1033651,Utah,701.0,56
Apple Valley,40.4388742,-82.34811627,Ohio,5058.0,56
Apple Valley,44.74574627,-93.20062545,Minnesota,49084.0,56
Appleby,31.717028,-94.60777008,Texas,474.0,56
Applegate,43.35536307,-82.63706302,Michigan,248.0,56
Appleton,44.27749647,-88.38915424,Wisconsin,72747.0,56
Appleton,45.19967078,-96.02246243,Minnesota,1410.0,56
Appleton City,38.19057772,-94.03096997,Missouri,1127.0,56
Applewold,40.80822653,-79.52202941,Pennsylvania,310.0,56
Applewood,39.7598127,-105.158951,Colorado,7160.0,56
Appling,33.55879839,-82.31834451,Georgia,603.0,48
Appomattox,37.35907788,-78.826918,Virginia,1787.0,56
Aptos,36.99115026,-121.8934556,California,6220.0,56
Aptos Hills-Larkin Valley,36.96058954,-121.8340462,California,2354.0,56
Aquadale,35.22439282,-80.2235092,North Carolina,397.0,56
Aquasco,38.59327672,-76.71024314,Maryland,978.0,56
Aquebogue,40.94157826,-72.62943425,New York,2438.0,56
Aquia Harbour,38.45973779,-77.38053883,Virginia,6727.0,56
Aquilla,31.85475472,-97.22000623,Texas,109.0,56
Aquilla,41.54682307,-81.1724145,Ohio,340.0,56
Arab,34.3309107,-86.49915709,Alabama,8050.0,56
Arabi,29.95610974,-89.9985781,Louisiana,3635.0,56
Arabi,31.83181404,-83.7312175,Georgia,586.0,56
Aragon,33.89882151,-108.4983043,New Mexico,94.0,56
Aragon,34.04586063,-85.05725782,Georgia,1256.0,56
Aransas Pass,27.90803352,-97.15464778,Texas,8204.0,56
Arapaho,35.57703006,-98.960586,Oklahoma,796.0,56
Arapahoe,35.02146718,-76.82595981,North Carolina,556.0,56
Arapahoe,40.30484719,-99.89803027,Nebraska,1026.0,56
Arapahoe,42.99113123,-108.4562049,Wyoming,1656.0,56
Arboles,37.02018554,-107.4221252,Colorado,280.0,56
Arbon Valley,42.86924592,-112.5671075,Idaho,599.0,56
Arbovale,38.4373583,-79.813199,West Virginia,132.0,48
Arbuckle,39.01419594,-122.0610501,California,3028.0,56
Arbutus,39.24280247,-76.6921648,Maryland,20483.0,56
Arbyrd,36.05371132,-90.23963339,Missouri,509.0,56
Arcade,34.06927823,-83.53991638,Georgia,1802.0,56
Arcade,42.53477496,-78.434173,New York,2071.0,56
Arcadia,27.22133629,-81.85868698,Florida,7638.0,56
Arcadia,32.55057245,-92.92181746,Louisiana,2978.0,56
Arcadia,34.13419317,-118.0373071,California,56364.0,56
Arcadia,34.96088327,-81.9929503,South Carolina,2634.0,56
Arcadia,35.66548741,-97.32551464,Oklahoma,247.0,56
Arcadia,37.58642264,-90.6292191,Missouri,608.0,56
Arcadia,37.64100949,-94.62393272,Kansas,310.0,56
Arcadia,40.1741726,-86.02103602,Indiana,1666.0,56
Arcadia,41.10538343,-83.5163465,Ohio,590.0,56
Arcadia,41.42482312,-99.12606197,Nebraska,311.0,56
Arcadia,42.08619748,-95.04319162,Iowa,484.0,56
Arcadia,44.2527041,-91.50416875,Wisconsin,2942.0,56
Arcadia,44.49397113,-86.2349125,Michigan,291.0,56
Arcadia Lakes,34.05345297,-80.96163518,South Carolina,861.0,56
Arcadia University,40.09161874,-75.16530423,Pennsylvania,595.0,46
Arcanum,39.99235021,-84.55436004,Ohio,2122.0,56
Arcata,40.8712958,-124.0756347,California,17234.0,56
Archbald,41.50211386,-75.5478795,Pennsylvania,6984.0,56
Archbold,41.51654751,-84.30359956,Ohio,4346.0,56
Archdale,35.9050518,-79.96210901,North Carolina,11416.0,56
Archer,29.54000921,-82.51852495,Florida,1137.0,56
Archer,41.16662963,-98.13886414,Nebraska,81.0,56
Archer,43.1151043,-95.74409947,Iowa,131.0,56
Archer City,33.59376387,-98.62570194,Texas,1834.0,56
Archer Lodge,35.69066051,-78.37493524,North Carolina,4292.0,56
Archie,38.48260746,-94.35019157,Missouri,1170.0,56
Arco,43.63130183,-113.3015423,Idaho,995.0,56
Arco,44.38141679,-96.1812009,Minnesota,75.0,56
Arcola,29.50702547,-95.476412,Texas,1710.0,56
Arcola,33.27054039,-90.88000181,Mississippi,361.0,56
Arcola,37.54926506,-93.87604442,Missouri,55.0,56
Arcola,38.9446505,-77.5306435,Virginia,233.0,56
Arcola,39.68326532,-88.30136619,Illinois,2916.0,56
Arctic Village,68.14208719,-145.4957035,Alaska,152.0,56
Arden,39.8113264,-75.48852797,Delaware,439.0,56
Arden Hills,45.07214275,-93.16696837,Minnesota,9552.0,56
Arden on the Severn,39.06733777,-76.59799136,Maryland,1953.0,56
Arden-Arcade,38.60338057,-121.380993,California,92392.0,56
Ardencroft,39.80557097,-75.48614449,Delaware,209.0,56
Ardentown,39.80771287,-75.48014927,Delaware,264.0,56
Ardmore,34.16467814,-97.1055445,Oklahoma,24285.0,56
Ardmore,34.98471674,-86.8373518,Alabama,1194.0,56
Ardmore,35.00304308,-86.8540699,Tennessee,1213.0,56
Ardmore,40.00325291,-75.29475752,Pennsylvania,12455.0,56
Ardoch,48.20544631,-97.33803299,North Dakota,67.0,54
Ardsley,41.01354979,-73.83938055,New York,4452.0,56
Aredale,42.83323632,-93.00544185,Iowa,74.0,56
Arena,43.16358604,-89.91035141,Wisconsin,834.0,56
Arenas Valley,32.77770923,-108.199555,New Mexico,1522.0,56
Arendtsville,39.92330843,-77.29986179,Pennsylvania,952.0,56
Arenzville,39.88046227,-90.37055006,Illinois,409.0,56
Argenta,39.98543247,-88.81954162,Illinois,947.0,56
Argentine,42.79053011,-83.83559427,Michigan,2525.0,56
Argo,33.69028376,-86.5050428,Alabama,4071.0,56
Argonia,37.26789074,-97.76290398,Kansas,501.0,56
Argonne,45.6582193,-88.87774651,Wisconsin,160.0,56
Argos,41.24069107,-86.254382,Indiana,1691.0,56
Argusville,47.05006843,-96.94314069,North Dakota,475.0,56
Argyle,31.07321387,-82.64887541,Georgia,212.0,56
Argyle,33.11381874,-97.184508,Texas,3237.0,56
Argyle,38.29538606,-92.02553327,Missouri,162.0,56
Argyle,42.70142419,-89.86571968,Wisconsin,857.0,56
Argyle,43.23634526,-73.49073898,New York,306.0,56
Argyle,48.33657395,-96.81622789,Minnesota,639.0,56
Arial,34.84626155,-82.64045768,South Carolina,2543.0,56
Arimo,42.55987334,-112.172648,Idaho,355.0,56
Arion,41.94816061,-95.46232185,Iowa,108.0,56
Aripeka,28.43046599,-82.665379,Florida,308.0,56
Arispe,40.94803081,-94.21915093,Iowa,100.0,56
Aristes,40.81552145,-76.33944276,Pennsylvania,311.0,56
Aristocrat Ranchettes,40.10960022,-104.7549496,Colorado,1344.0,56
Ariton,31.5980084,-85.71279913,Alabama,764.0,56
Arivaca,31.58698137,-111.2627275,Arizona,695.0,56
Arivaca Junction,31.73896063,-111.0737702,Arizona,1090.0,56
Arizona City,32.75059433,-111.6706797,Arizona,10475.0,56
Arizona Village,34.85483636,-114.5893385,Arizona,946.0,56
Arjay,36.80613628,-83.64208241,Kentucky,57.0,48
Arkadelphia,34.12548734,-93.0725666,Arkansas,10714.0,56
Arkansas City,33.60892045,-91.20476226,Arkansas,366.0,56
Arkansas City,37.07083893,-97.03887126,Kansas,12424.0,56
Arkansaw,44.63343629,-92.02220611,Wisconsin,177.0,56
Arkdale,44.0252007,-89.88615954,Wisconsin,158.0,56
Arkoe,40.2593761,-94.82794295,Missouri,68.0,56
Arkoma,35.33747378,-94.44385344,Oklahoma,1989.0,56
Arkport,42.39259581,-77.69548191,New York,844.0,56
Arlee,47.16788586,-114.083845,Montana,636.0,56
Arley,34.07545187,-87.2177595,Alabama,357.0,56
Arlington,31.43829165,-84.72533061,Georgia,1479.0,56
Arlington,32.70163998,-97.08635775,Texas,365432.0,56
Arlington,33.33462332,-112.7747506,Arizona,194.0,56
Arlington,35.25942439,-89.66800754,Tennessee,11517.0,56
Arlington,36.79039146,-89.01317957,Kentucky,324.0,56
Arlington,37.89628972,-98.17806417,Kansas,473.0,56
Arlington,38.87857677,-77.10098943,Virginia,207627.0,56
Arlington,39.64885538,-85.5813445,Indiana,433.0,56
Arlington,40.89388373,-83.65295363,Ohio,1455.0,56
Arlington,41.45485476,-96.356527,Nebraska,1243.0,56
Arlington,41.47267864,-89.24407075,Illinois,193.0,56
Arlington,41.69581663,-73.89887592,New York,4068.0,56
Arlington,42.41866143,-71.16390797,Massachusetts,42844.0,56
Arlington,42.74878676,-91.67104761,Iowa,429.0,56
Arlington,43.06912693,-73.14750442,Vermont,1213.0,56
Arlington,43.33501254,-89.37253225,Wisconsin,819.0,56
Arlington,44.36351387,-97.13382245,South Dakota,915.0,56
Arlington,44.60827869,-94.07657356,Minnesota,2233.0,56
Arlington,45.72299901,-120.1982763,Oregon,588.0,56
Arlington,48.16201696,-122.152787,Washington,17836.0,56
Arlington Heights,39.2153449,-84.45554224,Ohio,745.0,56
Arlington Heights,40.99991987,-75.2132505,Pennsylvania,6333.0,56
Arlington Heights,42.08818741,-87.985757,Illinois,75187.0,56
Arlington Heights,48.21192999,-122.0629976,Washington,2284.0,56
Arma,37.54296762,-94.70235408,Kansas,1486.0,56
Armada,42.84238076,-82.88320244,Michigan,1730.0,56
Armagh,40.45363187,-79.03245133,Pennsylvania,122.0,56
Armington,40.339693,-89.31436425,Illinois,343.0,56
Armona,36.31784416,-119.705411,California,4156.0,56
Armonk,41.13199546,-73.71371997,New York,4330.0,56
Armour,43.31899055,-98.34484879,South Dakota,699.0,56
Armstrong,34.05282414,-96.34477865,Oklahoma,105.0,56
Armstrong,39.26918006,-92.70417255,Missouri,284.0,56
Armstrong,43.39440944,-94.48320661,Iowa,926.0,56
Arnaudville,30.40219206,-91.93199316,Louisiana,1057.0,56
Arnegard,47.80841863,-103.4387722,North Dakota,115.0,56
Arnett,36.13508251,-99.7711905,Oklahoma,524.0,56
Arnold,38.24234206,-120.3546267,California,3843.0,56
Arnold,38.42968479,-90.37323647,Missouri,20973.0,56
Arnold,39.04239614,-76.49735169,Maryland,23106.0,56
Arnold,40.57886985,-79.7652563,Pennsylvania,5157.0,56
Arnold,41.42324377,-100.1935613,Nebraska,597.0,56
Arnold City,40.11761356,-79.82280543,Pennsylvania,498.0,56
Arnold Line,31.33717436,-89.37719063,Mississippi,1719.0,56
Arnolds Park,43.36021752,-95.1362945,Iowa,1126.0,56
Arnoldsville,33.91032876,-83.21805829,Georgia,357.0,56
Arnot,41.66233294,-77.12220418,Pennsylvania,332.0,56
Aroma Park,41.07422914,-87.798944,Illinois,743.0,56
Aromas,36.88191806,-121.640994,California,2650.0,56
Arona,40.26824536,-79.65782809,Pennsylvania,370.0,56
Arp,32.22790219,-95.05362526,Texas,970.0,56
Arpelar,34.93557224,-95.95893581,Oklahoma,272.0,56
Arpin,44.53938089,-90.03151203,Wisconsin,333.0,56
Arrey,32.84717562,-107.320347,New Mexico,232.0,56
Arriba,39.28432607,-103.2740322,Colorado,193.0,56
Arrington,37.6743921,-78.89278669,Virginia,708.0,56
Arrow Point,36.54407605,-93.62237353,Missouri,86.0,56
Arrow Rock,39.06999998,-92.94724666,Missouri,56.0,56
Arrowhead Springs,41.50817499,-109.1550844,Wyoming,63.0,54
Arrowsmith,40.4492727,-88.63209847,Illinois,294.0,56
Arroyo Colorado Estates,26.18639114,-97.61137194,Texas,997.0,56
Arroyo Gardens,26.20517563,-97.50210319,Texas,456.0,56
Arroyo Grande,35.12415335,-120.5845281,California,17252.0,56
Arroyo Hondo,36.53459872,-105.6666024,New Mexico,474.0,56
Arroyo Seco,36.52151414,-105.5861065,New Mexico,1785.0,56
Artemus,36.83513144,-83.84136492,Kentucky,590.0,56
Artesia,32.84915093,-104.4274538,New Mexico,11510.0,56
Artesia,33.41632385,-88.64243006,Mississippi,440.0,56
Artesia,33.86759285,-118.0806352,California,16522.0,56
Artesian,44.00789488,-97.92370867,South Dakota,138.0,56
Arthur,39.71433492,-88.46946885,Illinois,2288.0,56
Arthur,41.57186574,-101.6922633,Nebraska,117.0,56
Arthur,42.33536141,-95.34694053,Iowa,206.0,56
Arthur,47.10426814,-97.21835466,North Dakota,337.0,56
Artois,39.63318036,-122.1897572,California,295.0,56
Artondale,47.30248497,-122.6390605,Washington,12653.0,56
Arvada,39.82336,-105.1063485,Colorado,107095.0,56
Arvin,35.19436221,-118.8305687,California,19304.0,56
Asbury,37.27228146,-94.608658,Missouri,207.0,56
Asbury,40.70032033,-75.01208763,New Jersey,273.0,56
Asbury,42.51190645,-90.784582,Iowa,4377.0,56
Asbury Lake,30.0472232,-81.7855361,Florida,8700.0,56
Asbury Park,40.22258519,-74.01182476,New Jersey,16116.0,56
Ascutney,43.40801488,-72.40683714,Vermont,540.0,56
Ash Flat,36.24114448,-91.618111,Arkansas,1082.0,56
Ash Fork,35.21718734,-112.4913006,Arizona,396.0,56
Ash Grove,37.31773645,-93.58111876,Missouri,1472.0,56
Asharoken,40.94629128,-73.38947254,New York,654.0,56
Ashaway,41.42593602,-71.78523486,Rhode Island,1485.0,56
Ashburn,31.709545,-83.65279159,Georgia,4152.0,56
Ashburn,39.02999037,-77.47105768,Virginia,43511.0,56
Ashburn,39.54577422,-91.17196152,Missouri,52.0,56
Ashby,46.09308415,-95.81542813,Minnesota,446.0,56
Ashdown,33.66968698,-94.12291,Arkansas,4723.0,56
Asheboro,35.7007941,-79.8153615,North Carolina,25087.0,56
Asher,34.98842297,-96.92547,Oklahoma,393.0,56
Asherton,28.44611832,-99.76032177,Texas,1084.0,56
Asheville,35.5936838,-82.5654145,North Carolina,83499.0,56
Ashford,31.18576297,-85.23591061,Alabama,2150.0,56
Ashford,46.7537995,-122.013372,Washington,217.0,56
Ashippun,43.21821287,-88.51594199,Wisconsin,848.0,56
Ashkum,40.87830599,-87.95322389,Illinois,761.0,56
Ashland,32.11631191,-93.11710224,Louisiana,269.0,56
Ashland,33.2703874,-85.83367527,Alabama,2037.0,56
Ashland,34.76679633,-96.07062335,Oklahoma,66.0,56
Ashland,34.83411873,-89.17774155,Mississippi,569.0,56
Ashland,37.18666133,-99.76967162,Kansas,867.0,56
Ashland,37.69416944,-122.1158998,California,21925.0,56
Ashland,37.75968079,-77.47155952,Virginia,7225.0,56
Ashland,38.45925851,-82.64484624,Kentucky,21684.0,56
Ashland,38.77239349,-92.2497145,Missouri,3719.0,56
Ashland,39.87810412,-75.0084525,New Jersey,8302.0,56
Ashland,39.8885395,-90.00787376,Illinois,1333.0,56
Ashland,40.78110621,-76.34504565,Pennsylvania,2817.0,56
Ashland,40.86701431,-82.31567247,Ohio,20391.0,56
Ashland,41.04104706,-96.3784195,Nebraska,2453.0,56
Ashland,42.19641254,-122.7147383,Oregon,20078.0,56
Ashland,43.69566256,-71.63346674,New Hampshire,1244.0,56
Ashland,45.59768755,-106.2974979,Montana,824.0,56
Ashland,46.58008979,-90.87129236,Wisconsin,8216.0,56
Ashland,46.6220371,-68.40819625,Maine,709.0,56
Ashland City,36.27119927,-87.059202,Tennessee,4669.0,56
Ashland Heights,44.133198,-103.1411638,South Dakota,760.0,56
Ashley,38.32889003,-89.18931782,Illinois,536.0,56
Ashley,39.25372634,-91.22387732,Missouri,90.0,56
Ashley,40.40980543,-82.95165269,Ohio,1330.0,56
Ashley,41.2127589,-75.8994699,Pennsylvania,2790.0,56
Ashley,41.52352832,-85.0538235,Indiana,983.0,56
Ashley,43.18731866,-84.47619358,Michigan,563.0,56
Ashley,46.03474398,-99.37367706,North Dakota,749.0,56
Ashley Heights,35.08995331,-79.37391672,North Carolina,380.0,56
Ashmore,39.53056368,-88.02010877,Illinois,784.0,56
Ashtabula,41.88046993,-80.7984409,Ohio,19124.0,56
Ashton,41.24774824,-98.79514672,Nebraska,194.0,56
Ashton,41.86819739,-89.22254129,Illinois,972.0,56
Ashton,43.30884402,-95.79249306,Iowa,458.0,56
Ashton,44.07333212,-111.4483116,Idaho,1125.0,56
Ashton,44.99305564,-98.49911105,South Dakota,122.0,56
Ashton-Sandy Spring,39.15145585,-77.00647878,Maryland,5628.0,56
Ashville,33.83311158,-86.26978035,Alabama,2212.0,56
Ashville,39.71833986,-82.948327,Ohio,4101.0,56
Ashville,40.55999127,-78.54726519,Pennsylvania,227.0,56
Ashwaubenon,44.47955018,-88.08885177,Wisconsin,16943.0,56
Askewville,36.11158759,-76.94123169,North Carolina,241.0,56
Askov,46.18863459,-92.78239264,Minnesota,364.0,56
Asotin,46.33660453,-117.0414148,Washington,1251.0,56
Aspen,39.19922502,-106.831877,Colorado,6703.0,56
Aspen Hill,39.09137807,-77.1025765,Maryland,48755.0,56
Aspen Park,39.53871675,-105.2999925,Colorado,894.0,56
Aspen Springs,37.5500014,-118.7086997,California,65.0,56
Aspermont,33.14050726,-100.225333,Texas,919.0,56
Aspers,39.97386459,-77.22280675,Pennsylvania,350.0,56
Aspinwall,40.49287481,-79.90374684,Pennsylvania,2801.0,56
Assaria,38.68020288,-97.60414227,Kansas,413.0,56
Assumption,39.5180015,-89.04772888,Illinois,1172.0,56
Astatula,28.70648739,-81.734623,Florida,1810.0,56
Astor,29.1634597,-81.53492381,Florida,1556.0,56
Astoria,40.22785814,-90.35652417,Illinois,1141.0,56
Astoria,44.55773216,-96.54649919,South Dakota,139.0,56
Astoria,46.18837789,-123.8104977,Oregon,9477.0,56
Atalissa,41.57168736,-91.1664541,Iowa,311.0,56
Atascadero,35.48267881,-120.6857223,California,28310.0,56
Atascocita,29.95598361,-95.22103875,Texas,62461.0,56
Atchison,39.56341547,-95.12938615,Kansas,11041.0,56
Aten,42.83608158,-97.434775,Nebraska,112.0,56
Atglen,39.94728086,-75.97539242,Pennsylvania,1406.0,56
Athalia,38.51270122,-82.30955551,Ohio,373.0,56
Athena,45.81324082,-118.4925039,Oregon,1126.0,56
Athens,32.20031933,-95.86683225,Texas,12740.0,56
Athens,32.65797855,-93.02770294,Louisiana,287.0,56
Athens,34.78480907,-86.95033973,Alabama,21889.0,56
Athens,35.44547605,-84.608496,Tennessee,13538.0,56
Athens,37.42309642,-81.01491815,West Virginia,1048.0,56
Athens,39.32516076,-82.1114475,Ohio,23832.0,56
Athens,39.96042843,-89.7230165,Illinois,1988.0,56
Athens,41.93764977,-76.5133035,Pennsylvania,3367.0,56
Athens,42.08658721,-85.23556522,Michigan,1024.0,56
Athens,42.2695132,-73.81037924,New York,1668.0,56
Athens,45.03487071,-90.07921015,Wisconsin,1105.0,56
Athens-Clarke County unified government (balance),33.95081406,-83.36887476,Georgia,115442.0,56
Atherton,37.45385689,-122.2031861,California,6914.0,56
Athol,42.59364209,-72.23023409,Massachusetts,8265.0,56
Athol,47.94517766,-116.7061543,Idaho,692.0,56
Atka,52.22948971,-174.2070479,Alaska,61.0,56
Atkins,35.2427812,-92.94060475,Arkansas,3016.0,56
Atkins,36.86735818,-81.39918065,Virginia,1143.0,56
Atkins,41.99422787,-91.85865139,Iowa,1670.0,56
Atkinson,34.52745812,-78.16970857,North Carolina,299.0,56
Atkinson,41.41641254,-90.01240675,Illinois,972.0,56
Atkinson,42.53086808,-98.97472917,Nebraska,1245.0,56
Atkinson Mills,40.45190568,-77.80518309,Pennsylvania,174.0,56
Atlanta,31.80640205,-92.73833393,Louisiana,163.0,56
Atlanta,33.1135846,-94.16724396,Texas,5675.0,56
Atlanta,33.76293003,-84.42243438,Georgia,428947.0,56
Atlanta,37.43573754,-96.76697782,Kansas,195.0,56
Atlanta,39.89855176,-92.48009384,Missouri,385.0,56
Atlanta,40.21385878,-86.02703457,Indiana,725.0,56
Atlanta,40.26374182,-89.23097287,Illinois,1692.0,56
Atlanta,40.36840895,-99.47322284,Nebraska,131.0,56
Atlanta,45.00172294,-84.15354746,Michigan,827.0,56
Atlantic,34.88227834,-76.34422166,North Carolina,543.0,56
Atlantic,37.90269187,-75.5065961,Virginia,862.0,56
Atlantic,41.39567447,-95.01380831,Iowa,7112.0,56
Atlantic,41.50760754,-80.3392647,Pennsylvania,77.0,56
Atlantic Beach,30.33243229,-81.41660103,Florida,12655.0,56
Atlantic Beach,33.80355349,-78.71774178,South Carolina,334.0,56
Atlantic Beach,34.70115913,-76.74220737,North Carolina,1495.0,56
Atlantic Beach,40.58816613,-73.73046683,New York,1891.0,56
Atlantic City,39.3655505,-74.43534862,New Jersey,39558.0,56
Atlantic Highlands,40.41133937,-74.02979666,New Jersey,4402.0,56
Atlantis,26.59622808,-80.10307863,Florida,1987.0,56
Atlas,40.79738826,-76.42873455,Pennsylvania,809.0,56
Atlasburg,40.34354101,-80.38033903,Pennsylvania,401.0,56
Atmautluak,60.86220753,-162.2857779,Alaska,277.0,56
Atmore,31.14028848,-87.46344033,Alabama,10194.0,56
Atoka,32.77827692,-104.3930704,New Mexico,1077.0,56
Atoka,34.38554702,-96.13206465,Oklahoma,3107.0,56
Atoka,35.42386666,-89.78608832,Tennessee,8405.0,56
Atqasuk,70.48101085,-157.3835054,Alaska,233.0,56
Attalla,34.02420561,-86.08409475,Alabama,6050.0,56
Attapulgus,30.74949021,-84.4838858,Georgia,449.0,56
Attica,37.24270009,-98.22689061,Kansas,626.0,56
Attica,40.29239847,-87.244933,Indiana,3241.0,56
Attica,41.06347656,-82.88714187,Ohio,899.0,56
Attica,42.86410246,-78.27981373,New York,2547.0,56
Attica,43.03135515,-83.16070549,Michigan,994.0,56
Attleboro,41.93111026,-71.29489221,Massachusetts,43593.0,56
Atwater,37.3539621,-120.5976613,California,28168.0,56
Atwater,41.02656304,-81.16220235,Ohio,758.0,56
Atwater,45.13631018,-94.78411725,Minnesota,1133.0,56
Atwood,34.95675569,-96.3369615,Oklahoma,74.0,56
Atwood,35.97289254,-88.679796,Tennessee,931.0,56
Atwood,39.79913358,-88.46267115,Illinois,1224.0,56
Atwood,39.81009923,-101.0418854,Kansas,1194.0,56
Atwood,40.54959919,-103.2735485,Colorado,133.0,56
Atwood,40.7500564,-79.26012586,Pennsylvania,107.0,56
Au Gres,44.04313724,-83.69329831,Michigan,890.0,56
Au Sable,44.41746869,-83.351621,Michigan,1404.0,56
Au Sable Forks,44.4507339,-73.67376887,New York,559.0,56
Auberry,37.0754798,-119.490043,California,2369.0,56
Aubrey,33.30264903,-96.983778,Texas,2632.0,56
Aubrey,34.71981676,-90.89798089,Arkansas,170.0,56
Auburn,32.60953805,-85.48779024,Alabama,53562.0,56
Auburn,34.00678213,-83.834559,Georgia,6948.0,56
Auburn,36.86538576,-86.71064563,Kentucky,1357.0,56
Auburn,38.89090951,-121.0769854,California,13330.0,56
Auburn,38.90773757,-95.81585662,Kansas,1227.0,56
Auburn,39.09615118,-80.85623998,West Virginia,97.0,56
Auburn,39.56233384,-89.7426175,Illinois,4781.0,56
Auburn,40.38938988,-95.84360278,Nebraska,3460.0,56
Auburn,40.59475375,-76.09753081,Pennsylvania,741.0,56
Auburn,41.36663838,-85.05595771,Indiana,12818.0,56
Auburn,42.24956878,-94.8777258,Iowa,322.0,56
Auburn,42.79435947,-111.0134553,Wyoming,328.0,56
Auburn,42.93383661,-76.56847184,New York,27687.0,56
Auburn,43.60210136,-84.07560905,Michigan,2087.0,56
Auburn,44.08513847,-70.24928444,Maine,23055.0,56
Auburn,47.2976806,-122.212111,Washington,70176.0,56
Auburn Hills,42.66444547,-83.2391495,Michigan,21412.0,56
Auburn Lake Trails,38.88517556,-120.996517,California,3426.0,56
Auburndale,28.10207606,-81.7997945,Florida,13529.0,56
Auburndale,44.62659547,-90.01440515,Wisconsin,703.0,56
Auburntown,35.95133419,-86.0934755,Tennessee,269.0,56
Aucilla,30.47702809,-83.76039935,Florida,100.0,56
Audubon,39.89057203,-75.07218991,New Jersey,8819.0,56
Audubon,40.13039954,-75.4280193,Pennsylvania,8433.0,56
Audubon,41.718141,-94.92853398,Iowa,2176.0,56
Audubon,46.86440516,-95.9814905,Minnesota,519.0,56
Audubon Park,38.20500181,-85.72701266,Kentucky,1473.0,56
Audubon Park,39.89692615,-75.08901447,New Jersey,1023.0,56
August,37.97964402,-121.2625107,California,8390.0,56
Augusta,35.28658754,-91.36141422,Arkansas,2199.0,56
Augusta,37.69458226,-96.97307516,Kansas,9271.0,56
Augusta,38.56940474,-90.881162,Missouri,253.0,56
Augusta,38.77313272,-84.00923875,Kentucky,1190.0,56
Augusta,40.23072987,-90.9500632,Illinois,587.0,56
Augusta,42.33785203,-85.35254435,Michigan,885.0,56
Augusta,44.33410184,-69.73187626,Maine,19136.0,56
Augusta,44.678963,-91.12133712,Wisconsin,1550.0,56
Augusta,47.48932894,-112.3921568,Montana,309.0,56
Augusta Springs,38.09747007,-79.34390175,Virginia,257.0,56
Augusta-Richmond County consolidated government (balance),33.36451192,-82.07081307,Georgia,195844.0,56
Aulander,36.22800917,-77.11359886,North Carolina,895.0,56
Aullville,39.01749496,-93.67788169,Missouri,100.0,56
Ault,40.5889066,-104.7404601,Colorado,1576.0,56
Aumsville,44.84617377,-122.8698733,Oregon,3591.0,56
Aurelia,42.71306649,-95.43684772,Iowa,1036.0,56
Aurora,33.05594314,-97.50961514,Texas,1220.0,56
Aurora,35.30279041,-76.78971615,North Carolina,520.0,56
Aurora,36.96635061,-93.7233005,Missouri,7508.0,56
Aurora,38.92020429,-111.9340214,Utah,1016.0,56
Aurora,39.06243766,-84.8996845,Indiana,3762.0,56
Aurora,39.32540738,-79.55458238,West Virginia,201.0,56
Aurora,39.45192407,-97.52984577,Kansas,60.0,56
Aurora,39.69888876,-104.7871863,Colorado,325171.0,56
Aurora,40.86704653,-98.00442675,Nebraska,4479.0,56
Aurora,41.31185007,-81.34501389,Ohio,15548.0,56
Aurora,41.75937558,-88.3066295,Illinois,198152.0,56
Aurora,42.61944469,-91.72949099,Iowa,185.0,56
Aurora,42.75117029,-76.69941236,New York,724.0,56
Aurora,44.28257136,-96.68630234,South Dakota,532.0,56
Aurora,45.22566157,-122.757626,Oregon,918.0,56
Aurora,47.53120744,-92.23986497,Minnesota,1682.0,56
Austell,33.81997818,-84.64499867,Georgia,6663.0,56
Austin,30.30365311,-97.75782321,Texas,806804.0,56
Austin,35.01678441,-91.9952375,Arkansas,2049.0,56
Austin,38.74640151,-85.80084325,Indiana,4295.0,56
Austin,39.49200959,-117.0666383,Nevada,192.0,56
Austin,41.63730639,-78.09033535,Pennsylvania,562.0,56
Austin,43.67186067,-92.97836261,Minnesota,24902.0,56
Austinburg,41.76916878,-80.85560411,Ohio,516.0,56
Austintown,41.09321295,-80.7404759,Ohio,29677.0,56
Austwell,28.39108729,-96.84371553,Texas,147.0,56
Autaugaville,32.4320462,-86.65785548,Alabama,870.0,56
Autryville,34.99648045,-78.64118724,North Carolina,196.0,56
Auxier,37.73561033,-82.76615975,Kentucky,669.0,56
Auxvasse,39.01743964,-91.89586149,Missouri,983.0,56
Ava,36.95406852,-92.66523348,Missouri,2993.0,56
Ava,37.88858259,-89.49644985,Illinois,654.0,56
Avalon,30.5366047,-87.10007232,Florida,679.0,56
Avalon,33.3340858,-118.3314961,California,3728.0,56
Avalon,34.50268495,-83.19669956,Georgia,213.0,56
Avalon,39.07883083,-74.75149789,New Jersey,1334.0,56
Avalon,40.50110093,-80.06803268,Pennsylvania,4705.0,56
Avant,36.48862391,-96.0598541,Oklahoma,320.0,56
Avella,40.27365728,-80.46721554,Pennsylvania,804.0,56
Avenal,36.01770752,-120.140133,California,15505.0,56
Avenel,40.5839334,-74.27199517,New Jersey,17011.0,56
Aventura,25.95656799,-80.13708359,Florida,35762.0,56
Avenue B and C,32.71923542,-114.6597586,Arizona,4176.0,56
Avera,33.19342276,-82.52873188,Georgia,246.0,56
Averill Park,42.63892257,-73.5518445,New York,1693.0,56
Avery,33.55237115,-94.78035889,Texas,482.0,56
Avery,38.19386009,-120.3790712,California,646.0,56
Avery Creek,35.46508095,-82.57184618,North Carolina,1950.0,56
Avila Beach,35.19691198,-120.7190085,California,1627.0,56
Avilla,34.69886422,-92.58128286,Arkansas,896.0,56
Avilla,37.19381042,-94.12984198,Missouri,125.0,56
Avilla,41.36102112,-85.2286955,Indiana,2412.0,56
Avinger,32.89972138,-94.553693,Texas,444.0,56
Avis,41.186168,-77.32101,Pennsylvania,1484.0,56
Aviston,38.60909221,-89.604772,Illinois,1955.0,56
Avoca,36.39800301,-94.07094966,Arkansas,488.0,56
Avoca,38.91719705,-86.55564219,Indiana,583.0,56
Avoca,40.79650498,-96.11916093,Nebraska,242.0,56
Avoca,41.33808045,-75.74230496,Pennsylvania,2661.0,56
Avoca,41.48258181,-95.33717523,Iowa,1506.0,56
Avoca,42.40963348,-77.42218952,New York,946.0,56
Avoca,43.19066028,-90.32594114,Wisconsin,637.0,56
Avoca,43.94898961,-95.6465134,Minnesota,147.0,56
Avocado Heights,34.03808136,-118.0026077,California,15411.0,56
Avon,31.17998989,-85.2802242,Alabama,539.0,56
Avon,35.34637914,-75.50712814,North Carolina,776.0,56
Avon,39.65113957,-106.528014,Colorado,6447.0,56
Avon,39.76106122,-86.39056633,Indiana,15263.0,56
Avon,40.3429287,-76.37925047,Pennsylvania,1667.0,56
Avon,40.66201236,-90.43513394,Illinois,799.0,56
Avon,41.44852344,-82.01873952,Ohio,21193.0,56
Avon,41.5353378,-111.8124426,Utah,348.0,56
Avon,42.91285438,-77.74651204,New York,3394.0,56
Avon,43.00520366,-98.05922257,South Dakota,590.0,56
Avon,45.60900288,-94.45121026,Minnesota,1399.0,56
Avon,46.62638239,-112.5820011,Montana,111.0,56
Avon Lake,41.49446693,-82.0160434,Ohio,22581.0,56
Avon Park,27.59380887,-81.50920314,Florida,10868.0,56
Avon-by-the-Sea,40.19131618,-74.01638618,New Jersey,1901.0,56
Avondale,29.91152807,-90.192218,Louisiana,4954.0,56
Avondale,33.31930963,-112.3390075,Arizona,76119.0,56
Avondale,38.23513144,-104.3434546,Colorado,674.0,56
Avondale,39.1538045,-94.5448275,Missouri,440.0,56
Avondale,39.82476953,-75.78197287,Pennsylvania,1265.0,56
Avondale Estates,33.76992695,-84.26477344,Georgia,3113.0,56
Avonia,42.04702472,-80.27647085,Pennsylvania,1205.0,56
Avonmore,40.52716919,-79.4692924,Pennsylvania,1011.0,56
Avra Valley,32.41952188,-111.3392653,Arizona,6050.0,56
Awendaw,32.98031089,-79.636964,South Carolina,1294.0,56
Axis,30.92962089,-88.0179079,Alabama,757.0,56
Axtell,39.87118652,-96.25670301,Kansas,406.0,56
Axtell,40.47984479,-99.12924807,Nebraska,730.0,56
Ayden,35.46952084,-77.42125455,North Carolina,4946.0,56
Ayer,42.56137883,-71.58479098,Massachusetts,2868.0,56
Aynor,33.99927585,-79.19825,South Carolina,560.0,56
Ayr,40.43780865,-98.44094305,Nebraska,94.0,56
Ayrshire,43.03955153,-94.8335229,Iowa,143.0,56
Azalea Park,28.54748174,-81.29564524,Florida,12314.0,56
Azle,32.89547604,-97.53789556,Texas,10947.0,56
Aztec,36.81988978,-107.9831034,New Mexico,6770.0,56
Azure,48.30502212,-109.8072297,Montana,286.0,56
Azusa,34.13867516,-117.9120369,California,46373.0,56
B and E,26.35653076,-98.75367522,Texas,518.0,56
Babb,48.87771959,-113.4408486,Montana,174.0,56
Babbie,31.30220817,-86.32295486,Alabama,603.0,56
Babbitt,47.63009975,-91.989471,Minnesota,1475.0,56
Babcock,44.30440246,-90.10764897,Wisconsin,126.0,56
Babson Park,27.82915015,-81.521628,Florida,1356.0,56
Babylon,40.69649504,-73.32750344,New York,12166.0,56
Backus,46.81842707,-94.516262,Minnesota,250.0,56
Bacliff,29.50397131,-94.9853305,Texas,8619.0,56
Baconton,31.37648625,-84.1610705,Georgia,915.0,56
Bad Axe,43.80365604,-82.99799217,Michigan,3136.0,56
Baden,38.67194132,-76.74285024,Maryland,2128.0,56
Baden,40.63966092,-80.22283564,Pennsylvania,4135.0,56
Badger,42.61414592,-94.14454627,Iowa,561.0,56
Badger,44.48550227,-97.20786768,South Dakota,107.0,56
Badger,48.78075767,-96.014578,Minnesota,375.0,56
Badger,64.82477893,-147.480201,Alaska,19366.0,56
Badger Lee,35.4725962,-94.8150851,Oklahoma,76.0,56
Badin,35.40395046,-80.116856,North Carolina,1974.0,56
Bagdad,30.58236375,-87.0446964,Florida,3761.0,56
Bagdad,34.57710917,-113.1770082,Arizona,1876.0,56
Baggs,41.03446434,-107.6574478,Wyoming,440.0,56
Bagley,41.84636429,-94.43030475,Iowa,303.0,56
Bagley,42.90152058,-91.09700261,Wisconsin,379.0,56
Bagley,47.52208089,-95.4046095,Minnesota,1392.0,56
Bagnell,38.22937715,-92.60535042,Missouri,93.0,56
Bagtown,39.58298182,-77.61388534,Maryland,333.0,56
Baidland,40.18875565,-79.95335627,Pennsylvania,1563.0,56
Bailey,33.43362186,-96.16509255,Texas,289.0,56
Bailey,35.78061388,-78.11292355,North Carolina,569.0,56
Bailey Lakes,40.94899568,-82.35696625,Ohio,371.0,56
Bailey's Crossroads,38.84772055,-77.13052668,Virginia,23643.0,56
Bailey's Prairie,29.15267055,-95.49765701,Texas,727.0,56
Baileys Harbor,45.06372341,-87.13930491,Wisconsin,257.0,56
Baileyton,34.26081114,-86.60822915,Alabama,610.0,56
Baileyton,36.33116999,-82.83604875,Tennessee,431.0,56
Baileyville,39.8418653,-96.18281388,Kansas,181.0,56
Baileyville,40.71105531,-77.99237304,Pennsylvania,201.0,56
Bainbridge,30.9045447,-84.5726479,Georgia,12783.0,56
Bainbridge,39.22646381,-83.26956169,Ohio,860.0,56
Bainbridge,39.76139965,-86.8112601,Indiana,746.0,56
Bainbridge,40.08686145,-76.6584815,Pennsylvania,1355.0,56
Bainbridge,41.38909549,-81.33090425,Ohio,3267.0,56
Bainbridge,42.29734385,-75.48067975,New York,1355.0,56
Bainbridge Island,47.64495995,-122.5377127,Washington,23025.0,56
Bainville,48.1394206,-104.2196926,Montana,208.0,56
Baird,32.39602404,-99.39622536,Texas,1496.0,56
Bairdford,40.62794195,-79.88171923,Pennsylvania,698.0,56
Bairdstown,41.1711843,-83.60728881,Ohio,130.0,56
Bairoil,42.23720184,-107.561048,Wyoming,106.0,56
Baiting Hollow,40.9645978,-72.74034491,New York,1642.0,56
Baker,30.58177933,-91.15645685,Louisiana,13895.0,56
Baker,35.27691864,-116.0717348,California,735.0,56
Baker,39.01498079,-114.1232974,Nevada,68.0,56
Baker,46.36396426,-104.2740734,Montana,1759.0,56
Baker,46.71048873,-96.5579401,Minnesota,55.0,56
Baker City,44.77488865,-117.831983,Oregon,9828.0,56
Bakerhill,31.77180165,-85.3076415,Alabama,279.0,56
Bakersfield,35.31989505,-119.1421513,California,348332.0,56
Bakersfield,36.52383803,-92.14419364,Missouri,246.0,56
Bakerstown,40.65280542,-79.94073387,Pennsylvania,1761.0,56
Bakersville,36.01535139,-82.1582249,North Carolina,464.0,56
Bal Harbour,25.89316241,-80.12518155,Florida,2513.0,56
Balaton,44.23305095,-95.87074099,Minnesota,643.0,56
Balch Springs,32.7193845,-96.61506564,Texas,23847.0,56
Balcones Heights,29.4900086,-98.55030829,Texas,2954.0,56
Bald Head Island,33.86323524,-77.98553641,North Carolina,158.0,56
Bald Knob,35.30814065,-91.57126,Arkansas,2897.0,56
Baldwin,29.83886624,-91.55216505,Louisiana,2436.0,56
Baldwin,30.30514609,-81.97435387,Florida,1436.0,56
Baldwin,34.46484023,-83.538978,Georgia,3279.0,56
Baldwin,38.18445201,-89.84714,Illinois,373.0,56
Baldwin,40.3743256,-79.95426875,Pennsylvania,19767.0,56
Baldwin,40.66345155,-73.61038191,New York,24033.0,56
Baldwin,42.07315272,-90.83855326,Iowa,109.0,56
Baldwin,43.8971433,-85.85313404,Michigan,1208.0,56
Baldwin,44.95408098,-92.37094359,Wisconsin,3983.0,56
Baldwin City,38.77922027,-95.18949585,Kansas,4515.0,56
Baldwin Harbor,40.63157891,-73.60506416,New York,8102.0,56
Baldwin Park,34.08287152,-117.9721009,California,75390.0,56
Baldwin Park,38.79391141,-94.24665994,Missouri,92.0,56
Baldwinsville,43.15703661,-76.33190579,New York,7395.0,56
Baldwinville,42.60482143,-72.07713813,Massachusetts,2028.0,56
Baldwyn,34.50710824,-88.64162247,Mississippi,3297.0,56
Balfour,35.35065863,-82.48496871,North Carolina,1180.0,56
Ball,31.41893488,-92.40886806,Louisiana,3993.0,56
Ball Club,47.33110532,-93.94606111,Minnesota,342.0,56
Ball Ground,34.34597282,-84.340768,Georgia,1476.0,56
Ballantine,45.94963182,-108.1462433,Montana,320.0,56
Ballard,34.63403662,-120.115605,California,467.0,56
Ballard,40.29484588,-109.9493622,Utah,801.0,56
Ballenger Creek,39.38073125,-77.420583,Maryland,18274.0,56
Ballico,37.45191678,-120.7037071,California,406.0,56
Ballinger,31.74041328,-99.9543255,Texas,3772.0,56
Ballou,36.13996308,-95.20289,Oklahoma,176.0,56
Ballplay,34.01787162,-85.78524288,Alabama,1580.0,56
Ballston Spa,43.0067799,-73.85248421,New York,5327.0,56
Balltown,42.63721697,-90.86979074,Iowa,68.0,56
Ballville,41.32694997,-83.13672159,Ohio,2976.0,56
Ballwin,38.59508143,-90.54999176,Missouri,30261.0,56
Bally,40.40044729,-75.58761658,Pennsylvania,1090.0,56
Balm,27.75415671,-82.28825061,Florida,1457.0,56
Balmorhea,30.98415374,-103.7438781,Texas,479.0,56
Balmville,41.52811634,-74.02335838,New York,3178.0,56
Balsam Lake,45.45846924,-92.45286412,Wisconsin,1009.0,56
Balta,48.16659152,-100.0368886,North Dakota,65.0,56
Baltic,40.44367709,-81.7016263,Ohio,795.0,56
Baltic,41.61398427,-72.08663352,Connecticut,1250.0,56
Baltic,43.76029371,-96.73701821,South Dakota,1089.0,56
Baltimore,39.32458842,-76.5749695,Maryland,620961.0,56
Baltimore,39.84603913,-82.60468722,Ohio,2989.0,56
Baltimore Highlands,39.23544726,-76.63700035,Maryland,7019.0,56
Bamberg,33.29959284,-81.03222938,South Carolina,3607.0,56
Bancroft,38.28317347,-85.61295189,Kentucky,494.0,56
Bancroft,38.51064143,-81.84173538,West Virginia,587.0,56
Bancroft,42.00899477,-96.5718805,Nebraska,495.0,56
Bancroft,42.72126791,-111.8820085,Idaho,370.0,56
Bancroft,42.87632507,-84.06611554,Michigan,549.0,56
Bancroft,43.29283797,-94.2175372,Iowa,732.0,56
Bancroft,44.30932529,-89.50712348,Wisconsin,535.0,56
Bandana,37.144679,-88.94181896,Kentucky,203.0,56
Bandera,29.72547382,-99.07396148,Texas,857.0,56
Bandon,43.12045839,-124.4049395,Oregon,3066.0,56
Baneberry,36.04637563,-83.27821178,Tennessee,482.0,56
Bangor,39.37609119,-121.4116539,California,646.0,56
Bangor,40.86779538,-75.20852267,Pennsylvania,5273.0,56
Bangor,42.31432439,-86.111643,Michigan,1885.0,56
Bangor,43.89191651,-90.992449,Wisconsin,1459.0,56
Bangor,44.83226814,-68.79060729,Maine,33039.0,56
Bangor Base,47.72269743,-122.7144712,Washington,6054.0,56
Bangs,31.71613028,-99.13032001,Texas,1603.0,56
Banks,31.81326404,-85.83643405,Alabama,179.0,56
Banks,33.57579608,-92.26710075,Arkansas,124.0,56
Banks,45.61336419,-123.1075045,Oregon,1822.0,56
Banks Lake South,47.6315197,-119.2759795,Washington,181.0,56
Banks Springs,32.07642369,-92.08506284,Louisiana,1192.0,56
Banner,40.51261253,-89.9156089,Illinois,189.0,56
Banner Elk,36.16099095,-81.878377,North Carolina,1028.0,56
Banner Hill,36.1222307,-82.42026774,Tennessee,1497.0,56
Banning,33.93142544,-116.885735,California,29598.0,56
Bannock,40.10425907,-80.97555915,Ohio,211.0,56
Bannockburn,42.1932905,-87.86950258,Illinois,1606.0,56
Banquete,27.80064151,-97.79717944,Texas,726.0,56
Bantam,41.72474512,-73.24226279,Connecticut,759.0,56
Bar Harbor,44.3811832,-68.21121511,Maine,2552.0,56
Bar Nunn,42.92199267,-106.3474289,Wyoming,2213.0,56
Baraboo,43.4682216,-89.743739,Wisconsin,12057.0,56
Baraga,46.77660024,-88.49648416,Michigan,2053.0,56
Barataria,29.72205519,-90.125724,Louisiana,1109.0,56
Barberton,41.00945511,-81.60370361,Ohio,26537.0,56
Barberton,45.71363427,-122.6114436,Washington,5661.0,56
Barbourmeade,38.30136805,-85.600246,Kentucky,1218.0,56
Barboursville,38.39802861,-82.302582,West Virginia,3964.0,56
Barbourville,36.869067,-83.8905634,Kentucky,3165.0,56
Barclay,39.14505862,-75.86551075,Maryland,120.0,56
Barclay,39.90124333,-75.0008287,New Jersey,4428.0,56
Bardmoor,27.85739219,-82.75343136,Florida,9732.0,56
Bardolph,40.49591747,-90.56307115,Illinois,251.0,56
Bardonia,41.11287432,-73.98224653,New York,4108.0,56
Bardstown,37.81979612,-85.4607395,Kentucky,12472.0,56
Bardwell,32.26707603,-96.69553875,Texas,649.0,56
Bardwell,36.87404573,-89.0141215,Kentucky,723.0,56
Bargersville,39.53306436,-86.194894,Indiana,6240.0,56
Baring,40.24469607,-92.20586924,Missouri,132.0,56
Baring,47.76615222,-121.4802808,Washington,220.0,56
Bark Ranch,40.11556492,-105.441696,Colorado,213.0,56
Barker,43.3283277,-78.55353495,New York,533.0,56
Barker Heights,35.31023924,-82.44104005,North Carolina,1254.0,56
Barker Ten Mile,34.68252387,-78.98884649,North Carolina,952.0,56
Barkeyville,41.19655697,-79.98256813,Pennsylvania,213.0,56
Barling,35.32842046,-94.27918198,Arkansas,4649.0,56
Barlow,37.05116001,-89.04442854,Kentucky,675.0,56
Barlow,45.25237232,-122.7223759,Oregon,135.0,56
Barnard,39.18917088,-98.04425161,Kansas,70.0,56
Barnard,40.17539969,-94.8231671,Missouri,221.0,56
Barnegat,39.75469951,-74.22228733,New Jersey,2817.0,56
Barnegat Light,39.75286925,-74.10817203,New Jersey,574.0,56
Barnes,39.71201001,-96.87321029,Kansas,159.0,56
Barnes City,41.50705937,-92.46961889,Iowa,176.0,56
Barnes Lake-Millers Lake,43.17951105,-83.299767,Michigan,1093.0,56
Barneston,40.04905756,-96.57280314,Nebraska,116.0,56
Barnesville,33.05078963,-84.15197172,Georgia,6755.0,56
Barnesville,39.22034196,-77.37666225,Maryland,172.0,56
Barnesville,39.98881911,-81.17268437,Ohio,4193.0,56
Barnesville,46.64989724,-96.41654944,Minnesota,2563.0,56
Barnet,44.29564859,-72.04982825,Vermont,129.0,56
Barnett,38.37740796,-92.67458111,Missouri,203.0,56
Barneveld,43.01170861,-89.89681651,Wisconsin,1231.0,56
Barneveld,43.27449702,-75.18768611,New York,317.0,56
Barney,46.26584371,-96.99883424,North Dakota,52.0,56
Barney's Junction,48.61734317,-118.1331025,Washington,146.0,56
Barnhart,38.33595987,-90.40447369,Missouri,5682.0,56
Barnhill,40.44966261,-81.36790749,Ohio,396.0,56
Barnsdall,36.56066,-96.16345562,Oklahoma,1243.0,56
Barnstable Town,41.67286573,-70.36045615,Massachusetts,45193.0,56
Barnum,42.50620017,-94.36569796,Iowa,191.0,56
Barnum,46.50537687,-92.68837559,Minnesota,613.0,56
Barnum Island,40.60656945,-73.6476662,New York,2394.0,56
Barnwell,33.23788023,-81.3672705,South Carolina,4750.0,56
Baroda,41.95401827,-86.48796471,Michigan,873.0,56
Barrackville,39.50136721,-80.16973789,West Virginia,1302.0,56
Barre,42.4230077,-72.10637994,Massachusetts,1009.0,56
Barre,44.19966465,-72.50831885,Vermont,9052.0,56
Barrelville,39.70265277,-78.84245359,Maryland,73.0,56
Barrera,26.3925415,-98.89850493,Texas,108.0,56
Barrett,29.8652819,-95.0445555,Texas,3199.0,56
Barrett,45.91230727,-95.901057,Minnesota,415.0,56
Barrington,39.86629215,-75.052141,New Jersey,6983.0,56
Barrington,42.15143849,-88.12796254,Illinois,10324.0,56
Barrington Hills,42.14074817,-88.20329839,Illinois,4228.0,56
Barron,45.39949829,-91.845563,Wisconsin,3423.0,56
Barronett,45.63625739,-91.99414203,Wisconsin,111.0,56
Barrville,40.66633257,-77.68307161,Pennsylvania,160.0,56
Barry,32.09990171,-96.63776426,Texas,242.0,56
Barry,39.69406496,-91.0437495,Illinois,1318.0,56
Barryton,43.75050821,-85.1436013,Michigan,355.0,56
Barstow,31.46154465,-103.3955032,Texas,349.0,56
Barstow,34.85118091,-117.0925248,California,22757.0,56
Barstow,48.7804063,-118.133044,Washington,59.0,56
Bartelso,38.53706066,-89.46709995,Illinois,595.0,56
Bartlesville,36.74037775,-95.9205355,Oklahoma,35750.0,56
Bartlett,30.79519721,-97.43237665,Texas,1635.0,56
Bartlett,35.23369059,-89.81952857,Tennessee,57231.0,56
Bartlett,37.05494343,-95.21116087,Kansas,80.0,56
Bartlett,40.88533855,-95.79466612,Iowa,50.0,56
Bartlett,41.88393253,-98.55256468,Nebraska,117.0,56
Bartlett,41.95656921,-88.2149325,Illinois,41215.0,56
Bartlett,44.07336623,-71.28209115,New Hampshire,373.0,56
Bartley,37.33728995,-81.73338659,West Virginia,224.0,56
Bartley,40.25112211,-100.3104279,Nebraska,283.0,56
Barton,39.53229127,-79.01709329,Maryland,457.0,56
Barton,44.74811942,-72.1785014,Vermont,737.0,56
Barton Creek,30.28185998,-97.86822976,Texas,3077.0,56
Barton Hills,42.31985685,-83.7591345,Michigan,294.0,56
Bartonsville,39.38658313,-77.34336155,Maryland,1451.0,56
Bartonville,33.07953405,-97.15057941,Texas,1570.0,56
Bartonville,40.64017669,-89.6607114,Illinois,6463.0,56
Bartow,27.8873298,-81.82183454,Florida,17334.0,56
Bartow,32.88157272,-82.47115738,Georgia,286.0,56
Bartow,38.54120476,-79.7849605,West Virginia,111.0,56
Barview,43.3464789,-124.3057016,Oregon,1844.0,56
Barwick,30.8932575,-83.73913535,Georgia,386.0,56
Basalt,39.36885998,-107.0303813,Colorado,3847.0,56
Basalt,43.31444329,-112.1650436,Idaho,394.0,56
Basco,40.32763099,-91.2018025,Illinois,98.0,56
Bascom,30.92775792,-85.11808062,Florida,121.0,56
Bascom,41.12904209,-83.28692521,Ohio,390.0,56
Basehor,39.1295955,-94.93473755,Kansas,4742.0,56
Basile,30.48551087,-92.60101985,Louisiana,1821.0,56
Basin,44.3789714,-108.0388963,Wyoming,1285.0,56
Basin,46.28341655,-112.2871528,Montana,212.0,56
Basin City,46.58903969,-119.1566473,Washington,1092.0,56
Baskerville,36.68632558,-78.2730225,Virginia,128.0,56
Baskin,32.26114538,-91.748958,Louisiana,254.0,56
Bass Lake,37.32295577,-119.565279,California,527.0,56
Bass Lake,41.23040485,-86.58447519,Indiana,1195.0,56
Bassett,35.53557701,-90.12943448,Arkansas,173.0,56
Bassett,36.76151761,-79.98655049,Virginia,1100.0,56
Bassett,42.58254154,-99.53662489,Nebraska,619.0,56
Bassett,43.06159289,-92.51525608,Iowa,66.0,56
Bassfield,31.49595499,-89.74493192,Mississippi,254.0,56
Bastrop,30.11256285,-97.3114155,Texas,7199.0,56
Bastrop,32.77496034,-91.90576778,Louisiana,11365.0,56
Basye,38.81814841,-78.76586418,Virginia,1253.0,56
Batavia,39.07804006,-84.1802945,Ohio,1622.0,56
Batavia,40.99510231,-92.16739265,Iowa,499.0,56
Batavia,41.84764166,-88.31102218,Illinois,26305.0,56
Batavia,42.99869932,-78.18023002,New York,15465.0,56
Batavia,48.17783291,-114.4106747,Montana,385.0,56
Batchtown,39.03319627,-90.65336658,Illinois,214.0,56
Bates City,39.00305682,-94.065413,Missouri,219.0,56
Batesburg-Leesville,33.90582187,-81.54837775,South Carolina,5362.0,56
Batesland,43.12782388,-102.1016986,South Dakota,108.0,56
Batesville,28.95518982,-99.62377973,Texas,1068.0,56
Batesville,34.31474693,-89.92491377,Mississippi,7463.0,56
Batesville,35.76927112,-91.6228954,Arkansas,10275.0,56
Batesville,39.29722308,-85.21323994,Indiana,6527.0,56
Batesville,39.91560935,-81.28236335,Ohio,71.0,56
Bath,35.47427182,-76.80899632,North Carolina,249.0,56
Bath,40.19051907,-90.14254834,Illinois,333.0,56
Bath,40.72787633,-75.39183367,Pennsylvania,2693.0,56
Bath,42.33625131,-77.31795112,New York,5786.0,56
Bath,42.82025434,-84.45453693,Michigan,2083.0,56
Bath,43.93397938,-69.83731929,Maine,8514.0,56
Bath,45.46915816,-98.32356196,South Dakota,172.0,56
Bath (Berkeley Springs),39.62544131,-78.22744128,West Virginia,624.0,56
Baton Rouge,30.38537815,-91.1181035,Louisiana,230714.0,56
Battle Creek,41.99811886,-97.59946474,Nebraska,1207.0,56
Battle Creek,42.27934053,-85.2149875,Michigan,52389.0,56
Battle Creek,42.31685556,-95.60026512,Iowa,713.0,56
Battle Ground,40.50598555,-86.8507305,Indiana,1405.0,56
Battle Ground,45.77635855,-122.5411149,Washington,17967.0,56
Battle Lake,46.28568149,-95.717041,Minnesota,875.0,56
Battle Mountain,40.64089506,-116.9384513,Nevada,3635.0,56
Battlefield,37.11929678,-93.36828809,Missouri,5596.0,56
Battlement Mesa,39.45051548,-108.0066489,Colorado,4471.0,56
Baudette,48.71368407,-94.60793725,Minnesota,1106.0,56
Baumstown,40.27773777,-75.80656793,Pennsylvania,422.0,56
Bauxite,34.56024435,-92.49902801,Arkansas,499.0,56
Bawcomville,32.47024092,-92.17356906,Louisiana,3588.0,56
Baxley,31.76430164,-82.34834966,Georgia,4601.0,56
Baxter,36.15802336,-85.637902,Tennessee,1372.0,56
Baxter,41.82520032,-93.15245522,Iowa,1101.0,56
Baxter,46.34262007,-94.27932854,Minnesota,7610.0,56
Baxter Estates,40.83376797,-73.69471925,New York,999.0,56
Baxter Springs,37.02382246,-94.734885,Kansas,4243.0,56
Bay,35.7461598,-90.5546693,Arkansas,1801.0,56
Bay Center,46.62071259,-123.9530683,Washington,276.0,56
Bay City,28.98373595,-95.96011902,Texas,17763.0,56
Bay City,43.5902482,-83.88862917,Michigan,34934.0,56
Bay City,44.58632711,-92.45382781,Wisconsin,500.0,56
Bay City,45.5218228,-123.8837891,Oregon,1286.0,56
Bay Harbor Islands,25.88737682,-80.13144617,Florida,5628.0,56
Bay Head,40.07420333,-74.051623,New Jersey,968.0,56
Bay Hill,28.45581428,-81.51222432,Florida,4884.0,56
Bay Minette,30.87938653,-87.77866833,Alabama,8329.0,56
Bay Park,40.63085964,-73.66675605,New York,2212.0,56
Bay Pines,27.82133395,-82.77629681,Florida,3008.0,56
Bay Point,38.03286286,-121.9614605,California,21349.0,56
Bay Port,43.83785971,-83.37383369,Michigan,477.0,56
Bay Shore,40.73204645,-73.2508531,New York,26337.0,56
Bay Shore,45.36089974,-85.11157118,Michigan,754.0,48
Bay Springs,31.97720609,-89.27919613,Mississippi,1786.0,56
Bay St. Louis,30.31890443,-89.35035149,Mississippi,9260.0,56
Bay View,41.46831385,-82.82491692,Ohio,632.0,56
Bay View,45.38326289,-84.9304929,Michigan,253.0,56
Bay View,48.48700097,-122.4625549,Washington,696.0,56
Bay View Gardens,40.8101929,-89.52720692,Illinois,378.0,56
Bay Village,41.48505952,-81.93165905,Ohio,15651.0,56
Bayard,32.75570974,-108.138839,New Mexico,2328.0,56
Bayard,39.27106204,-79.3661753,West Virginia,290.0,56
Bayard,41.75719308,-103.3230156,Nebraska,1209.0,56
Bayard,41.85195638,-94.55775351,Iowa,471.0,56
Bayboro,35.14754179,-76.76925469,North Carolina,1263.0,56
Bayfield,37.23402518,-107.5951692,Colorado,2348.0,56
Bayfield,46.81536935,-90.82549,Wisconsin,487.0,56
Baylis,39.72945451,-90.90942199,Illinois,205.0,56
Bayonet Point,28.32542779,-82.6834277,Florida,23467.0,56
Bayonne,40.66000259,-74.10632297,New Jersey,63024.0,56
Bayou Blue,29.60342213,-90.6319715,Louisiana,12352.0,56
Bayou Cane,29.62439223,-90.75103109,Louisiana,19355.0,56
Bayou Corne,30.01591491,-91.15278438,Louisiana,181.0,48
Bayou Country Club,29.77995732,-90.7893866,Louisiana,1396.0,56
Bayou Gauche,29.80811879,-90.42098518,Louisiana,2071.0,56
Bayou Goula,30.21050279,-91.17660291,Louisiana,612.0,56
Bayou L'Ourse,29.71952332,-91.071663,Louisiana,1978.0,56
Bayou La Batre,30.40440807,-88.2607275,Alabama,2563.0,56
Bayou Vista,29.32570662,-94.93885822,Texas,1537.0,56
Bayou Vista,29.69118788,-91.2671554,Louisiana,4652.0,56
Bayport,40.7464327,-73.05458354,New York,8896.0,56
Bayport,45.01522025,-92.77888767,Minnesota,3471.0,56
Bayshore,34.29102918,-77.809086,North Carolina,3358.0,56
Bayshore Gardens,27.4395154,-82.576725,Florida,16323.0,56
Bayside,28.09507982,-97.21476999,Texas,325.0,56
Bayside,37.75478853,-75.71285148,Virginia,120.0,56
Bayside,43.1840691,-87.9027995,Wisconsin,4389.0,56
Bayside Gardens,45.71432874,-123.9164737,Oregon,880.0,56
Baytown,29.73441819,-94.952847,Texas,72176.0,56
Bayview,26.12674372,-97.39964486,Texas,383.0,56
Bayview,35.44190305,-76.7934524,North Carolina,346.0,56
Bayview,38.00550269,-122.3196769,California,1754.0,56
Bayview,40.76533503,-124.1786052,California,2510.0,56
Bayville,40.90767987,-73.56182808,New York,6669.0,56
Baywood,40.75335452,-73.28992528,New York,7350.0,56
Bazine,38.44612602,-99.6930058,Kansas,334.0,56
Beach,46.91524579,-104.007687,North Dakota,1019.0,56
Beach City,29.74644769,-94.8465045,Texas,2198.0,56
Beach City,40.65312342,-81.57955281,Ohio,1047.0,56
Beach Haven,39.56522218,-74.23643373,New Jersey,1170.0,56
Beach Haven West,39.67199897,-74.236526,New Jersey,3896.0,56
Beach Park,42.41947888,-87.83801925,Illinois,13595.0,56
Beachwood,39.92861707,-74.20226377,New Jersey,11045.0,56
Beachwood,41.4758604,-81.50296591,Ohio,11953.0,56
Beacon,41.27461879,-92.68140154,Iowa,494.0,56
Beacon,41.5035814,-73.96543633,New York,15541.0,56
Beacon Square,28.21177797,-82.75033272,Florida,7224.0,56
Beal City,43.66920864,-84.90861433,Michigan,357.0,56
Beale AFB,39.10957105,-121.3542419,California,1319.0,56
Bealeton,38.58214049,-77.77807017,Virginia,4435.0,56
Beallsville,39.84954552,-81.0361625,Ohio,409.0,56
Beallsville,40.06190403,-80.03023092,Pennsylvania,466.0,56
Beaman,42.22094446,-92.8235515,Iowa,191.0,56
Bean Station,36.34859116,-83.3077525,Tennessee,3010.0,56
Bear,39.6187762,-75.68029541,Delaware,19371.0,56
Bear Creek,27.7562123,-82.72775723,Florida,1948.0,56
Bear Creek,30.18255705,-97.93998106,Texas,382.0,56
Bear Creek,34.26495277,-87.71659715,Alabama,1070.0,56
Bear Creek,37.29606264,-120.418152,California,290.0,56
Bear Creek,44.53131838,-88.72753641,Wisconsin,448.0,56
Bear Creek,60.20705996,-149.3524246,Alaska,1956.0,56
Bear Creek Village,41.18770553,-75.75521327,Pennsylvania,257.0,56
Bear Dance,47.90191146,-114.0273162,Montana,275.0,56
Bear Grass,35.76604811,-77.12909826,North Carolina,73.0,56
Bear Lake,41.99343635,-79.50136451,Pennsylvania,164.0,56
Bear Lake,44.42095546,-86.146133,Michigan,286.0,56
Bear Lake,44.71822155,-84.94861679,Michigan,327.0,56
Bear River,41.37997397,-111.03572,Wyoming,612.0,56
Bear River City,41.61237753,-112.1249529,Utah,853.0,56
Bear Rocks,40.12652495,-79.46501777,Pennsylvania,1048.0,56
Bear Valley,37.56707203,-120.1229668,California,125.0,56
Bear Valley,38.47216173,-120.0491462,California,121.0,56
Bear Valley Springs,35.17748931,-118.6459616,California,5172.0,56
Bearcreek,45.16055573,-109.1574208,Montana,79.0,56
Bearden,33.72765162,-92.61867825,Arkansas,968.0,56
Bearden,35.35676812,-96.3852339,Oklahoma,133.0,56
Beards Fork,38.06455136,-81.22776611,West Virginia,199.0,56
Beardsley,45.55766274,-96.71396371,Minnesota,233.0,56
Beardstown,40.01236191,-90.43115225,Illinois,6139.0,56
Beasley,29.49462437,-95.91462932,Texas,641.0,56
Beason,40.14234727,-89.19507092,Illinois,189.0,56
Beatrice,31.73330937,-87.20904641,Alabama,301.0,56
Beatrice,40.27371913,-96.74542261,Nebraska,12614.0,56
Beattie,39.86237073,-96.41779041,Kansas,200.0,56
Beatty,36.94725294,-116.704922,Nevada,1010.0,56
Beattystown,40.82219682,-74.85014396,New Jersey,4555.0,56
Beattyville,37.58615467,-83.70652522,Kentucky,1307.0,56
Beaufort,32.4623973,-80.72395399,South Carolina,12412.0,56
Beaufort,34.7252567,-76.64943893,North Carolina,4042.0,56
Beaumont,30.08495828,-94.14511553,Texas,118309.0,56
Beaumont,31.17070276,-88.92523991,Mississippi,951.0,56
Beaumont,33.89496378,-116.9516023,California,36938.0,56
Beauregard,31.72103285,-90.38592324,Mississippi,326.0,56
Beaux Arts Village,47.58529124,-122.2049487,Washington,299.0,56
Beaver,36.47522167,-93.77270105,Arkansas,96.0,56
Beaver,36.8151258,-100.5235206,Oklahoma,1515.0,56
Beaver,37.73561976,-81.14993599,West Virginia,1308.0,56
Beaver,38.27593747,-112.6382945,Utah,3114.0,56
Beaver,39.03192209,-82.82525406,Ohio,449.0,56
Beaver,40.693566,-80.30742829,Pennsylvania,4531.0,56
Beaver,45.27412405,-123.8195755,Oregon,122.0,56
Beaver,66.38300476,-147.3218535,Alaska,84.0,56
Beaver Bay,47.25917198,-91.30446331,Minnesota,181.0,56
Beaver City,40.13833184,-99.82761518,Nebraska,609.0,56
Beaver Creek,39.57856307,-77.64765156,Maryland,251.0,56
Beaver Creek,43.61242928,-96.36236667,Minnesota,297.0,56
Beaver Creek,48.5436672,-109.8069203,Montana,271.0,56
Beaver Crossing,40.77821001,-97.28245076,Nebraska,403.0,56
Beaver Dam,36.90709773,-113.9363118,Arizona,1962.0,56
Beaver Dam,37.4039185,-86.87406269,Kentucky,3468.0,56
Beaver Dam,43.46903994,-88.83072527,Wisconsin,16444.0,56
Beaver Dam Lake,41.44418323,-74.11781152,New York,2242.0,48
Beaver Falls,40.75401335,-80.3152395,Pennsylvania,8987.0,56
Beaver Meadows,40.92989148,-75.91310486,Pennsylvania,869.0,56
Beaver Springs,40.74489778,-77.21686171,Pennsylvania,674.0,56
Beaver Valley,34.34091125,-111.298678,Arizona,231.0,56
Beavercreek,39.73099857,-84.06236262,Ohio,45192.0,56
Beavercreek,45.27552026,-122.5135949,Oregon,4485.0,56
Beaverdale,40.32434306,-78.70112718,Pennsylvania,1035.0,56
Beaverdale,40.85061875,-91.19750225,Iowa,952.0,56
Beaverdam,40.83279967,-83.97378831,Ohio,382.0,56
Beaverton,33.93541175,-88.02177782,Alabama,201.0,56
Beaverton,43.88113167,-84.48862644,Michigan,1072.0,56
Beaverton,45.47139706,-122.810678,Oregon,89976.0,56
Beavertown,40.75222271,-77.16911653,Pennsylvania,965.0,56
Beaverville,40.95342262,-87.65466189,Illinois,359.0,56
Bechtelsville,40.37101637,-75.63074261,Pennsylvania,953.0,56
Beckemeyer,38.60580114,-89.43227105,Illinois,1040.0,56
Becker,45.3819633,-93.8738222,Minnesota,4538.0,56
Beckett,39.75654446,-75.35638326,New Jersey,4847.0,56
Beckett Ridge,39.34576364,-84.44901375,Ohio,9187.0,56
Beckley,37.77406294,-81.181208,West Virginia,17614.0,56
Beckville,32.24360186,-94.45608696,Texas,847.0,56
Beckwourth,39.84853167,-120.4110473,California,432.0,56
Beclabito,36.83158111,-108.9922985,New Mexico,317.0,56
Bedford,32.8464006,-97.13501061,Texas,46979.0,56
Bedford,37.33947695,-79.5247055,Virginia,6717.0,56
Bedford,38.59608259,-85.31619825,Kentucky,610.0,56
Bedford,38.86474527,-86.4821845,Indiana,13413.0,56
Bedford,40.01487849,-78.50333577,Pennsylvania,2841.0,56
Bedford,40.67115038,-94.72403665,Iowa,1440.0,56
Bedford,41.19429529,-73.64682615,New York,1834.0,56
Bedford,41.3973252,-81.539274,Ohio,13074.0,56
Bedford,42.89834813,-110.9431271,Wyoming,201.0,56
Bedford Heights,41.40413552,-81.50531815,Ohio,10751.0,56
Bedford Hills,41.23980592,-73.6977125,New York,3001.0,56
Bedford Park,41.76503263,-87.76973775,Illinois,580.0,56
Bedias,30.77919157,-95.94690384,Texas,443.0,56
Bee,34.12505859,-96.56877242,Oklahoma,140.0,56
Bee,41.00641027,-97.05826811,Nebraska,191.0,56
Bee Cave,30.30831566,-97.96334254,Texas,4242.0,56
Bee Ridge,27.28545804,-82.47311018,Florida,9598.0,56
Beebe,35.07115935,-91.89957698,Arkansas,7315.0,56
Beech Bottom,40.21808152,-80.65872956,West Virginia,523.0,56
Beech Creek,41.07454134,-77.58519932,Pennsylvania,701.0,56
Beech Grove,37.61827629,-87.3921075,Kentucky,243.0,56
Beech Grove,39.71564567,-86.08701311,Indiana,14192.0,56
Beech Mountain,36.21040683,-81.88750207,North Carolina,320.0,56
Beech Mountain Lakes,41.04143633,-75.9323843,Pennsylvania,2022.0,56
Beecher,41.35012044,-87.61741901,Illinois,4359.0,56
Beecher,43.09026964,-83.7039198,Michigan,10232.0,56
Beecher City,39.18665144,-88.787562,Illinois,463.0,56
Beecher Falls,45.00906368,-71.49356484,Vermont,177.0,56
Beechmont,37.17140338,-87.03648544,Kentucky,689.0,56
Beechwood,32.33025361,-90.81901967,Mississippi,3426.0,56
Beechwood,42.79822638,-86.12275606,Michigan,3015.0,56
Beechwood Trails,40.02519084,-82.64615072,Ohio,2762.0,56
Beechwood Village,38.2554675,-85.62965428,Kentucky,1324.0,56
Beedeville,35.42916897,-91.1107379,Arkansas,107.0,56
Beemer,41.93000971,-96.80935102,Nebraska,678.0,56
Beersheba Springs,35.45898706,-85.66890357,Tennessee,477.0,56
Beeville,28.40587629,-97.74940423,Texas,12863.0,56
Beggs,35.72616792,-96.028475,Oklahoma,1338.0,56
Bejou,47.44291339,-95.97271164,Minnesota,89.0,56
Bel Air,39.534754,-76.34597229,Maryland,10185.0,56
Bel Air,39.58168226,-78.85392825,Maryland,1258.0,56
Bel Air North,39.55434469,-76.3732463,Maryland,30568.0,56
Bel Air South,39.50505437,-76.31973653,Maryland,47644.0,56
Bel Aire,37.78140677,-97.235288,Kansas,6769.0,56
Bel-Nor,38.70171367,-90.31798173,Missouri,1499.0,56
Bel-Ridge,38.71281595,-90.32853152,Missouri,2714.0,56
Belcher,32.75212499,-93.83716704,Louisiana,263.0,56
Belchertown,42.26798151,-72.3930975,Massachusetts,2899.0,56
Belcourt,48.8416961,-99.7447128,North Dakota,2078.0,56
Belden,42.41172027,-97.20740649,Nebraska,115.0,56
Belding,43.09677102,-85.23300193,Michigan,5757.0,56
Belen,34.66214907,-106.767894,New Mexico,7421.0,56
Belfair,47.44766225,-122.865799,Washington,3931.0,56
Belfast,40.78320325,-75.27554484,Pennsylvania,1257.0,56
Belfast,42.33978048,-78.11843217,New York,837.0,56
Belfast,44.41327798,-69.03811805,Maine,6668.0,56
Belfield,46.88588362,-103.1989405,North Dakota,798.0,56
Belfonte,35.53681956,-94.55070962,Oklahoma,394.0,56
Belford,40.42585363,-74.08049968,New Jersey,1768.0,56
Belfry,37.6194077,-82.26843429,Kentucky,238.0,48
Belfry,45.13746402,-108.9984926,Montana,218.0,56
Belgium,40.06361654,-87.6359795,Illinois,404.0,56
Belgium,43.50184526,-87.84756789,Wisconsin,2245.0,56
Belgrade,41.47084073,-98.0677309,Nebraska,126.0,56
Belgrade,45.45062727,-94.99981315,Minnesota,740.0,56
Belgrade,45.7806525,-111.179797,Montana,7535.0,56
Belgreen,34.4767575,-87.86528689,Alabama,129.0,56
Belhaven,35.54415735,-76.62261294,North Carolina,1688.0,56
Belington,39.02196409,-79.93832892,West Virginia,1921.0,56
Belk,33.65164798,-87.92860801,Alabama,215.0,56
Belknap,37.32242648,-88.94045937,Illinois,104.0,56
Belknap,47.64731639,-115.4221274,Montana,158.0,56
Bell,29.75684669,-82.86196968,Florida,456.0,56
Bell,33.97452627,-118.1791545,California,35477.0,56
Bell,35.75966448,-94.537309,Oklahoma,535.0,56
Bell Acres,40.58976832,-80.17379774,Pennsylvania,1388.0,56
Bell Arthur,35.59117693,-77.51270421,North Carolina,466.0,56
Bell Buckle,35.59006812,-86.35309073,Tennessee,500.0,56
Bell Canyon,34.20592547,-118.691562,California,2049.0,56
Bell Center,43.29160325,-90.82565402,Wisconsin,117.0,56
Bell City,37.02373177,-89.81957956,Missouri,448.0,56
Bell Gardens,33.96633159,-118.1550132,California,42072.0,56
Bell Hill,48.05494963,-123.0869769,Washington,837.0,56
Bella Villa,38.54361508,-90.28545924,Missouri,729.0,56
Bella Vista,36.46667683,-94.27078454,Arkansas,26518.0,56
Bella Vista,40.65018077,-122.2449932,California,2781.0,56
Bellair-Meadowbrook Terrace,30.17956831,-81.73755388,Florida,13338.0,56
Bellaire,29.7040056,-95.46217801,Texas,16889.0,56
Bellaire,40.01356612,-80.7482005,Ohio,4278.0,56
Bellaire,44.9737985,-85.20572838,Michigan,1086.0,56
Bellamy,32.45640873,-88.1297375,Alabama,543.0,56
Bellbrook,39.63835098,-84.08628801,Ohio,6943.0,56
Belle,38.23374655,-81.53871461,West Virginia,1260.0,56
Belle,38.28491425,-91.7218402,Missouri,1545.0,56
Belle Center,40.50888601,-83.74533964,Ohio,813.0,56
Belle Chasse,29.84716183,-90.00688581,Louisiana,12679.0,56
Belle Fontaine,30.49209226,-88.11321149,Alabama,608.0,56
Belle Fourche,44.65522175,-103.8555335,South Dakota,5614.0,56
Belle Glade,26.69066948,-80.67155907,Florida,18233.0,56
Belle Haven,37.55546372,-75.82535784,Virginia,532.0,56
Belle Haven,38.78229518,-77.06370203,Virginia,6518.0,56
Belle Isle,28.4722517,-81.34904591,Florida,6268.0,56
Belle Mead,40.46453334,-74.67254366,New Jersey,216.0,56
Belle Meade,36.09944315,-86.85625924,Tennessee,2912.0,56
Belle Plaine,37.39478274,-97.27924953,Kansas,1681.0,56
Belle Plaine,41.89537325,-92.27506784,Iowa,2534.0,56
Belle Plaine,44.61895424,-93.76426517,Minnesota,6661.0,56
Belle Prairie City,38.22323085,-88.5517925,Illinois,54.0,56
Belle Rive,38.23172546,-88.74049007,Illinois,361.0,56
Belle Rose,30.06442957,-91.036385,Louisiana,1902.0,56
Belle Terre,40.96071971,-73.06717488,New York,792.0,56
Belle Valley,39.788819,-81.55653155,Ohio,223.0,56
Belle Vernon,40.12565801,-79.86706508,Pennsylvania,1093.0,56
Belleair,27.93582573,-82.8082002,Florida,3869.0,56
Belleair Beach,27.92154743,-82.84270301,Florida,1560.0,56
Belleair Bluffs,27.92123449,-82.81386676,Florida,2094.0,56
Belleair Shore,27.91701494,-82.84529649,Florida,109.0,56
Bellechester,44.37101894,-92.51132226,Minnesota,175.0,56
Bellefontaine,40.36270719,-83.7625268,Ohio,13374.0,56
Bellefontaine Neighbors,38.75287582,-90.22798954,Missouri,10860.0,56
Bellefonte,36.19986413,-93.04703898,Arkansas,439.0,56
Bellefonte,38.49482377,-82.69120927,Kentucky,888.0,56
Bellefonte,39.76689229,-75.49816338,Delaware,1193.0,56
Bellefonte,40.9141222,-77.768341,Pennsylvania,6187.0,56
Bellemeade,38.25098039,-85.59102599,Kentucky,865.0,56
Belleplain,39.27196262,-74.8631035,New Jersey,597.0,56
Bellerive Acres,38.71151462,-90.312479,Missouri,188.0,48
Bellerose,40.72425287,-73.71668754,New York,1193.0,56
Bellerose Terrace,40.72214743,-73.72516267,New York,2198.0,56
Belleview,29.06083689,-82.05646901,Florida,4641.0,56
Belleview,38.97924364,-84.82486974,Kentucky,343.0,56
Belleville,35.09153032,-93.44577493,Arkansas,441.0,56
Belleville,38.51797147,-89.99092621,Illinois,45072.0,56
Belleville,39.82515651,-97.63143674,Kansas,2003.0,56
Belleville,40.60593692,-77.72106847,Pennsylvania,1827.0,56
Belleville,42.20072035,-83.479034,Michigan,3991.0,56
Belleville,42.86248909,-89.542121,Wisconsin,2377.0,56
Belleville,43.78423531,-76.1150525,New York,226.0,56
Bellevue,33.63350802,-98.01634698,Texas,362.0,56
Bellevue,39.09903145,-84.4766145,Kentucky,5955.0,56
Bellevue,40.49447539,-80.05499117,Pennsylvania,8370.0,56
Bellevue,40.68764436,-89.67319274,Illinois,2057.0,56
Bellevue,41.15574535,-95.93712756,Nebraska,51531.0,56
Bellevue,41.27432942,-82.83972939,Ohio,8280.0,56
Bellevue,42.26239658,-90.4319015,Iowa,2191.0,56
Bellevue,42.4443151,-85.01870192,Michigan,1282.0,56
Bellevue,43.46841095,-114.2550648,Idaho,2287.0,56
Bellevue,44.45925519,-87.95535802,Wisconsin,14629.0,56
Bellevue,47.59511432,-122.1535329,Washington,127893.0,56
Bellewood,38.26082467,-85.6593759,Kentucky,321.0,56
Bellflower,33.88803941,-118.1271038,California,76616.0,56
Bellflower,39.00362929,-91.35207138,Missouri,393.0,56
Bellflower,40.34206293,-88.5251165,Illinois,357.0,56
Bellfountain,44.36539394,-123.3559294,Oregon,75.0,56
Bellingham,42.09397924,-71.47608788,Massachusetts,4854.0,56
Bellingham,45.13765971,-96.2813915,Minnesota,168.0,56
Bellingham,48.74985713,-122.465023,Washington,81279.0,56
Bellmawr,39.86655635,-75.09410735,New Jersey,11583.0,56
Bellmead,31.60257141,-97.08958764,Texas,9901.0,56
Bellmont,38.38302597,-87.91060402,Illinois,276.0,56
Bellmore,40.66153344,-73.52974425,New York,16218.0,56
Bellows Falls,43.13433392,-72.4549773,Vermont,3148.0,56
Bellport,40.75489981,-72.9429443,New York,2084.0,56
Bells,33.61662082,-96.41265776,Texas,1392.0,56
Bells,35.72028209,-89.08580283,Tennessee,2437.0,56
Bellview,30.46204089,-87.31199506,Florida,23355.0,56
Bellville,29.94730446,-96.25981624,Texas,4097.0,56
Bellville,32.15255782,-81.97435381,Georgia,123.0,56
Bellville,40.64158405,-82.541019,Ohio,1918.0,56
Bellwood,37.40604273,-77.43633682,Virginia,6352.0,56
Bellwood,40.60092843,-78.33429293,Pennsylvania,1828.0,56
Bellwood,41.34204421,-97.2399502,Nebraska,435.0,56
Bellwood,41.88290108,-87.87617253,Illinois,19071.0,56
Belmar,40.1799011,-74.02502373,New Jersey,5794.0,56
Belmar,41.3010379,-101.9152713,Nebraska,216.0,56
Belmond,42.84657379,-93.60845014,Iowa,2376.0,56
Belmont,31.71818328,-93.50817877,Louisiana,361.0,56
Belmont,34.51662681,-88.21836375,Mississippi,2023.0,56
Belmont,35.23843027,-81.04022099,North Carolina,10613.0,56
Belmont,37.51538115,-122.2955656,California,25844.0,56
Belmont,39.06495156,-77.49644426,Virginia,5966.0,56
Belmont,39.37865841,-81.26339192,West Virginia,903.0,56
Belmont,40.02797941,-81.04093287,Ohio,453.0,56
Belmont,40.28293468,-78.8906855,Pennsylvania,2784.0,56
Belmont,42.22259285,-78.03276377,New York,969.0,56
Belmont,42.39598978,-71.17949103,Massachusetts,24729.0,56
Belmont,42.73788147,-90.33453024,Wisconsin,986.0,56
Belmont,43.44302333,-71.47798918,New Hampshire,1301.0,56
Belmont Estates,38.44644901,-78.92278339,Virginia,1263.0,56
Belmore,41.1548383,-83.94169727,Ohio,143.0,56
Beloit,39.46440567,-98.10810594,Kansas,3835.0,56
Beloit,40.91953845,-80.99633832,Ohio,978.0,56
Beloit,42.51084158,-89.04688775,Wisconsin,36981.0,56
Belpre,37.95066916,-99.09982156,Kansas,87.0,56
Belpre,39.28142785,-81.59704737,Ohio,6441.0,56
Belspring,37.19390011,-80.60970518,Virginia,256.0,56
Belt,47.38720163,-110.9277368,Montana,597.0,56
Belton,31.05244725,-97.4790319,Texas,18213.0,56
Belton,34.52355822,-82.4932023,South Carolina,4144.0,56
Belton,38.81938694,-94.53356062,Missouri,23116.0,56
Beltrami,47.54249645,-96.52707989,Minnesota,107.0,56
Beltsville,39.03943427,-76.92108412,Maryland,16772.0,56
Belva,38.23274881,-81.1894672,West Virginia,95.0,56
Belvedere,33.53689786,-81.94235675,South Carolina,5754.0,56
Belvedere,37.87373398,-122.4664336,California,2068.0,56
